"Long","Lat","Stn_Name","Clim_ID","Prov","Tm","DwTm","D","Tx","DwTx","Tn","DwTn","S","DwS","S%N","P","DwP","P%N","S_G","Pd","BS","DwBS","BS%","HDD","CDD"
"-123.742","48.935","CHEMAINUS","1011500","BC","7.2","0","NA","14.0","0","1.0","0","0.0","0","NA","170.8","0","NA","0.0","14","","","NA","313.9","0.0"
"-124.052","48.829","LAKE COWICHAN","1012055","BC","5.8","13","1.8","16.5","9","-1.5","9","0.0","10","NA","336.0","9","NA","0.0","16","","","NA","195.0","0.0"
"-123.226","48.425","DISCOVERY ISLAND","1012475","BC","","","NA","13.3","0","","","","","NA","","","NA","","","","","NA","",""
"-123.728","48.735","DUNCAN KELVIN CREEK","1012573","BC","6.3","1","1.9","14.5","1","-0.5","1","0.0","1","NA","222.8","1","NA","0.0","17","","","NA","328.0","0.0"
"-123.439","48.432","ESQUIMALT HARBOUR","1012710","BC","8.0","0","NA","13.4","0","1.6","0","","","NA","139.0","0","NA","","15","","","NA","291.3","0.0"
"-123.573","48.985","GALIANO NORTH","10130MN","BC","7.8","5","NA","14.0","5","2.5","5","0.0","5","NA","139.6","5","NA","0.0","17","","","NA","244.9","0.0"
"-123.530","48.575","MALAHAT","1014820","BC","5.7","0","NA","11.6","0","0.5","0","","","NA","175.6","0","NA","","18","","","NA","356.0","0.0"
"-123.561","48.374","METCHOSIN","1015105","BC","","","NA","","","","","0.0","0","0.0","183.2","0","170.0","0.0","17","","","NA","",""
"-123.718","48.824","NORTH COWICHAN","1015628","BC","","","NA","","","","","0.0","0","0.0","177.3","0","141.0","0.0","19","","","NA","",""
"-123.719","48.824","NORTH COWICHAN","1015630","BC","6.5","0","NA","15.9","0","-1.1","0","","","NA","135.7","0","NA","","15","","","NA","332.7","0.0"
"-123.287","48.764","NORTH PENDER ISLAND","1015638","BC","7.7","0","NA","14.0","0","1.5","0","0.0","0","NA","121.2","0","NA","0.0","15","","","NA","298.6","0.0"
"-123.531","48.298","RACE ROCKS","1016640","BC","8.6","0","NA","14.4","0","4.4","0","","","NA","","","NA","","","","","NA","272.2","0.0"
"-123.419","48.622","SAANICHTON CDA","1016940","BC","7.5","1","2.2","13.5","0","2.0","1","0.0","0","0.0","144.8","0","162.0","0.0","18","","","NA","295.3","0.0"
"-123.546","48.888","SALTSPRING ST MARY'S L","1016995","BC","7.0","7","2.0","12.0","7","1.5","7","0.0","7","NA","94.6","7","NA","0.0","12","","","NA","241.0","0.0"
"-123.427","48.598","SAANICHTON MT NEWTON","1016RM0","BC","","","NA","","","","","0.0","16","NA","127.8","16","NA","","13","","","NA","",""
"-123.128","48.775","SATURNA CAPMON","1017098","BC","7.1","0","2.1","13.0","0","1.1","0","0.0","0","0.0","131.4","0","204.0","","19","","","NA","315.4","0.0"
"-123.128","48.775","SATURNA CAPMON CS","1017099","BC","6.9","1","NA","12.9","1","1.0","0","","","NA","101.2","1","NA","","12","","","NA","310.4","0.0"
"-123.045","48.784","SATURNA ISLAND CS","1017101","BC","8.3","1","NA","13.7","1","3.8","0","","","NA","108.4","1","NA","","13","","","NA","270.5","0.0"
"-123.626","48.647","SHAWNIGAN LAKE","1017230","BC","6.1","0","2.1","14.5","0","-0.5","0","0.0","0","0.0","191.2","0","142.0","0.0","19","","","NA","343.8","0.0"
"-123.921","48.377","SHERINGHAM POINT","1017254","BC","8.5","0","NA","14.0","0","4.3","0","","","NA","183.0","0","NA","","19","","","NA","275.9","0.0"
"-123.305","48.457","VICTORIA UNIVERSITY CS","1018598","BC","7.6","0","NA","14.1","0","0.2","0","","","NA","115.5","0","NA","","14","","","NA","302.2","0.0"
"-123.443","48.476","VICTORIA FRANCIS PARK","1018605","BC","","","NA","","","","","0.0","18","NA","155.2","18","NA","","11","","","NA","",""
"-123.325","48.413","VICTORIA GONZALES CS","1018611","BC","8.0","0","NA","14.0","0","3.0","0","","","NA","106.0","7","NA","","11","","","NA","288.6","0.0"
"-123.426","48.647","VICTORIA INTL A","1018621","BC","6.9","0","NA","14.0","0","-0.1","0","0.0","0","NA","116.4","1","NA","","15","","","NA","321.8","0.0"
"-124.160","49.350","BALLENAS ISLAND","1020590","BC","7.4","0","NA","13.4","0","3.7","0","","","NA","80.4","0","NA","","15","","","NA","307.0","0.0"
"-125.273","49.952","CAMPBELL RIVER A","1021261","BC","4.5","0","1.3","11.6","0","-4.1","0","0.0","0","0.0","185.4","0","124.0","0.0","21","","","NA","391.1","0.0"
"-125.195","49.998","CAPE MUDGE","1021330","BC","6.5","0","1.9","12.5","0","1.0","0","0.0","0","0.0","194.9","0","138.0","0.0","20","","","NA","334.0","0.0"
"-125.446","50.333","CHATHAM POINT","1021480","BC","6.3","8","1.7","11.0","8","1.5","8","0.0","8","NA","180.8","8","NA","","15","","","NA","246.2","0.0"
"-124.683","49.472","CHROME ISLAND","1021500","BC","7.3","0","NA","13.0","0","0.0","0","0.0","0","NA","224.6","0","NA","0.0","20","","","NA","311.2","0.0"
"-124.900","49.717","COMOX A","1021830","BC","5.8","0","1.5","13.4","0","-0.8","0","0.0","0","0.0","168.7","0","148.0","0.0","17","","","NA","354.0","0.0"
"-124.949","50.071","CORTES ISLAND TIBER BAY","1021960","BC","6.0","3","NA","15.0","3","-1.5","3","0.0","3","NA","163.4","3","NA","0.0","18","","","NA","312.8","0.0"
"-124.999","49.763","COURTENAY GRANTHAM","1021988","BC","5.6","6","NA","10.5","6","-0.5","6","0.0","6","NA","222.6","6","NA","0.0","17","","","NA","286.1","0.0"
"-125.033","49.686","COURTENAY PUNTLEDGE","1021989","BC","5.1","4","NA","14.0","2","-2.0","2","0.0","1","NA","225.4","1","NA","0.0","19","","","NA","321.9","0.0"
"-123.811","49.209","ENTRANCE ISLAND","1022689","BC","7.6","0","NA","13.3","0","3.7","0","","","NA","79.2","0","NA","","13","","","NA","301.9","0.0"
"-125.993","50.454","FANNY ISLAND","1022795","BC","7.1","0","NA","12.9","0","2.8","0","","","NA","209.0","0","NA","","17","","","NA","314.7","0.0"
"-123.734","49.154","GABRIOLA ISLAND","1023042","BC","6.2","0","2.0","15.0","0","-1.0","0","0.0","0","0.0","140.4","0","147.0","","19","","","NA","342.5","0.0"
"-125.203","50.099","HERIOT BAY SE","1023462","BC","6.1","0","NA","10.5","0","-0.5","0","0.0","0","NA","184.2","0","NA","0.0","20","","","NA","346.0","0.0"
"-124.512","49.353","LITTLE QUALICUM HATCHERY","1024638","BC","5.6","0","1.9","12.0","0","-1.5","0","0.0","0","0.0","160.5","0","141.0","","20","","","NA","360.3","0.0"
"-123.870","49.054","NANAIMO A","1025370","BC","5.8","2","1.5","13.7","2","-2.4","2","0.0","2","NA","153.6","2","NA","0.0","15","","","NA","330.3","0.0"
"-123.988","49.199","NANAIMO CITY YARD","10253G0","BC","","","NA","","","","","0.0","0","0.0","159.0","0","138.0","0.0","18","","","NA","",""
"-127.367","50.681","PORT HARDY A","1026271","BC","6.1","0","NA","13.1","0","-1.2","0","0.0","0","NA","147.4","0","NA","","21","","","NA","345.3","0.0"
"-124.394","49.337","QUALICUM BEACH AIRPORT","1026562","BC","5.6","0","NA","12.6","0","-1.2","0","","","NA","98.9","0","NA","","13","","","NA","358.5","0.0"
"-124.617","49.394","QUALICUM R FISH RESEARCH","1026565","BC","6.3","5","2.1","13.5","5","0.0","5","0.0","5","NA","175.4","5","NA","","18","","","NA","281.8","0.0"
"-125.304","50.016","QUINSAM RIVER HATCHERY","1026639","BC","5.2","2","1.5","12.0","2","-2.5","2","0.0","2","NA","211.8","2","NA","0.0","21","","","NA","345.6","0.0"
"-124.435","49.487","SISTERS ISLAND","1027403","BC","8.0","0","NA","13.0","0","4.6","0","","","NA","","","NA","","","","","NA","291.1","0.0"
"-123.809","49.209","ENTRANCE ISLAND","102BFHH","BC","6.9","0","NA","13.0","0","2.0","0","0.0","0","NA","125.2","0","NA","0.0","18","","","NA","320.8","0.0"
"-124.982","49.337","ALBERNI ROBERTSON CREEK","1030230","BC","5.6","3","2.5","14.5","3","-1.0","3","0.0","3","NA","231.2","3","NA","0.0","18","","","NA","323.3","0.0"
"-125.216","48.786","CAPE BEALE LIGHT","1031316","BC","8.5","1","2.4","14.5","1","2.5","1","0.0","1","NA","379.8","1","NA","","17","","","NA","265.9","0.0"
"-124.751","48.612","CARMANAH POINT","1031402","BC","","","NA","","","","","2.0","0","21.0","368.0","0","120.0","0.0","20","","","NA","",""
"-126.418","49.800","CONUMA RIVER HATCHERY","1031844","BC","","","NA","","","","","0.0","7","NA","329.4","7","NA","","17","","","NA","",""
"-126.543","49.383","ESTEVAN POINT","1032730","BC","8.0","0","2.1","15.5","0","1.0","0","1.0","0","28.0","450.0","0","143.0","0.0","23","","","NA","289.2","0.0"
"-126.543","49.383","ESTEVAN POINT CS","1032731","BC","7.7","0","NA","15.1","0","0.8","0","","","NA","295.2","1","NA","","21","","","NA","298.0","0.0"
"-126.055","49.779","GOLD RIVER TOWNSITE","1033232","BC","5.6","3","2.3","14.5","3","-1.0","3","0.0","3","NA","280.8","3","NA","0.0","19","","","NA","323.4","0.0"
"-125.923","49.111","LENNARD ISLAND","1034600","BC","8.4","0","NA","17.0","0","1.5","0","0.0","0","0.0","431.0","0","136.0","0.0","18","","","NA","279.6","0.0"
"-124.655","48.859","NITINAT RIVER HATCHERY","1035612","BC","7.2","1","2.4","17.0","1","0.0","1","0.0","1","NA","535.3","1","NA","0.0","21","","","NA","302.9","0.0"
"-126.617","49.600","NOOTKA LIGHTSTATION","1035614","BC","7.9","0","2.1","16.5","0","1.0","0","0.0","0","0.0","337.0","0","104.0","0.0","20","","","NA","291.8","0.0"
"-125.097","48.723","PACHENA POINT","1035940","BC","8.3","0","2.3","14.5","0","0.5","0","0.0","0","0.0","367.2","0","124.0","0.0","21","","","NA","280.5","0.0"
"-124.752","49.202","PORT ALBERNI COX LAKE","1036208","BC","6.9","23","3.1","13.0","23","3.5","23","0.0","23","NA","115.0","23","NA","0.0","6","","","NA","66.7","0.0"
"-127.653","50.534","QUATSINO","1036570","BC","6.6","7","1.7","15.0","7","-0.5","7","0.0","7","NA","141.5","7","NA","","15","","","NA","249.9","0.0"
"-128.033","50.441","QUATSINO LIGHTSTATION","1036572","BC","8.5","0","2.3","19.0","0","3.0","0","0.2","0","5.0","282.2","0","126.0","0.0","22","","","NA","275.8","0.0"
"-124.927","49.317","PORT ALBERNI (AUT)","1036B06","BC","5.1","1","NA","14.5","1","-1.0","0","","","NA","216.2","10","NA","","15","","","NA","362.3","0.0"
"-128.908","50.821","SARTINE ISLAND (AUT)","1037090","BC","7.5","2","NA","10.9","2","4.4","1","","","NA","197.0","3","NA","","20","","","NA","282.2","0.0"
"-127.940","50.112","SOLANDER ISLAND (AUT)","1037553","BC","7.7","2","NA","14.1","2","3.5","1","","","NA","242.6","2","NA","","21","","","NA","277.6","0.0"
"-126.654","49.932","TAHSIS VILLAGE NORTH","1037899","BC","6.5","9","NA","15.0","9","-1.0","9","0.0","9","NA","309.0","9","NA","0.0","16","","","NA","229.4","0.0"
"-125.773","49.082","TOFINO A","1038205","BC","7.5","2","2.1","18.6","2","-1.5","2","0.0","2","NA","401.8","2","NA","0.0","17","","","NA","283.2","0.0"
"-125.527","48.945","UCLUELET KENNEDY CAMP","1038332","BC","8.0","0","2.5","19.5","0","-1.0","0","0.0","0","0.0","512.3","0","145.0","0.0","22","","","NA","289.3","0.0"
"-126.779","50.053","ZEBALLOS MURAUDE CREEK","1039035","BC","6.6","0","NA","15.5","0","-0.5","0","0.0","0","NA","424.4","0","NA","0.0","22","","","NA","330.9","0.0"
"-123.541","49.386","GIBSONS GOWER POINT","1043152","BC","7.5","0","2.3","14.0","0","2.0","0","0.0","0","0.0","161.4","0","130.0","0.0","20","","","NA","304.2","0.0"
"-123.913","49.468","MERRY ISLAND LIGHTSTATION","1045100","BC","7.6","0","2.0","12.0","0","3.0","0","0.0","0","0.0","108.1","0","117.0","0.0","18","","","NA","300.8","0.0"
"-123.299","49.488","HOWE SOUND - PAM ROCKS","10459NN","BC","7.6","0","NA","12.8","0","3.0","0","","","NA","122.4","0","NA","","14","","","NA","300.9","0.0"
"-124.032","49.634","PENDER HARBOUR","1046115","BC","","","NA","","","","","0.0","0","NA","121.5","0","NA","0.0","19","","","NA","",""
"-123.496","49.526","PORT MELLON","1046332","BC","6.7","5","NA","13.2","5","0.9","4","","","NA","358.3","5","NA","","17","","","NA","270.2","0.0"
"-124.500","49.834","POWELL RIVER A","1046391","BC","5.8","0","1.9","13.0","0","-3.0","0","0.0","0","0.0","171.8","0","157.0","0.0","21","","","NA","353.1","0.0"
"-124.497","49.835","POWELL RIVER","1046392","BC","5.7","0","NA","12.6","0","-2.0","0","","","NA","148.0","0","NA","","18","","","NA","357.4","0.0"
"-123.715","49.458","SECHELT AUT","1047172","BC","6.4","0","NA","13.9","0","-1.7","0","","","NA","115.9","0","NA","","16","","","NA","335.7","0.0"
"-123.161","49.783","SQUAMISH AIRPORT","10476F0","BC","5.4","0","NA","15.1","0","-1.1","0","","","NA","301.8","0","NA","","18","","","NA","364.7","0.0"
"-122.955","50.129","WHISTLER","1048898","BC","1.5","0","2.0","9.5","0","-6.1","0","25.4","0","40.0","209.8","0","201.0","45.0","20","","","NA","477.3","0.0"
"-131.016","51.936","CAPE ST JAMES","1051351","BC","7.3","2","NA","9.9","2","3.3","1","","","NA","204.1","3","NA","","24","","","NA","287.8","0.0"
"-132.772","53.316","KINDAKUN ROCKS (AUT)","1054222","BC","7.8","2","NA","12.1","2","3.8","1","","","NA","204.0","2","NA","","20","","","NA","274.1","0.0"
"-133.058","54.255","LANGARA","1054500","BC","6.4","0","2.3","11.4","0","2.2","0","0.0","0","0.0","166.4","0","118.0","0.0","23","","","NA","337.0","0.0"
"-133.058","54.255","LANGARA ISLAND RCS","1054503","BC","6.2","2","NA","11.3","2","2.2","1","","","NA","146.6","2","NA","","18","","","NA","319.9","0.0"
"-132.167","54.000","MASSET A","1054925","BC","6.1","0","NA","12.0","0","-2.7","0","0.0","0","NA","201.8","0","NA","0.0","23","","","NA","343.9","0.0"
"-131.661","54.159","ROSE SPIT (AUT)","1056869","BC","6.7","0","NA","10.9","0","-2.1","0","","","NA","425.2","0","NA","","26","","","NA","326.9","0.0"
"-131.813","53.254","SANDSPIT A","1057050","BC","6.5","0","2.4","12.0","0","0.0","0","0.0","0","0.0","214.0","0","164.0","0.0","24","","","NA","333.6","0.0"
"-131.813","53.249","SANDSPIT AIRPORT AUTO","1057051","BC","6.5","0","NA","11.7","0","0.8","0","","","NA","185.5","0","NA","","24","","","NA","332.5","0.0"
"-131.814","53.254","SANDSPIT","1057052","BC","6.7","10","NA","11.9","10","0.9","10","","","NA","113.3","10","NA","","15","","","NA","215.4","0.0"
"-132.299","53.764","SEWALL MASSET INLET","105PA91","BC","6.2","7","NA","11.0","7","-1.0","7","0.0","7","NA","130.8","7","NA","","19","","","NA","258.8","0.0"
"-127.864","51.604","ADDENBROKE ISLAND","1060080","BC","7.9","1","2.9","14.0","1","2.0","1","0.0","1","NA","247.9","1","NA","0.0","22","","","NA","283.2","0.0"
"-128.157","52.185","BELLA BELLA","1060815","BC","6.1","0","NA","13.9","0","-2.6","0","","","NA","253.3","0","NA","","20","","","NA","343.9","0.0"
"-126.596","52.388","BELLA COOLA A","1060841","BC","4.7","9","2.6","12.5","9","-2.9","9","0.0","9","NA","72.6","9","NA","0.0","10","","","NA","266.2","0.0"
"-126.587","52.389","BELLA COOLA AIRPORT","1060844","BC","4.4","0","NA","12.1","0","-4.2","0","","","NA","83.1","0","NA","","12","","","NA","395.4","0.0"
"-128.524","52.643","BOAT BLUFF","1060901","BC","7.1","0","3.2","13.0","0","2.0","0","0.0","0","0.0","544.8","0","127.0","0.0","24","","","NA","316.2","0.0"
"-130.638","53.493","BONILLA ISLAND","1060902","BC","7.7","0","2.6","16.0","0","4.0","0","0.0","0","0.0","294.2","0","166.0","0.0","26","","","NA","299.8","0.0"
"-130.639","53.493","BONILLA ISLAND (AUT)","1060R0K","BC","7.4","12","NA","10.4","12","3.8","11","","","NA","104.8","12","NA","","13","","","NA","180.0","0.0"
"-127.471","52.187","CATHEDRAL POINT (AUT)","1061458","BC","5.9","2","NA","9.9","2","1.8","1","","","NA","190.6","2","NA","","21","","","NA","327.1","0.0"
"-131.602","53.030","CUMSHEWA ISLAND","1062251","BC","7.6","2","NA","11.4","2","3.2","1","","","NA","275.0","2","NA","","22","","","NA","280.6","0.0"
"-128.112","52.185","DRYAD POINT","1062544","BC","7.4","0","2.7","13.0","0","1.5","0","0.0","0","0.0","220.0","0","104.0","0.0","21","","","NA","307.5","0.0"
"-130.708","54.569","GREEN ISLAND","1063298","BC","6.9","0","3.1","10.5","0","3.0","0","0.0","0","0.0","345.6","0","198.0","0.0","23","","","NA","323.0","0.0"
"-130.698","54.580","GREY ISLET (AUT)","1063303","BC","6.9","1","NA","10.9","1","3.0","1","","","NA","238.8","1","NA","","18","","","NA","311.6","0.0"
"-127.632","50.940","HERBERT ISLAND (AUT)","1063461","BC","8.0","0","NA","13.6","0","4.0","0","","","NA","46.8","0","NA","","12","","","NA","289.2","0.0"
"-130.361","54.172","HOLLAND ROCK","1063496","BC","7.4","0","NA","14.5","0","2.8","0","","","NA","93.6","0","NA","","17","","","NA","306.8","0.0"
"-128.407","52.270","IVORY ISLAND","1063690","BC","7.6","0","2.7","12.0","0","2.0","0","0.0","0","0.0","236.2","0","121.0","0.0","24","","","NA","302.1","0.0"
"-128.634","54.054","KITIMAT TOWNSITE","1064320","BC","3.4","0","3.1","8.0","0","-2.0","0","24.4","0","46.0","313.0","0","168.0","0.0","25","","","NA","423.0","0.0"
"-130.609","54.296","LUCY ISLAND LIGHTSTATION","1064728","BC","7.4","0","NA","13.7","0","3.1","0","","","NA","","","NA","","","","","NA","308.4","0.0"
"-128.719","52.262","MCINNES ISLAND","1065010","BC","7.3","4","2.2","17.0","4","3.0","4","0.0","4","NA","441.8","4","NA","","21","","","NA","267.5","0.0"
"-130.445","54.286","PRINCE RUPERT","1066482","BC","6.9","1","NA","13.0","1","0.4","1","","","NA","194.5","1","NA","","18","","","NA","309.7","0.0"
"-130.290","54.320","PRINCE RUPERT MONT CIRC","1066488","BC","","","NA","","","","","0.0","9","NA","280.4","9","NA","0.0","18","","","NA","",""
"-129.985","55.936","STEWART A","1067742","BC","2.1","0","3.2","7.9","0","-5.5","0","60.6","0","71.0","168.6","0","123.0","31.0","19","","","NA","461.0","0.0"
"-128.625","54.502","TERRACE PCC","1068131","BC","3.8","0","3.6","10.5","0","-1.5","0","4.4","0","15.0","125.9","0","136.0","0.0","16","","","NA","413.1","0.0"
"-128.578","54.469","TERRACE A","1068134","BC","2.4","0","NA","8.7","0","-4.5","0","21.0","2","NA","151.8","1","NA","","20","","","NA","453.0","0.0"
"-130.880","54.295","TRIPLE ISLAND","1068250","BC","7.3","0","NA","11.5","0","3.5","0","0.0","0","NA","102.2","0","NA","0.0","18","","","NA","309.8","0.0"
"-128.682","54.044","KITIMAT HATCHERY","106D289","BC","2.9","12","NA","9.5","12","-2.5","12","22.0","12","NA","180.1","12","NA","0.0","13","","","NA","257.4","0.0"
"-126.277","54.199","EQUITY SILVER","1072692","BC","-2.8","0","3.9","7.0","0","-18.5","0","41.4","0","102.0","41.4","0","101.0","0.0","8","","","NA","604.6","0.0"
"-126.668","54.396","HOUSTON","1073615","BC","-1.1","15","NA","8.0","15","-16.5","15","0.0","16","NA","0.0","16","NA","","0","","","NA","267.2","0.0"
"-129.030","55.238","NASS CAMP","1075384","BC","1.4","0","3.7","9.5","0","-6.0","0","65.8","0","182.0","113.0","0","163.0","39.0","14","","","NA","480.7","0.0"
"-127.183","54.825","SMITHERS","1077499","BC","-0.1","2","NA","7.8","2","-12.1","2","","","NA","35.2","2","NA","","10","","","NA","489.0","0.0"
"-127.183","54.825","SMITHERS A","1077500","BC","0.1","0","4.5","8.3","0","-12.7","0","23.8","0","101.0","32.0","0","137.0","12.0","7","","","NA","519.1","0.0"
"-127.189","54.824","SMITHERS AIRPORT AUTO","1077501","BC","-0.2","0","NA","7.8","0","-13.6","0","","","NA","33.4","0","NA","14.0","10","","","NA","527.6","0.0"
"-126.163","54.816","TOPLEY LANDING","1078209","BC","-0.6","4","5.4","9.0","4","-13.0","4","23.5","4","NA","23.5","4","NA","","7","","","NA","464.4","0.0"
"-127.171","55.289","SUSKWA VALLEY","107G879","BC","-0.7","0","2.8","7.5","0","-12.0","0","25.9","0","99.0","49.2","0","135.0","19.0","14","","","NA","541.4","0.0"
"-125.997","53.772","OOTSA LAKESKINS LAKE CLIMATE","1085836","BC","-1.7","0","NA","10.9","0","-15.3","0","","","NA","15.8","0","NA","26.0","6","","","NA","570.3","0.0"
"-122.734","50.306","PEMBERTON AIRPORT CS","1086082","BC","3.3","2","NA","14.5","2","-4.3","1","","","NA","103.0","2","NA","0.0","12","","","NA","396.8","0.0"
"-124.136","52.114","PUNTZI MOUNTAIN (AUT)","1086558","BC","-4.7","0","NA","8.5","0","-25.7","0","","","NA","3.5","0","NA","24.0","1","","","NA","658.2","0.0"
"-124.403","51.675","TATLAYOKO LAKE RCS","1088015","BC","0.6","0","NA","13.0","0","-15.4","0","","","NA","23.4","0","NA","2.0","5","","","NA","503.2","0.0"
"-125.959","54.383","BURNS LAKE DECKER LAKE","1091174","BC","-2.5","0","NA","7.6","0","-18.9","0","","","NA","23.2","0","NA","37.0","8","","","NA","594.5","0.0"
"-120.700","53.600","CRESCENT SPUR","1092120","BC","1.4","1","NA","10.5","1","-9.5","1","9.0","1","NA","62.8","1","NA","","13","","","NA","463.5","0.0"
"-124.286","54.455","FORT ST JAMES","1092970","BC","-2.1","13","4.7","7.0","13","-14.5","13","11.0","13","NA","12.2","13","NA","25.0","4","","","NA","321.8","0.0"
"-124.286","54.455","FORT ST JAMES AUTO","1092975","BC","-0.7","0","NA","9.9","0","-15.0","0","","","NA","25.7","1","NA","25.0","8","","","NA","542.5","0.0"
"-122.699","53.531","HIXON","1093474","BC","1.1","10","4.9","10.0","10","-10.0","10","8.4","10","NA","25.2","10","NA","","5","","","NA","321.9","0.0"
"-121.364","52.363","HORSEFLY LAKE GRUHS LAKE","1093600","BC","1.4","17","5.4","10.0","17","-9.0","17","6.2","17","NA","17.9","17","NA","","4","","","NA","199.6","0.0"
"-122.374","52.380","MCLEESE LAKE FRASERVIEW","1095015","BC","2.6","0","5.6","12.5","0","-8.5","0","2.0","0","19.0","14.8","0","102.0","0.0","5","","","NA","446.8","0.0"
"-122.286","52.531","MCLEESE LAKE GRANITE MT","1095018","BC","-0.8","15","NA","9.0","11","-12.0","11","24.3","11","NA","42.9","11","NA","61.0","6","","","NA","262.5","0.0"
"-122.678","53.884","PRINCE GEORGE","1096439","BC","0.3","3","NA","7.0","3","-14.0","3","","","NA","41.0","3","NA","","11","","","NA","461.2","0.0"
"-122.672","53.889","PRINCE GEORGE AIRPORT AUTO","1096453","BC","0.2","0","NA","7.3","0","-14.5","0","","","NA","58.0","0","NA","4.0","13","","","NA","516.3","0.0"
"-122.768","53.880","PRINCE GEORGE STP","1096468","BC","2.0","0","5.6","9.0","0","-10.0","0","25.6","0","125.0","59.0","0","203.0","11.0","14","","","NA","465.4","0.0"
"-122.510","53.026","QUESNEL","1096629","BC","1.7","1","NA","10.0","0","-11.2","1","","","NA","38.1","1","NA","","8","","","NA","457.5","0.0"
"-122.506","53.027","QUESNEL AIRPORT AUTO","1096631","BC","1.6","0","NA","10.1","0","-11.1","0","","","NA","40.0","0","NA","0.0","10","","","NA","476.4","0.0"
"-121.686","52.184","SPOKIN LAKE 4E","1097646","BC","-1.7","0","3.7","10.5","0","-17.5","0","29.8","0","132.0","54.2","0","217.0","30.0","12","","","NA","571.5","0.0"
"-122.054","52.183","WILLIAMS LAKE A","1098941","BC","0.1","0","NA","8.3","0","-10.8","0","9.4","0","NA","26.4","0","NA","5.0","6","","","NA","520.4","0.0"
"-124.017","54.033","VANDERHOOF","1098D90","BC","-0.4","5","5.1","9.2","5","-15.0","5","7.6","5","NA","19.3","5","NA","0.0","7","","","NA","442.0","0.0"
"-121.263","51.623","108 MILE HOUSE ABEL LAKE","109E7R6","BC","0.1","2","NA","9.0","2","-13.0","2","11.0","2","NA","22.2","2","NA","18.0","8","","","NA","482.9","0.0"
"-122.360","49.025","ABBOTSFORD A","1100031","BC","7.6","0","NA","15.9","0","1.2","0","0.0","0","NA","194.6","0","NA","","21","","","NA","300.8","0.0"
"-121.760","49.243","AGASSIZ RCS","1100119","BC","7.4","0","1.6","15.6","0","0.5","0","","","NA","191.1","0","NA","","18","","","NA","307.7","0.0"
"-121.760","49.243","AGASSIZ CDA","1100120","BC","7.8","0","2.7","16.5","0","1.0","0","0.0","0","0.0","233.2","0","164.0","0.0","19","","","NA","297.0","0.0"
"-122.955","50.129","WHISTLER - NESTERS","1100875","BC","1.7","0","NA","9.7","0","-5.8","0","","","NA","114.8","0","NA","23.0","16","","","NA","471.4","0.0"
"-122.936","50.102","BLACKCOMB BASE SLIDING CENTER","1100881","BC","1.2","0","NA","9.3","0","-6.5","0","","","NA","107.0","0","NA","70.0","15","","","NA","487.3","0.0"
"-122.918","49.278","BURNABY SIMON FRASER U","1101158","BC","5.8","23","1.5","10.3","23","1.0","23","0.0","23","NA","80.8","23","NA","0.0","6","","","NA","73.3","0.0"
"-123.111","50.144","CALLAGHAN VALLEY","1101300","BC","1.6","0","NA","11.7","0","-6.2","0","","","NA","263.4","0","NA","94.0","19","","","NA","476.5","0.0"
"-122.866","49.269","COQUITLAM COMO LAKE AVE","1101889","BC","","","NA","","","","","0.1","0","1.0","252.9","0","139.0","0.0","20","","","NA","",""
"-121.704","49.080","CHILLIWACK R HATCHERY","1101N65","BC","6.2","0","2.7","15.0","0","-1.0","0","0.0","0","0.0","198.2","0","155.0","0.0","20","","","NA","342.6","0.0"
"-123.002","49.126","DELTA BURNS BOG","1102415","BC","7.0","1","NA","16.4","1","-3.3","0","","","NA","134.5","1","NA","","18","","","NA","308.9","0.0"
"-123.093","49.011","DELTA TSAWWASSEN BEACH","1102425","BC","7.2","0","1.4","15.5","0","-0.5","0","0.0","0","0.0","138.3","0","172.0","0.0","19","","","NA","312.5","0.0"
"-122.551","49.145","FORT LANGLEY TELEGRAPH TRAIL","1102912","BC","7.5","0","NA","17.0","0","-1.0","0","0.0","0","NA","199.4","0","NA","0.0","17","","","NA","304.7","0.0"
"-122.573","49.264","HANEY UBC RF ADMIN","1103332","BC","6.8","1","2.6","15.0","1","-1.0","1","0.0","1","NA","221.9","1","NA","0.0","16","","","NA","312.5","0.0"
"-121.579","49.356","LAIDLAW","1104488","BC","6.7","0","2.5","15.5","0","-1.0","0","1.2","0","7.0","276.0","0","142.0","","23","","","NA","327.5","0.0"
"-122.271","49.153","MISSION WEST ABBEY","1105192","BC","6.8","0","2.2","15.0","0","0.5","0","0.0","0","0.0","241.6","0","150.0","0.0","19","","","NA","323.8","0.0"
"-123.078","49.182","RICHMOND OPERATIONS CENTRE","1105210","BC","","","NA","","","","","","","NA","144.9","0","NA","","16","","","NA","",""
"-123.078","49.381","N VANC GROUSE MTN RESORT","1105658","BC","3.2","10","3.3","16.5","10","-5.0","10","36.0","10","NA","196.2","10","NA","","12","","","NA","280.3","0.0"
"-123.115","49.315","N VANCOUVER WHARVES","1105669","BC","","","NA","","","","","0.0","1","NA","207.5","1","NA","0.0","18","","","NA","",""
"-122.690","49.208","PITT MEADOWS CS","1106178","BC","7.4","0","NA","16.1","0","-1.5","0","","","NA","202.5","0","NA","","18","","","NA","306.5","0.0"
"-123.265","49.330","POINT ATKINSON","1106200","BC","7.9","0","NA","13.2","0","3.3","0","","","NA","282.1","7","NA","","15","","","NA","292.5","0.0"
"-123.087","49.179","RICHMOND DALLYN 2","1106764","BC","","","NA","","","","","0.0","0","NA","168.8","0","NA","0.0","18","","","NA","",""
"-123.093","49.171","RICHMOND NATURE PARK","1106PF7","BC","7.4","1","2.4","18.0","1","-1.5","1","0.0","1","NA","162.2","1","NA","0.0","18","","","NA","298.0","0.0"
"-123.303","49.106","SANDHEADS CS","1107010","BC","7.7","0","NA","12.6","0","3.6","0","","","NA","","","NA","","","","","NA","298.1","0.0"
"-122.110","49.113","SUMAS CANAL","1107785","BC","8.1","21","NA","15.5","16","2.2","15","0.0","16","NA","110.4","16","NA","0.0","11","","","NA","79.5","0.0"
"-123.187","49.183","VANCOUVER SEA ISLAND CCG","1108380","BC","7.2","0","NA","13.4","0","-0.6","0","","","NA","127.2","0","NA","","15","","","NA","312.1","0.0"
"-123.184","49.195","VANCOUVER INTL A","1108395","BC","7.1","1","NA","13.6","1","-2.1","0","0.0","1","NA","130.4","1","NA","0.0","17","","","NA","305.8","0.0"
"-123.122","49.295","VANCOUVER HARBOUR CS","1108446","BC","7.9","0","NA","15.2","0","1.5","0","","","NA","178.2","0","NA","","17","","","NA","292.0","0.0"
"-123.193","49.347","WEST VANCOUVER AUT","1108824","BC","7.5","0","NA","16.0","0","1.1","0","","","NA","211.1","0","NA","","18","","","NA","303.3","0.0"
"-122.947","50.068","WHISTLER ROUNDHOUSE","1108906","BC","-2.4","2","NA","12.5","2","-12.5","2","208.1","2","NA","228.1","2","NA","267.0","20","","","NA","549.6","0.0"
"-122.784","49.018","WHITE ROCK CAMPBELL SCIENTIFIC","1108910","BC","8.3","0","NA","17.3","0","1.5","0","","","NA","170.0","0","NA","","17","","","NA","280.8","0.0"
"-122.967","49.438","N VAN SEYMOUR HATCHERY","110N666","BC","5.4","6","2.4","14.0","6","0.0","6","0.0","6","NA","425.9","6","NA","","17","","","NA","289.9","0.0"
"-121.498","49.368","HOPE A","1113542","BC","6.5","0","NA","14.8","0","-1.1","0","","","NA","232.5","4","NA","","17","","","NA","334.2","0.0"
"-121.493","49.370","HOPE AIRPORT","1113543","BC","6.3","1","NA","14.8","1","-1.1","0","","","NA","194.6","1","NA","","19","","","NA","326.9","0.0"
"-121.233","49.267","HOPE SLIDE","1113581","BC","2.6","0","3.0","13.5","0","-5.5","0","16.0","0","36.0","149.2","0","142.0","1.0","17","","","NA","445.8","0.0"
"-121.934","50.684","LILLOOET","1114619","BC","3.9","0","NA","15.3","0","-6.2","0","","","NA","","","NA","","","","","NA","408.0","0.0"
"-121.582","50.224","LYTTON A","1114738","BC","4.6","0","NA","14.6","0","-6.1","0","","","NA","42.9","0","NA","","9","","","NA","388.2","0.0"
"-121.582","50.224","LYTTON RCS","1114746","BC","4.6","0","NA","15.2","0","-6.1","0","","","NA","33.9","0","NA","","9","","","NA","387.8","0.0"
"-120.069","49.364","HEDLEY N","1123370","BC","2.8","2","NA","17.0","2","-11.0","2","0.0","2","NA","26.0","2","NA","0.0","8","","","NA","410.9","0.0"
"-120.333","49.673","JELLICOE","1123721","BC","0.3","0","NA","11.0","0","-15.5","0","8.0","0","NA","44.6","0","NA","26.0","11","","","NA","513.4","0.0"
"-119.378","49.957","KELOWNA","1123939","BC","1.7","0","NA","13.8","0","-13.4","0","","","NA","0.0","0","NA","","0","","","NA","472.4","0.0"
"-119.400","49.941","KELOWNA UBCO","1123996","BC","2.6","0","NA","13.7","0","-9.8","0","","","NA","21.8","0","NA","","5","","","NA","447.8","0.0"
"-119.400","49.950","KELOWNA MWS0","11239R0","BC","2.8","0","NA","13.7","0","-10.1","0","5.8","0","NA","29.6","0","NA","0.0","10","","","NA","440.4","0.0"
"-120.778","50.113","MERRITT","1125073","BC","2.6","0","NA","13.9","0","-9.9","0","","","NA","13.6","20","NA","","4","","","NA","445.9","0.0"
"-120.801","50.114","MERRITT STP","1125079","BC","3.2","0","3.7","14.0","0","-9.0","0","1.2","0","14.0","21.6","0","112.0","0.0","7","","","NA","430.1","0.0"
"-119.445","50.056","OKANAGAN CENTRE","1125700","BC","3.9","1","2.9","20.5","1","-4.5","1","4.0","1","NA","34.4","1","NA","0.0","8","","","NA","395.2","0.0"
"-119.545","49.179","OLIVER STP","1125766","BC","3.9","12","2.4","15.0","12","-5.0","12","0.0","12","NA","19.2","12","NA","","3","","","NA","240.5","0.0"
"-119.441","49.028","OSOYOOS CS","1125852","BC","3.8","0","1.9","15.3","0","-5.2","0","","","NA","21.7","0","NA","","4","","","NA","413.0","0.0"
"-119.717","49.783","PEACHLAND","1126070","BC","3.8","1","2.4","12.0","1","-5.5","1","7.0","1","NA","46.8","1","NA","0.0","10","","","NA","397.2","0.0"
"-119.602","49.463","PENTICTON A","1126146","BC","2.8","0","NA","13.6","0","-7.5","0","1.8","0","NA","35.2","0","NA","","7","","","NA","439.7","0.0"
"-120.513","49.468","PRINCETON A","1126510","BC","-0.3","0","2.0","11.0","0","-14.5","0","0.8","0","5.0","23.8","0","116.0","13.0","7","","","NA","531.2","0.0"
"-119.310","50.264","VERNON BELLA VISTA","1128553","BC","2.6","1","2.9","12.0","0","-5.0","0","8.4","0","70.0","40.0","0","165.0","","10","","","NA","431.8","0.0"
"-119.194","50.223","VERNON AUTO","1128582","BC","1.9","0","NA","13.8","0","-9.6","0","","","NA","27.4","0","NA","","7","","","NA","465.6","0.0"
"-119.271","50.344","VERNON NORTH","1128583","BC","2.2","0","2.4","12.5","0","-6.0","0","14.2","0","106.0","46.2","0","183.0","0.0","10","","","NA","456.8","0.0"
"-119.056","50.359","VERNON SILVER STAR LODGE","1128584","BC","-2.5","3","NA","6.0","3","-10.5","3","96.0","3","NA","96.0","3","NA","165.0","14","","","NA","531.8","0.0"
"-119.415","50.037","WINFIELD","1128958","BC","3.0","0","3.0","12.0","0","-6.5","0","4.0","0","35.0","32.6","0","156.0","0.0","9","","","NA","435.5","0.0"
"-120.510","49.465","PRINCETON CS","112FN0M","BC","-0.7","0","NA","11.2","0","-15.7","0","","","NA","20.2","0","NA","8.0","6","","","NA","541.6","0.0"
"-119.649","49.563","SUMMERLAND CS","112G8L1","BC","3.0","1","2.0","12.5","1","-7.3","1","","","NA","27.0","1","NA","","8","","","NA","421.4","0.0"
"-118.772","49.004","MIDWAY","1135126","BC","0.8","0","2.2","15.5","0","-11.5","0","27.5","0","207.0","52.7","0","204.0","0.0","10","","","NA","499.0","0.0"
"-118.228","49.017","BILLINGS","1140876","BC","2.5","5","3.4","15.0","5","-5.0","5","0.0","5","NA","48.4","5","NA","0.0","10","","","NA","371.6","0.0"
"-117.633","49.296","CASTLEGAR A","1141455","BC","2.7","0","2.8","14.1","0","-7.7","0","7.0","0","27.0","64.9","0","127.0","0.0","12","","","NA","444.3","0.0"
"-117.774","49.343","CASTLEGAR BCHPA DAM","1141457","BC","3.0","0","2.8","10.5","0","-3.0","0","2.5","0","17.0","66.1","0","148.0","0.0","12","","","NA","434.6","0.0"
"-116.518","49.097","CRESTON","1142160","BC","3.4","0","3.4","12.5","0","-6.0","0","2.0","0","11.0","51.6","0","118.0","0.0","13","","","NA","423.2","0.0"
"-116.972","50.239","DUNCAN LAKE DAM","1142574","BC","2.0","2","3.4","11.5","1","-6.0","1","15.0","1","NA","62.2","1","NA","0.0","14","","","NA","433.3","0.0"
"-118.068","49.872","FAUQUIER","1142820","BC","1.8","1","2.3","14.0","1","-5.0","1","5.0","1","NA","54.6","1","NA","","12","","","NA","454.6","0.0"
"-116.921","49.913","KASLO","1143900","BC","2.3","0","2.9","9.5","0","-6.0","0","0.0","0","0.0","94.8","0","157.0","0.0","14","","","NA","455.6","0.0"
"-116.458","49.032","LISTER","1144635","BC","3.1","0","3.3","13.0","0","-8.0","0","1.5","0","9.0","42.0","0","127.0","","12","","","NA","432.5","0.0"
"-117.817","50.269","NAKUSP CS","1145297","BC","2.3","1","NA","11.9","1","-5.7","0","","","NA","67.6","1","NA","","12","","","NA","440.2","0.0"
"-117.206","49.586","NELSON NE","1145442","BC","3.5","1","NA","14.0","1","-4.5","1","6.6","1","NA","91.4","1","NA","0.0","12","","","NA","407.0","0.0"
"-117.370","49.996","NEW DENVER","1145460","BC","2.7","2","3.0","8.5","2","-5.0","2","14.6","2","NA","94.2","2","NA","0.0","15","","","NA","412.9","0.0"
"-117.305","49.491","NELSON CS","1145M29","BC","3.7","2","NA","14.1","2","-4.3","0","","","NA","61.5","2","NA","","13","","","NA","387.2","0.0"
"-117.739","49.112","WARFIELD RCS","1148705","BC","2.6","0","NA","12.0","0","-4.9","0","","","NA","69.3","0","NA","","13","","","NA","447.3","0.0"
"-116.501","49.082","CRESTON CAMPBELL SCIENTIFIC","114B1F0","BC","3.0","0","NA","12.5","0","-6.2","0","","","NA","37.1","0","NA","0.0","11","","","NA","433.6","0.0"
"-117.399","49.512","NELSON RIXEN CREEK","114EMDM","BC","1.7","1","NA","11.0","1","-7.5","1","0.4","1","NA","88.2","1","NA","20.0","8","","","NA","457.0","0.0"
"-115.221","49.226","BAYNES LAKE KOOTENAY RIVER","1150690","BC","1.2","0","4.4","13.0","0","-17.0","0","0.0","0","0.0","11.0","0","48.0","","1","","","NA","485.9","0.0"
"-115.782","49.612","CRANBROOK A","1152105","BC","0.0","0","NA","12.2","0","-16.2","0","1.0","0","NA","17.2","0","NA","","4","","","NA","520.7","0.0"
"-115.789","49.618","CRANBROOK AIRPORT AUTO","1152106","BC","0.2","0","NA","11.6","0","-15.2","0","","","NA","16.0","0","NA","4.0","4","","","NA","517.0","0.0"
"-115.073","49.489","FERNIE","1152850","BC","2.4","14","6.3","12.0","12","-16.0","8","14.6","6","NA","65.8","6","NA","10.0","11","","","NA","233.3","0.0"
"-114.855","50.149","FORDING RIVER COMINCO","1152899","BC","-3.9","23","4.3","7.1","17","-18.2","17","11.0","17","NA","11.0","17","NA","15.0","4","","","NA","131.3","0.0"
"-115.461","49.524","FT STEELE DANDY CRK","1153034","BC","1.3","16","NA","11.5","12","-14.0","12","0.0","12","NA","10.5","12","NA","0.0","1","","","NA","217.7","0.0"
"-115.962","49.632","KIMBERLEY PCC","1154203","BC","-0.3","13","3.8","10.5","13","-15.5","13","0.8","13","NA","0.8","13","NA","0.0","0","","","NA","293.3","0.0"
"-116.061","50.631","KOOTENAY NP WEST GATE","1154410","BC","-0.7","4","3.5","9.5","4","-12.5","4","8.6","4","NA","21.0","4","NA","4.0","7","","","NA","467.4","0.0"
"-114.883","49.745","SPARWOOD","1157630","BC","0.4","0","5.0","10.5","0","-15.5","0","8.0","0","22.0","27.2","0","66.0","1.0","7","","","NA","509.1","0.0"
"-114.884","49.745","SPARWOOD CS","1157631","BC","0.3","0","NA","10.6","0","-15.5","0","","","NA","0.0","26","NA","3.0","0","","","NA","514.3","0.0"
"-115.460","49.473","WARDNER KTNY HATCHERY","1158692","BC","0.9","10","3.4","11.5","8","-14.0","10","0.0","1","NA","1.6","1","NA","0.0","1","","","NA","325.1","0.0"
"-115.631","49.807","WASA","1158730","BC","0.8","0","4.0","12.0","0","-12.0","0","0.0","0","0.0","23.4","0","126.0","0.0","5","","","NA","499.6","0.0"
"-121.281","50.708","ASHCROFT","1160515","BC","3.3","0","NA","16.0","0","-7.0","0","","","NA","5.4","0","NA","","1","","","NA","427.5","0.0"
"-119.290","52.129","BLUE RIVER A","1160899","BC","-0.5","0","3.8","8.9","0","-15.2","0","52.6","0","106.0","84.4","0","157.0","78.0","16","","","NA","536.7","0.0"
"-119.290","52.129","BLUE RIVER CS","1160H99","BC","-0.7","0","NA","8.6","0","-16.5","0","","","NA","","","NA","","","","","NA","543.7","0.0"
"-121.083","51.709","BUFFALO LAKE","1161104","BC","-0.9","5","3.5","10.5","5","-18.0","5","17.4","5","NA","34.0","5","NA","15.0","8","","","NA","453.8","0.0"
"-120.082","51.653","CLEARWATER AUTO","1161650","BC","0.9","0","NA","12.3","0","-7.5","0","","","NA","60.7","0","NA","2.0","15","","","NA","495.6","0.0"
"-121.685","51.266","CLINTON A","1161662","BC","-1.8","1","NA","9.4","1","-20.6","1","","","NA","1.8","1","NA","","1","","","NA","554.2","0.0"
"-121.505","51.144","CLINTON RCS","1161663","BC","-0.4","0","NA","9.7","0","-13.9","0","","","NA","4.4","0","NA","27.0","1","","","NA","533.8","0.0"
"-120.728","51.030","CRISS CREEK","1162177","BC","-1.5","0","3.7","8.5","0","-17.0","0","12.2","0","73.0","15.0","0","85.0","23.0","4","","","NA","566.6","0.0"
"-120.183","51.297","DARFIELD","1162265","BC","1.4","0","3.2","12.0","0","-7.0","0","5.0","0","38.0","40.0","0","176.0","0.0","11","","","NA","482.2","0.0"
"-120.449","50.703","KAMLOOPS A","1163781","BC","3.0","0","NA","14.2","0","-6.6","0","2.8","0","NA","12.0","0","NA","","5","","","NA","435.1","0.0"
"-120.442","50.702","KAMLOOPS AUT","1163842","BC","3.0","3","NA","14.2","2","-6.3","2","","","NA","9.6","3","NA","1.0","4","","","NA","389.8","0.0"
"-121.217","51.681","100 MILE HOUSE 6NE","1165793","BC","-0.2","0","NA","10.0","0","-14.0","0","24.6","0","NA","48.8","0","NA","17.0","10","","","NA","528.5","0.0"
"-120.800","50.935","RED LAKE","1166658","BC","-0.4","0","3.7","8.5","0","-12.0","0","13.5","0","60.0","15.7","0","67.0","41.0","8","","","NA","533.1","0.0"
"-119.234","50.686","SALMON ARM A","1166R45","BC","1.2","0","2.8","12.0","0","-17.0","0","11.0","0","57.0","83.5","0","246.0","","10","","","NA","487.5","0.0"
"-119.350","50.545","SILVER CREEK","1167337","BC","1.7","0","2.8","11.5","0","-8.5","0","7.5","0","46.0","45.4","0","146.0","0.0","10","","","NA","473.8","0.0"
"-119.911","50.903","SUN PEAKS MOUNTAIN","1168204","BC","-5.0","2","NA","5.5","1","-14.5","1","90.0","1","NA","90.0","1","NA","","10","","","NA","619.7","0.0"
"-119.778","51.576","VAVENBY","1168520","BC","1.1","2","3.7","12.0","1","-7.0","1","4.4","1","NA","25.2","1","NA","0.0","10","","","NA","457.3","0.0"
"-120.200","50.600","KAMLOOPS PRATT ROAD","116C8P0","BC","1.7","0","NA","10.0","0","-9.5","0","2.0","0","NA","21.9","0","NA","0.0","9","","","NA","471.3","0.0"
"-119.291","50.703","SALMON ARM CS","116FRMN","BC","2.0","0","2.0","12.2","0","-7.5","0","","","NA","47.0","0","NA","0.0","11","","","NA","464.6","0.0"
"-119.883","50.887","SUN PEAKS LOWER","116Q20D","BC","-1.5","0","NA","7.5","0","-11.5","0","73.1","0","NA","73.1","0","NA","104.0","8","","","NA","565.7","0.0"
"-119.918","50.902","SUN PEAKS UPPER","116QK0M","BC","-5.2","0","NA","3.0","0","-13.5","0","71.0","0","NA","71.0","0","NA","224.0","9","","","NA","673.2","0.0"
"-116.982","51.299","GOLDEN A","1173210","BC","-1.4","0","3.6","11.0","0","-13.5","0","13.2","0","64.0","26.8","0","111.0","15.0","8","","","NA","561.5","0.0"
"-116.984","51.300","GOLDEN AIRPORT","1173220","BC","-1.3","0","NA","10.6","0","-13.2","0","","","NA","20.6","0","NA","15.0","7","","","NA","560.8","0.0"
"-118.425","51.630","GOLDSTREAM RIVER","1173242","BC","0.0","0","4.1","8.0","0","-10.0","0","60.0","0","97.0","78.0","0","117.0","0.0","18","","","NA","522.0","0.0"
"-118.585","52.053","MICA DAM","1175122","BC","0.2","4","3.5","6.0","2","-14.0","2","76.5","2","NA","162.9","2","NA","134.0","18","","","NA","445.2","0.0"
"-118.183","50.967","REVELSTOKE A","1176745","BC","1.2","0","NA","9.8","0","-5.9","0","","","NA","56.1","0","NA","","13","","","NA","486.1","0.0"
"-118.176","50.958","REVELSTOKE AIRPORT AUTO","1176755","BC","1.2","0","NA","9.7","0","-6.3","0","","","NA","66.7","0","NA","19.0","15","","","NA","486.1","0.0"
"-116.345","51.443","YOHO PARK","11790J1","BC","-3.5","0","NA","6.8","0","-18.9","0","","","NA","132.8","0","NA","95.0","16","","","NA","624.6","0.0"
"-116.541","51.433","YOHO NP EMERALD LAKE","117R00G","BC","-3.7","5","NA","9.0","5","-18.0","5","36.0","5","NA","36.0","5","NA","0.0","10","","","NA","520.4","0.0"
"-116.337","51.356","YOHO NP OHARA LAKE","117R00H","BC","-5.2","0","NA","6.0","0","-21.0","0","63.5","0","NA","63.5","0","NA","92.0","15","","","NA","672.8","0.0"
"-121.017","56.298","CHARLIE LAKE","11814FR","BC","-4.5","4","NA","10.0","4","-18.0","4","10.0","4","NA","10.0","4","NA","39.0","5","","","NA","562.5","0.0"
"-121.627","55.687","CHETWYND A","1181508","BC","-1.6","0","5.6","10.7","0","-18.6","0","13.7","0","60.0","8.8","0","54.0","3.0","4","","","NA","567.3","0.0"
"-120.183","55.742","DAWSON CREEK A","1182289","BC","-2.3","1","NA","11.6","1","-18.2","1","","","NA","3.6","1","NA","","0","","","NA","568.3","0.0"
"-120.740","56.238","FORT ST. JOHN A","1183001","BC","-3.1","0","NA","11.1","0","-16.4","0","10.4","0","NA","11.0","0","NA","3.0","5","","","NA","612.7","0.0"
"-123.133","55.299","MACKENZIE","1184791","BC","-2.3","0","NA","6.5","0","-17.2","0","","","NA","0.0","0","NA","","0","","","NA","589.5","0.0"
"-123.138","55.305","MACKENZIE AIRPORT AUTO","1184793","BC","-2.4","4","NA","6.3","4","-17.0","2","","","NA","39.8","3","NA","65.0","10","","","NA","509.5","0.0"
"-122.718","57.250","SIKANNI CHIEF","1187335","BC","-6.2","24","NA","6.5","24","-19.2","24","24.0","24","NA","24.0","24","NA","","2","","","NA","120.9","0.0"
"-130.031","58.422","DEASE LAKE A","1192341","BC","-7.4","1","NA","7.3","1","-28.9","1","","","NA","13.4","1","NA","","4","","","NA","712.1","0.0"
"-122.597","58.836","FORT NELSON A","1192946","BC","-10.1","1","NA","7.2","1","-26.7","0","25.8","1","NA","24.6","2","NA","49.0","8","","","NA","787.3","0.0"
"-122.574","58.841","FORT NELSON","1192948","BC","-9.9","0","NA","7.0","0","-24.4","0","","","NA","24.9","0","NA","45.0","9","","","NA","808.1","0.0"
"-122.573","58.841","FORT NELSON UA","1192950","BC","-8.2","2","NA","15.0","2","-25.0","2","27.6","2","NA","28.2","2","NA","44.0","7","","","NA","708.7","0.0"
"-130.025","58.426","DEASE LAKE (AUT)","119BLM0","BC","-7.3","0","NA","7.0","0","-29.1","0","","","NA","25.2","0","NA","40.0","6","","","NA","733.6","0.0"
"-133.700","59.567","ATLIN","1200560","BC","-2.4","0","8.3","6.5","0","-13.0","0","27.2","0","113.0","27.2","0","107.0","26.0","3","","","NA","592.4","0.0"
"-136.367","59.450","PLEASANT CAMP","1206197","BC","-2.9","0","2.6","3.5","0","-17.0","0","193.1","0","173.0","311.4","0","224.0","0.0","22","","","NA","604.8","0.0"
"-139.040","61.371","BURWASH A","2100181","YT","-10.9","2","NA","4.7","2","-34.2","2","","","NA","1.0","3","NA","","1","","","NA","779.6","0.0"
"-139.017","61.367","BURWASH AIRPORT AUTO BC","2100184","YT","-11.1","0","NA","4.6","0","-34.7","0","","","NA","0.9","2","NA","1.0","0","","","NA","844.6","0.0"
"-136.192","62.115","CARMACKS CS","2100301","YT","-10.6","0","NA","6.8","0","-27.1","0","","","NA","12.2","0","NA","36.0","3","","","NA","828.0","0.0"
"-133.376","62.208","FARO (AUT)","2100518","YT","-9.7","0","NA","2.3","0","-22.3","0","","","NA","6.8","0","NA","","2","","","NA","803.1","0.0"
"-137.580","60.773","HAINES JUNCTION","2100630","YT","-9.1","1","NA","7.9","1","-31.2","0","","","NA","13.8","1","NA","26.0","5","","","NA","759.3","0.0"
"-138.913","69.568","HERSCHEL ISLAND","2100636","YT","-20.4","11","NA","-8.2","11","-34.1","10","","","NA","4.1","16","NA","46.0","1","","","NA","691.2","0.0"
"-140.150","69.164","IVVAVIK NAT. PARK","2100660","YT","-21.9","1","NA","-3.0","1","-38.0","1","","","NA","18.3","1","NA","14.0","10","","","NA","1118.1","0.0"
"-140.197","69.612","KOMAKUK BEACH","2100682","YT","-22.2","0","NA","-9.8","0","-31.4","0","","","NA","","","NA","","","","","NA","1164.6","0.0"
"-130.037","63.244","MACMILLAN PASS","2100693","YT","-14.5","2","NA","-4.0","1","-31.9","2","","","NA","20.3","2","NA","73.0","7","","","NA","877.8","0.0"
"-140.848","68.801","MARGARET LAKE","2100697","YT","-21.5","2","NA","-5.9","2","-35.1","1","","","NA","","","NA","","","","","NA","1066.8","0.0"
"-135.868","63.616","MAYO A","2100701","YT","-12.1","0","NA","3.4","0","-35.1","0","14.8","0","NA","7.6","0","NA","47.0","1","","","NA","873.4","0.0"
"-135.183","60.876","MAYO ROAD","2100709","YT","-7.1","0","5.9","4.5","0","-26.5","0","13.0","0","94.0","13.0","0","94.0","0.0","4","","","NA","727.6","0.0"
"-139.839","67.571","OLD CROW RCS","2100805","YT","-22.4","0","NA","-4.1","0","-40.4","0","","","NA","2.8","0","NA","13.0","1","","","NA","1170.8","0.0"
"-137.050","61.033","OTTER FALLS NCPC","2100840","YT","-7.7","0","4.4","5.0","0","-30.0","0","13.4","0","102.0","13.4","0","102.0","","6","","","NA","746.0","0.0"
"-137.311","62.830","PELLY RANCH","2100880","YT","-11.9","0","7.6","5.0","0","-32.0","0","104.0","0","698.0","104.0","0","698.0","","7","","","NA","866.1","0.0"
"-136.218","66.981","ROCK RIVER","2100935","YT","-15.0","1","NA","0.0","1","-30.1","1","","","NA","0.0","2","NA","","0","","","NA","924.4","0.0"
"-137.217","68.950","SHINGLE POINT A","2100950","YT","-23.4","1","NA","-4.2","1","-37.2","0","","","NA","","","NA","","","","","NA","1158.0","0.0"
"-129.132","61.182","HOUR LAKE","2100FCG","YT","-13.0","0","NA","0.0","0","-33.0","0","32.6","0","NA","32.6","0","NA","68.0","10","","","NA","899.0","0.0"
"-139.127","64.061","DAWSON","2100LRP","YT","-15.1","0","NA","3.9","0","-34.4","0","","","NA","7.0","0","NA","41.0","1","","","NA","959.8","0.0"
"-135.573","60.946","TAKHINI RIVER RANCH","2101095","YT","-7.6","0","6.4","6.0","0","-28.5","0","8.0","0","101.0","8.0","0","101.0","22.0","3","","","NA","741.6","0.0"
"-132.733","60.167","TESLIN (AUT)","2101102","YT","-7.2","0","NA","5.6","0","-20.8","0","","","NA","22.6","0","NA","54.0","6","","","NA","731.2","0.0"
"-128.832","60.116","WATSON LAKE (AUT)","2101204","YT","-14.1","0","NA","0.7","0","-28.9","0","","","NA","19.5","0","NA","54.0","6","","","NA","930.8","0.0"
"-135.067","60.709","WHITEHORSE A","2101303","YT","-5.7","0","NA","3.2","0","-17.8","0","","","NA","","","NA","","","","","NA","688.0","0.0"
"-135.098","60.733","WHITEHORSE AUTO","2101310","YT","-5.1","0","NA","4.0","0","-18.3","0","","","NA","33.7","0","NA","35.0","12","","","NA","670.4","0.0"
"-124.717","70.167","CAPE PARRY A","2200675","NT","-25.4","0","NA","-16.6","0","-30.1","0","","","NA","","","NA","","","","","NA","1257.8","0.0"
"-126.123","67.021","COLVILLE LAKE","2200824","NT","-23.1","5","NA","-7.4","4","-39.0","3","","","NA","","","NA","","","","","NA","985.6","0.0"
"-123.433","65.209","DELINE CS","2201022","NT","-20.8","0","NA","-2.1","0","-34.7","0","","","NA","","","NA","13.0","","","","NA","1126.5","0.0"
"-124.468","61.257","DEADMEN VALLEY","22010H0","NT","-14.2","5","NA","1.7","5","-34.0","3","","","NA","","","NA","31.0","","","","NA","772.5","0.0"
"-128.644","66.242","FORT GOOD HOPE CS","2201450","NT","-21.1","0","NA","-2.2","0","-36.3","0","","","NA","13.5","0","NA","56.0","3","","","NA","1133.4","0.0"
"-123.467","60.233","FORT LIARD","2201579","NT","-11.1","0","NA","9.9","0","-25.0","0","","","NA","","","NA","","","","","NA","845.2","0.0"
"-117.602","61.317","FORT PROVIDENCE","2201799","NT","-17.6","1","NA","3.7","1","-33.2","1","","","NA","","","NA","","","","","NA","995.5","0.0"
"-109.168","62.711","FORT RELIANCE (AUT)","2201903","NT","-27.8","1","NA","-11.1","1","-42.7","1","","","NA","13.2","2","NA","38.0","4","","","NA","1281.5","0.0"
"-121.237","61.760","FORT SIMPSON CLIMATE","2202102","NT","-17.5","0","NA","1.4","0","-31.6","0","","","NA","17.4","0","NA","45.0","5","","","NA","1030.5","0.0"
"-121.237","61.760","FORT SIMPSON A","2202103","NT","-17.6","0","NA","1.1","0","-30.7","0","31.8","0","NA","17.2","0","NA","49.0","5","","","NA","1031.2","0.0"
"-111.962","60.020","FORT SMITH A","2202201","NT","-18.9","1","NA","0.6","1","-34.6","0","10.6","2","NA","7.6","2","NA","54.0","2","","","NA","1033.4","0.0"
"-111.929","60.026","FORT SMITH CLIMATE","2202202","NT","-19.0","7","NA","-6.1","7","-33.8","6","","","NA","17.8","7","NA","","2","","","NA","814.6","0.0"
"-115.783","60.840","HAY RIVER A","2202401","NT","-18.2","0","NA","1.8","0","-32.7","0","14.8","1","NA","12.0","1","NA","45.0","4","","","NA","1049.9","0.0"
"-115.777","60.839","HAY RIVER CLIMATE","2202402","NT","-17.7","0","NA","2.3","0","-31.9","0","","","NA","38.7","0","NA","31.0","16","","","NA","1036.4","0.0"
"-113.726","61.920","INNER WHALEBACKS","2202560","NT","-21.1","1","NA","-9.2","1","-32.9","1","","","NA","5.9","2","NA","","1","","","NA","1096.0","0.0"
"-133.517","68.317","INUVIK CLIMATE","2202578","NT","-21.5","0","NA","-5.6","0","-34.2","0","","","NA","0.6","0","NA","43.0","0","","","NA","1145.7","0.0"
"-117.245","63.134","LAC LA MARTRE","2202678","NT","-23.3","0","NA","-3.3","0","-39.6","0","","","NA","","","NA","","","","","NA","1197.2","0.0"
"-126.799","65.281","NORMAN WELLS A","2202801","NT","-20.8","0","NA","-3.4","0","-40.7","0","32.6","0","NA","25.4","0","NA","34.0","7","","","NA","1123.9","0.0"
"-126.753","65.288","NORMAN WELLS CLIMATE","2202810","NT","-19.9","2","NA","-3.1","1","-39.1","1","","","NA","143.2","1","NA","34.0","27","","","NA","1022.6","0.0"
"-124.083","69.358","PAULATUK","2203058","NT","-26.7","0","NA","-14.0","0","-35.3","0","","","NA","0.8","0","NA","","0","","","NA","1297.2","0.0"
"-127.209","61.963","RABBIT KETTLE","2203342","NT","-17.4","1","NA","-0.6","1","-36.5","1","","","NA","","","NA","","","","","NA","991.5","0.0"
"-117.328","64.112","RAE LAKES","2203359","NT","-20.8","0","NA","-0.5","0","-38.3","0","","","NA","","","NA","","","","","NA","1125.4","0.0"
"-133.017","69.433","TUKTOYAKTUK","2203914","NT","-25.7","0","NA","-11.3","0","-36.7","0","","","NA","","","NA","","","","","NA","1267.2","0.0"
"-114.440","62.463","YELLOWKNIFE A","2204101","NT","-23.3","0","NA","-6.3","0","-37.1","0","17.8","0","NA","9.0","1","NA","44.0","3","","","NA","1198.6","0.0"
"-114.383","62.450","YELLOWKNIFE-HENDERSON","2204110","NT","-23.0","0","NA","-5.0","0","-36.0","0","12.8","0","NA","12.8","0","NA","45.0","4","","","NA","1190.0","0.0"
"-130.911","69.604","LIVERPOOL BAY","220B68C","NT","-26.0","1","NA","-13.2","1","-35.6","0","","","NA","","","NA","","","","","NA","1232.1","0.0"
"-130.228","67.179","LITTLE CHICAGO","220B6Q3","NT","-22.0","1","NA","-5.5","1","-38.3","1","","","NA","","","NA","","","","","NA","1118.9","0.0"
"-110.682","62.419","LUTSELK'E A","220L001","NT","-26.0","7","NA","-10.0","7","-41.6","7","17.7","7","NA","17.7","7","NA","","4","","","NA","968.8","0.0"
"-110.690","62.416","LUTSELK'E CS","220L002","NT","-25.7","0","NA","-8.5","0","-41.1","0","","","NA","","","NA","37.0","","","","NA","1266.0","0.0"
"-110.615","64.699","EKATI A","220N001","NT","-27.8","0","NA","-15.0","0","-39.0","0","5.0","0","NA","5.0","0","NA","75.0","2","","","NA","1329.6","0.0"
"-113.863","63.603","LOWER CARP LAKE","220N004","NT","-25.1","6","NA","-8.8","5","-38.9","3","","","NA","","","NA","39.0","","","","NA","991.2","0.0"
"-133.502","68.746","TRAIL VALLEY","220N005","NT","-22.9","7","NA","-7.3","5","-38.3","7","","","NA","3.5","9","NA","38.0","1","","","NA","900.2","0.0"
"-94.072","61.094","ARVIAT A","2300427","NU","-30.2","1","NA","-14.1","1","-39.8","1","","","NA","14.6","1","NA","","3","","","NA","1348.7","0.0"
"-96.000","64.317","BAKER LAKE CLIMATE","2300501","NU","-32.1","0","NA","-22.3","0","-38.0","0","","","NA","13.1","0","NA","7.0","6","","","NA","1452.1","0.0"
"-96.078","64.299","BAKER LAKE A","2300503","NU","-31.6","0","NA","-21.9","0","-37.4","0","4.6","0","NA","4.6","0","NA","53.0","1","","","NA","1439.1","0.0"
"-108.015","66.838","BATHURST INLET","2300551","NU","-29.1","1","NA","-16.4","1","-37.6","1","","","NA","11.6","2","NA","","6","","","NA","1319.2","0.0"
"-115.144","67.817","KUGLUKTUK A","2300903","NU","-29.9","0","NA","-17.8","0","-38.8","0","12.2","0","NA","5.1","0","NA","16.0","2","","","NA","1387.7","0.0"
"-115.135","67.817","KUGLUKTUK CLIMATE","2300904","NU","-29.9","1","NA","-17.7","1","-38.6","0","","","NA","5.2","3","NA","3.0","2","","","NA","1340.6","0.0"
"-94.067","61.100","ARVIAT A","2300MKF","NU","-29.8","2","-1.6","-14.5","2","-40.0","2","17.0","2","NA","17.0","2","NA","","7","","","NA","1291.9","0.0"
"-83.359","64.193","CORAL HARBOUR A","2301002","NU","-30.5","0","NA","-18.8","0","-39.6","0","9.6","0","NA","9.8","1","NA","33.0","2","","","NA","1406.2","0.0"
"-83.617","64.333","CORAL HARBOUR RCS","2301010","NU","-30.0","3","NA","-18.6","3","-39.2","1","","","NA","14.3","4","NA","12.0","5","","","NA","1247.8","0.0"
"-94.067","61.100","ARVIAT CLIMATE","2301153","NU","-30.5","0","NA","-14.1","0","-40.2","0","","","NA","5.0","0","NA","20.0","1","","","NA","1405.7","0.0"
"-95.850","68.636","GJOA HAVEN A","2302337","NU","-33.1","0","NA","-19.7","0","-41.5","0","","","NA","1.6","4","NA","","1","","","NA","1482.6","0.0"
"-95.850","68.636","GJOA HAVEN CLIMATE","2302340","NU","-33.5","4","NA","-19.8","4","-41.9","4","","","NA","29.1","1","NA","44.0","14","","","NA","1288.0","0.0"
"-100.087","68.318","HAT ISLAND","2302370","NU","-32.2","0","NA","-18.6","0","-38.2","0","","","NA","","","NA","","","","","NA","1454.4","0.0"
"-89.726","68.437","CAM FOUR","2303093","NU","-32.3","1","NA","-20.0","1","-39.8","0","","","NA","","","NA","","","","","NA","1407.1","0.0"
"-89.796","68.538","KUGAARUK CLIMATE","2303094","NU","-33.8","0","NA","-17.5","0","-45.4","0","","","NA","2.4","0","NA","1.0","0","","","NA","1502.8","0.0"
"-92.115","62.811","RANKIN INLET A","2303405","NU","-30.9","1","NA","-18.7","1","-39.9","0","14.6","2","NA","14.6","3","NA","46.0","2","","","NA","1369.8","0.0"
"-79.260","56.537","SANIKILUAQ","2303668","NU","-24.8","1","NA","-5.4","1","-36.5","1","","","NA","4.3","1","NA","9.0","1","","","NA","1197.4","0.0"
"-93.433","68.817","SHEPHERD BAY A","2303685","NU","-35.5","2","NA","-21.6","2","-44.9","0","","","NA","","","NA","","","","","NA","1443.2","0.0"
"-119.219","69.276","CROKER RIVER","230J01Q","NU","-26.7","0","NA","-14.1","0","-34.3","0","","","NA","","","NA","","","","","NA","1296.9","0.0"
"-62.333","82.500","ALERT CLIMATE","2400305","NU","-27.4","0","NA","-12.2","0","-39.8","0","","","NA","9.0","0","NA","11.0","2","","","NA","1317.7","0.0"
"-62.333","82.500","ALERT UA","2400306","NU","","","NA","","","","","15.9","2","NA","14.5","2","NA","","5","","","NA","",""
"-85.012","72.993","ARCTIC BAY CS","2400404","NU","-30.2","16","NA","-12.5","14","-42.4","10","","","NA","0.2","23","NA","5.0","0","","","NA","627.2","0.0"
"-64.146","63.340","BREVOORT ISLAND","2400565","NU","-20.6","1","NA","-7.2","1","-29.5","0","","","NA","","","NA","","","","","NA","1081.9","0.0"
"-63.789","67.536","FOX FIVE","2400570","NU","-24.2","1","NA","-10.3","1","-32.3","0","","","NA","","","NA","","","","","NA","1180.3","0.0"
"-64.031","67.546","QIKIQTARJUAQ A","2400572","NU","-26.5","0","NA","-10.9","0","-38.5","0","23.3","0","NA","23.3","0","NA","25.0","5","","","NA","1290.0","0.0"
"-64.033","67.547","QIKIQTARJUAQ CLIMATE","2400573","NU","-27.5","5","NA","-19.4","5","-38.8","3","","","NA","4.4","9","NA","","1","","","NA","1091.5","0.0"
"-64.032","67.547","QIKIQTARJUAQ A","2400577","NU","-26.5","0","NA","-10.9","0","-38.6","0","","","NA","9.9","0","NA","","1","","","NA","1291.4","0.0"
"-105.137","69.108","CAMBRIDGE BAY A","2400601","NU","-32.3","2","NA","-20.1","2","-38.3","0","1.0","2","NA","1.0","3","NA","21.0","0","","","NA","1358.5","0.0"
"-105.138","69.108","CAMBRIDGE BAY GSN","2400602","NU","-31.9","0","NA","-18.8","0","-38.1","0","","","NA","5.6","0","NA","2.0","4","","","NA","1448.3","0.0"
"-76.530","64.231","CAPE DORSET CLIMATE","2400636","NU","-24.5","0","NA","-10.2","0","-32.5","0","","","NA","8.3","0","NA","6.0","2","","","NA","1232.3","0.0"
"-76.525","64.230","CAPE DORSET A","2400637","NU","-24.4","2","NA","-10.0","2","-31.9","2","","","NA","5.6","2","NA","","3","","","NA","1145.5","0.0"
"-61.383","66.650","CAPE DYER","2400650","NU","-21.5","1","NA","-9.7","1","-30.3","0","","","NA","","","NA","","","","","NA","1104.9","0.0"
"-66.815","68.473","CAPE HOOPER","2400660","NU","-25.4","1","NA","-12.0","1","-32.0","0","","","NA","","","NA","","","","","NA","1214.6","0.0"
"-107.823","69.036","CAPE PEEL WEST","2400697","NU","-30.9","2","NA","-19.5","0","-39.7","2","","","NA","","","NA","","","","","NA","1319.0","0.0"
"-68.517","70.483","CLYDE RIVER CLIMATE","2400802","NU","-28.6","9","NA","-9.9","9","-41.0","9","","","NA","4.9","9","NA","41.0","2","","","NA","932.6","0.0"
"-68.517","70.486","CLYDE RIVER A","2400804","NU","-28.2","1","NA","-10.3","1","-39.9","1","","","NA","4.1","1","NA","","2","","","NA","1293.2","0.0"
"-63.578","64.958","CAPE MERCY","2400F63","NU","-21.2","1","NA","-9.1","1","-32.2","0","","","NA","","","NA","","","","","NA","1098.8","0.0"
"-71.167","68.650","DEWAR LAKES","2401030","NU","-26.8","1","NA","-9.3","1","-36.9","0","","","NA","","","NA","","","","","NA","1253.3","0.0"
"-85.934","79.989","EUREKA CLIMATE","2401199","NU","-33.9","0","NA","-11.1","0","-45.5","0","","","NA","1.3","0","NA","9.0","0","","","NA","1503.8","0.0"
"-85.933","79.983","EUREKA A","2401200","NU","-35.2","5","2.3","-11.5","5","-45.5","5","0.4","5","NA","0.4","5","NA","","0","","","NA","1275.7","0.0"
"-85.812","79.994","EUREKA A","2401203","NU","-26.6","24","NA","-17.4","24","-33.2","24","0.2","24","NA","0.2","24","NA","12.0","0","","","NA","223.1","0.0"
"-94.198","72.018","FORT ROSS","2402051","NU","-29.7","1","NA","-16.3","1","-39.8","1","","","NA","50.9","1","NA","25.0","20","","","NA","1335.4","0.0"
"-100.267","70.633","GATESHEAD ISLAND","2402332","NU","-32.5","1","NA","-20.9","1","-39.9","1","","","NA","3.5","3","NA","","0","","","NA","1414.0","0.0"
"-82.902","76.423","GRISE FIORD CLIMATE","2402351","NU","-29.2","2","NA","-12.0","2","-37.6","1","","","NA","3.4","2","NA","4.0","1","","","NA","1275.1","0.0"
"-81.244","68.776","HALL BEACH CLIMATE","2402353","NU","-31.5","0","NA","-12.1","0","-44.0","0","","","NA","3.5","0","NA","35.0","0","","","NA","1434.5","0.0"
"-81.243","68.776","HALL BEACH A","2402354","NU","-31.4","0","NA","-12.1","0","-43.8","0","","","NA","6.0","0","NA","","2","","","NA","1433.5","0.0"
"-68.544","63.747","IQALUIT CLIMATE","2402592","NU","-24.8","0","NA","-8.6","0","-35.1","0","","","NA","18.5","0","NA","17.0","8","","","NA","1240.4","0.0"
"-68.550","63.750","IQALUIT UA","2402594","NU","","","NA","","","","","14.0","13","NA","14.0","13","NA","","4","","","NA","",""
"-65.711","66.143","PANGNIRTUNG","2403049","NU","-22.6","0","NA","-6.5","0","-34.4","0","","","NA","15.3","0","NA","22.0","3","","","NA","1178.1","0.0"
"-77.958","72.693","POND INLET CLIMATE","2403204","NU","-32.6","0","NA","-15.2","0","-40.7","0","","","NA","2.8","0","NA","14.0","1","","","NA","1468.4","0.0"
"-77.969","72.689","POND INLET A","2403206","NU","-31.9","2","NA","-15.4","2","-40.0","1","","","NA","0.0","2","NA","","0","","","NA","1346.2","0.0"
"-105.715","75.377","REA POINT","2403450","NU","-30.1","7","NA","-21.4","5","-41.2","3","","","NA","","","NA","","","","","NA","1058.6","0.0"
"-94.969","74.717","RESOLUTE BAY A","2403498","NU","-30.4","0","NA","-16.1","0","-40.3","0","1.3","0","NA","4.5","1","NA","26.0","2","","","NA","1404.1","0.0"
"-94.983","74.716","RESOLUTE CS","2403505","NU","-30.6","3","NA","-8.4","3","-39.9","2","","","NA","2.9","16","NA","7.0","1","","","NA","1263.2","0.0"
"-64.633","61.600","RESOLUTION ISLAND","2403602","NU","-19.9","1","NA","-7.1","1","-30.2","0","","","NA","","","NA","","","","","NA","1060.4","0.0"
"-79.033","69.083","ROWLEY ISLAND","2403625","NU","-28.3","1","NA","-13.2","1","-35.8","1","","","NA","","","NA","","","","","NA","1295.7","0.0"
"-105.296","73.766","STEFANSSON ISLAND","2403756","NU","-31.8","7","NA","-22.4","4","-43.2","6","","","NA","0.2","7","NA","","0","","","NA","1095.6","0.0"
"-91.816","81.161","SVARTEVAEG","2403833","NU","-29.0","0","NA","-14.3","0","-40.5","0","","","NA","0.6","0","NA","15.0","0","","","NA","1362.2","0.0"
"-93.577","69.547","TALOYOAK A","2403855","NU","-34.6","1","NA","-23.3","1","-42.3","0","2.0","1","NA","2.2","1","NA","21.0","0","","","NA","1473.4","0.0"
"-89.446","65.879","WAGER BAY (AUT)","2403945","NU","","","NA","","","","","","","NA","1.8","3","NA","","0","","","NA","",""
"-119.989","74.139","NANGMAGVIK LAKE","2500440","NT","-28.7","27","NA","-22.1","19","-35.5","27","","","NA","","","NA","16.0","","","","NA","93.4","0.0"
"-117.800","70.761","HOLMAN CS","2502505","NT","-28.0","0","NA","-17.2","0","-34.8","0","","","NA","1.8","0","NA","12.0","0","","","NA","1335.0","0.0"
"-125.254","71.993","SACHS HARBOUR CLIMATE","2503648","NT","-25.9","0","NA","-14.4","0","-36.0","0","","","NA","0.4","0","NA","7.0","0","","","NA","1271.9","0.0"
"-119.347","76.238","MOULD BAY CS","250M001","NT","-28.5","1","NA","-17.6","1","-39.6","1","","","NA","8.1","2","NA","32.0","3","","","NA","1303.2","0.0"
"-112.967","54.283","ABEE AGDM","3010010","AB","-6.8","3","NA","8.1","3","-22.4","1","","","NA","7.4","3","NA","","3","","","NA","644.2","0.0"
"-111.181","53.113","ALBERT HALL AGCM","3010060","AB","-4.3","0","NA","8.9","0","-19.4","0","","","NA","6.4","0","NA","","2","","","NA","647.4","0.0"
"-111.779","52.315","ALLIANCE AGCM","3010162","AB","-2.3","2","NA","12.2","2","-16.0","1","","","NA","7.6","3","NA","","4","","","NA","547.2","0.0"
"-112.233","54.017","ANDREW","3010234","AB","-5.6","8","5.0","7.0","8","-19.0","8","16.0","8","NA","18.0","8","NA","","5","","","NA","496.5","0.0"
"-112.279","53.917","ANDREW AGDM","3010237","AB","-5.8","1","NA","7.2","1","-20.8","1","","","NA","6.4","3","NA","","3","","","NA","667.4","0.0"
"-111.465","52.582","BELLSHILL AGCM","3010650","AB","-5.2","18","NA","10.4","13","-16.6","17","","","NA","1.2","21","NA","","1","","","NA","255.2","0.0"
"-110.101","52.124","BODO AGDM","3010730","AB","-3.7","6","NA","11.7","6","-17.8","3","","","NA","11.2","6","NA","","3","","","NA","498.5","0.0"
"-114.483","53.167","BRETON","3010815","AB","-5.0","28","NA","6.0","26","-17.0","25","0.0","26","NA","0.0","26","NA","","0","","","NA","23.0","0.0"
"-114.441","53.089","BRETON PLOTS","3010816","AB","-1.5","0","NA","15.6","0","-14.3","0","","","NA","14.3","0","NA","","4","","","NA","564.9","0.0"
"-113.922","53.931","BUSBY AGCM","3010979","AB","-4.0","0","NA","11.8","0","-18.0","0","","","NA","21.5","0","NA","","9","","","NA","638.1","0.0"
"-110.510","52.334","CADOGAN AGCM","3010992","AB","-3.4","2","NA","13.2","2","-18.0","1","","","NA","14.6","3","NA","","3","","","NA","578.4","0.0"
"-112.817","53.050","CAMROSE","3011240","AB","-3.1","0","6.6","13.4","0","-18.1","0","","","NA","7.2","0","53.0","5.0","2","","","NA","611.1","0.0"
"-112.800","52.950","CAMROSE 2","3011241","AB","-2.4","23","NA","13.0","15","-15.5","15","2.8","12","NA","2.8","12","NA","0.0","1","","","NA","122.6","0.0"
"-114.654","53.234","CARNWOOD","3011350","AB","-1.8","0","NA","13.0","0","-16.0","0","16.0","0","NA","16.0","0","NA","15.0","3","","","NA","573.5","0.0"
"-110.713","51.937","CONSORT AGDM","3011815","AB","-3.7","5","NA","9.0","5","-17.4","3","","","NA","12.4","6","NA","","2","","","NA","519.8","0.0"
"-111.449","52.074","CORONATION CLIMATE","3011887","AB","-4.5","0","NA","6.7","0","-16.9","0","","","NA","8.3","0","NA","1.0","3","","","NA","651.3","0.0"
"-113.903","52.733","CRESTOMERE AGCM","3011892","AB","-3.1","3","NA","12.3","3","-17.7","1","","","NA","9.6","3","NA","","2","","","NA","547.7","0.0"
"-113.950","52.750","DAKOTA WEST","3011953","AB","-1.9","6","5.7","13.0","6","-15.0","6","11.2","6","NA","11.2","6","NA","5.0","3","","","NA","458.3","0.0"
"-113.176","52.183","DELBURNE AGCM","3012050","AB","-2.1","1","NA","11.5","1","-14.4","1","","","NA","7.8","1","NA","","3","","","NA","562.3","0.0"
"-110.588","53.659","DEWBERRY AGCM","3012073","AB","-6.0","7","NA","7.2","5","-22.6","4","","","NA","12.4","9","NA","","4","","","NA","527.9","0.0"
"-112.351","52.517","DONALDA SOUTH","3012095","AB","-1.6","0","NA","13.5","0","-15.5","0","11.0","0","NA","12.0","0","NA","4.0","3","","","NA","569.8","0.0"
"-110.433","52.778","EDGERTON AGCM","3012192","AB","-5.2","5","NA","8.3","4","-17.7","2","","","NA","5.4","6","NA","","2","","","NA","556.9","0.0"
"-113.606","53.307","EDMONTON INTERNATIONAL CS","3012206","AB","-3.8","0","NA","12.0","0","-17.7","0","","","NA","","","NA","2.0","","","","NA","632.1","0.0"
"-113.517","53.573","EDMONTON BLATCHFORD","3012209","AB","-1.5","0","NA","15.3","0","-14.3","0","","","NA","8.2","0","NA","0.0","4","","","NA","566.3","0.0"
"-113.467","53.667","EDMONTON NAMAO AWOS A","3012212","AB","-2.2","1","NA","14.3","1","-14.8","0","","","NA","6.5","1","NA","","3","","","NA","564.3","0.0"
"-113.579","53.310","EDMONTON INTL A","3012216","AB","-4.0","0","NA","10.9","0","-17.6","0","11.0","0","NA","10.1","0","NA","7.0","3","","","NA","637.6","0.0"
"-113.856","53.668","EDMONTON VILLENEUVE A","3012229","AB","-2.5","1","NA","11.9","1","-14.2","1","","","NA","3.7","1","NA","","1","","","NA","574.2","0.0"
"-114.108","53.548","EDMONTON STONY PLAIN","301222F","AB","-1.3","0","6.1","12.8","0","-15.2","0","22.2","0","142.0","15.2","0","104.0","10.0","4","","","NA","560.7","0.0"
"-112.868","53.683","ELK ISLAND NAT PARK","3012275","AB","-2.6","0","6.6","13.5","0","-17.8","0","","","NA","8.6","0","76.0","10.0","2","","","NA","597.9","0.0"
"-111.000","52.967","FABYAN","3012515","AB","-5.3","0","6.1","8.0","0","-19.0","0","4.0","0","39.0","4.0","0","38.0","","3","","","NA","676.7","0.0"
"-112.858","52.744","FERINTOSH AGCM","3012590","AB","-3.7","1","NA","8.9","1","-16.5","1","","","NA","5.5","2","NA","","1","","","NA","608.0","0.0"
"-112.120","52.467","FORESTBURG PLANT SITE","3012652","AB","-1.5","2","5.9","12.0","2","-15.0","2","13.8","2","NA","13.8","2","NA","0.0","4","","","NA","527.6","0.0"
"-112.123","52.548","FORESTBURG AGCM","3012653","AB","-2.1","1","NA","13.6","1","-15.5","1","","","NA","5.7","2","NA","","3","","","NA","563.0","0.0"
"-113.183","53.717","FORT SASKATCHEWAN","3012710","AB","-0.7","18","8.6","8.5","18","-14.0","18","0.0","18","NA","0.0","18","NA","","0","","","NA","206.0","0.0"
"-110.621","53.071","GILT EDGE NORTH AGCM","3012790","AB","-5.4","5","NA","5.4","5","-18.6","1","","","NA","6.2","5","NA","","3","","","NA","561.2","0.0"
"-114.539","53.833","GLENEVIS AGCM","3012818","AB","-1.3","3","NA","14.0","2","-15.0","2","","","NA","","","NA","","","","","NA","500.5","0.0"
"-112.164","52.116","HALKIRK AGCM","3012999","AB","-4.1","0","NA","8.6","0","-16.2","0","","","NA","4.9","4","NA","","2","","","NA","640.7","0.0"
"-111.212","51.780","HEMARUKA AGCM","3013140","AB","-5.0","1","NA","8.2","1","-16.5","1","","","NA","9.7","2","NA","","3","","","NA","645.0","0.0"
"-112.246","53.185","HOLDEN AGDM","3013340","AB","-4.2","3","NA","9.8","3","-17.8","1","","","NA","7.6","4","NA","","2","","","NA","576.0","0.0"
"-110.784","52.578","HUGHENDEN AGCM","3013362","AB","-3.7","3","NA","10.7","3","-17.9","1","","","NA","7.6","4","NA","","3","","","NA","564.7","0.0"
"-111.872","52.848","KILLAM AGDM","3013640","AB","-4.1","4","NA","8.4","4","-17.7","1","","","NA","23.2","4","NA","","12","","","NA","552.7","0.0"
"-111.113","52.290","KESSLER AGCM","3013644","AB","-2.9","7","NA","12.3","7","-16.7","3","","","NA","4.4","10","NA","","2","","","NA","460.2","0.0"
"-110.416","53.353","KITSCOTY AGCM","3013660","AB","-6.0","7","NA","6.3","6","-20.5","4","","","NA","21.9","7","NA","","12","","","NA","527.5","0.0"
"-113.474","54.003","LEGAL AGCM","3013790","AB","-4.0","10","NA","10.9","5","-16.7","7","","","NA","9.6","7","NA","","3","","","NA","418.2","0.0"
"-110.579","53.943","LINDBERGH AGDM","3013921","AB","-6.5","8","NA","7.6","5","-24.3","4","","","NA","8.7","8","NA","","4","","","NA","513.5","0.0"
"-110.073","53.309","LLOYDMINSTER","3013959","AB","-6.5","4","NA","5.8","4","-20.9","4","","","NA","0.0","9","NA","","0","","","NA","613.2","0.0"
"-110.073","53.309","LLOYDMINSTER A","3013961","AB","-5.9","0","5.8","5.8","0","-20.8","0","13.2","0","134.0","16.4","0","167.0","10.0","6","","","NA","693.1","0.0"
"-112.267","53.083","HOLDEN SOUTH","3013C44","AB","","","NA","","","","","11.4","0","107.0","12.2","0","113.0","0.0","3","","","NA","",""
"-111.255","53.456","MANNVILLE AGCM","3014195","AB","-4.6","0","NA","8.2","0","-19.9","0","","","NA","8.1","0","NA","","2","","","NA","654.3","0.0"
"-110.550","52.017","MONITOR","3014600","AB","","","NA","","","","","19.4","0","223.0","28.0","0","317.0","0.0","5","","","NA","",""
"-112.300","53.567","MUNDARE AGDM","3014665","AB","-4.1","5","NA","12.0","4","-17.0","2","","","NA","7.6","7","NA","","2","","","NA","530.4","0.0"
"-111.114","53.720","MYRNAM AGCM","3014690","AB","-5.6","4","NA","9.4","2","-20.7","4","","","NA","12.2","5","NA","","4","","","NA","589.5","0.0"
"-113.165","53.262","NEW SEREPTA AGCM","3014795","AB","-3.3","1","NA","14.1","1","-16.0","1","","","NA","5.5","1","NA","","1","","","NA","597.7","0.0"
"-113.350","53.650","OLIVER AGDM","3014921","AB","-2.1","4","NA","13.4","4","-18.6","2","","","NA","","","NA","","","","","NA","503.3","0.0"
"-112.879","53.995","RADWAY AGCM","3015346","AB","-4.2","0","NA","14.1","0","-21.0","0","","","NA","","","NA","","","","","NA","644.9","0.0"
"-111.726","53.425","RANFURLY AUTO","3015401","AB","-4.2","0","NA","10.5","0","-17.5","0","","","NA","9.0","0","NA","11.0","2","","","NA","642.4","0.0"
"-110.343","52.587","RIBSTONE SOUTH AGCM","3015480","AB","-4.0","5","NA","9.9","4","-17.7","2","","","NA","9.3","6","NA","","4","","","NA","527.7","0.0"
"-110.102","53.019","RIVERCOURSE AGCM","3015501","AB","-6.1","4","NA","6.8","3","-20.1","3","","","NA","5.2","5","NA","","2","","","NA","603.3","0.0"
"-114.912","52.421","ROCKY MTN HOUSE (AUT)","3015523","AB","-3.7","3","NA","10.4","3","-20.8","3","","","NA","8.5","3","NA","19.0","3","","","NA","563.7","0.0"
"-112.428","52.780","ROSALIND AGCM","3015600","AB","-2.5","0","NA","14.2","0","-15.8","0","","","NA","4.2","0","NA","","2","","","NA","594.3","0.0"
"-111.453","54.282","ST. LINA AGCM","3015673","AB","-5.1","2","NA","10.8","2","-25.1","1","","","NA","10.7","1","NA","","4","","","NA","624.0","0.0"
"-111.272","54.011","ST. PAUL AGCM","3015676","AB","","","NA","2.3","26","-3.6","28","","","NA","","","NA","","","","","NA","",""
"-110.755","51.590","SEDALIA AGCM","3015797","AB","-5.9","5","NA","5.4","4","-16.2","2","","","NA","3.2","5","NA","","1","","","NA","573.0","0.0"
"-111.700","52.783","SEDGEWICK TOWN","3015808","AB","-4.0","0","6.9","10.0","0","-18.0","0","10.0","0","113.0","10.0","0","112.0","0.0","2","","","NA","638.5","0.0"
"-112.539","53.333","SHONTS AGCM","3015900","AB","-3.0","3","NA","14.0","3","-17.3","1","","","NA","5.6","4","NA","","2","","","NA","545.6","0.0"
"-112.499","54.278","SMOKY LAKE AGDM","3016022","AB","-3.8","14","NA","10.3","14","-19.1","14","","","NA","6.5","14","NA","","1","","","NA","326.3","0.0"
"-111.683","51.816","SPONDIN AGCM","3016070","AB","-5.5","4","NA","5.9","4","-16.6","1","","","NA","10.3","6","NA","","2","","","NA","587.5","0.0"
"-112.596","52.347","STETTLER AGDM","3016124","AB","-2.9","1","NA","10.8","1","-14.7","1","","","NA","7.4","1","NA","","3","","","NA","583.8","0.0"
"-113.895","53.217","THORSBY AGCM","3016441","AB","-2.7","4","NA","11.3","1","-15.8","4","","","NA","10.2","5","NA","","4","","","NA","517.6","0.0"
"-114.718","53.439","TOMAHAWK AGDM","3016505","AB","-1.8","5","NA","13.0","5","-14.7","2","","","NA","21.8","5","NA","","8","","","NA","475.0","0.0"
"-110.081","53.664","TULLIBY LAKE AGCM","3016593","AB","-8.8","6","NA","6.8","5","-25.8","4","","","NA","9.1","7","NA","","4","","","NA","616.5","0.0"
"-113.033","53.500","UNCAS","3016650","AB","","","NA","","","","","16.5","0","NA","17.0","0","NA","11.0","4","","","NA","",""
"-111.678","53.625","TWO HILLS AGDM","3016655","AB","-4.9","3","NA","8.5","2","-19.0","2","","","NA","5.9","4","NA","","1","","","NA","594.7","0.0"
"-110.882","53.344","VERMILION AGDM","3016802","AB","-5.1","4","NA","8.0","4","-20.1","1","","","NA","9.3","5","NA","","3","","","NA","578.4","0.0"
"-111.732","53.182","VIKING AGCM","3016841","AB","-4.2","10","NA","6.5","10","-16.6","5","","","NA","4.1","10","NA","","2","","","NA","421.2","0.0"
"-111.767","53.283","VIKING NORTH 3","3016845","AB","-4.1","0","NA","9.5","0","-16.5","0","12.1","0","NA","13.1","0","NA","12.0","6","","","NA","641.0","0.0"
"-111.921","54.130","VILNA AGCM","3016852","AB","-5.5","1","NA","8.2","1","-21.5","1","","","NA","13.8","2","NA","","5","","","NA","657.5","0.0"
"-115.126","53.144","VIOLET GROVE CS","3016860","AB","-1.6","1","NA","12.5","1","-14.9","0","","","NA","2.8","25","NA","8.0","1","","","NA","547.7","0.0"
"-112.098","53.505","VEGREVILLE","3016GF0","AB","-3.9","0","6.9","13.2","0","-19.1","0","","","NA","6.5","0","59.0","0.0","2","","","NA","634.6","0.0"
"-113.444","52.980","WETASKIWIN AGCM","3017282","AB","-3.4","6","NA","10.0","5","-16.6","2","","","NA","5.6","7","NA","","1","","","NA","491.4","0.0"
"-114.108","53.547","EDMONTON STONY PLAIN CS","301A001","AB","-1.7","0","NA","12.3","0","-15.2","0","","","NA","14.4","0","NA","20.0","4","","","NA","570.2","0.0"
"-110.206","51.670","ESTHER 1","301B460","AB","-4.0","0","NA","9.6","0","-16.6","0","","","NA","7.8","0","NA","","4","","","NA","637.3","0.0"
"-113.533","53.517","UNIVERSITY OF ALBERTA METABOLIC CENTRE","301FFNJ","AB","-1.9","0","6.6","13.5","0","-13.0","0","13.0","0","131.0","13.0","0","131.0","4.0","5","","","NA","576.4","0.0"
"-111.096","52.829","WAINWRIGHT CFB AIRFIELD 21","301S001","AB","-4.0","0","NA","9.1","0","-17.7","0","","","NA","6.6","0","NA","","3","","","NA","637.1","0.0"
"-110.317","51.066","ACADIA VALLEY","3020035","AB","-2.9","2","NA","10.4","2","-14.4","1","","","NA","5.9","3","NA","","2","","","NA","564.0","0.0"
"-111.006","50.810","ATLEE AGCM","3020405","AB","-1.9","5","NA","10.4","5","-14.1","1","","","NA","6.3","5","NA","","2","","","NA","476.5","0.0"
"-113.357","51.379","BEISEKER AGCM","3020610","AB","-2.1","0","NA","9.9","0","-18.8","0","","","NA","1.5","1","NA","","0","","","NA","583.2","0.0"
"-112.803","51.998","BIG VALLEY AGCM","3020679","AB","-2.3","4","NA","7.8","3","-14.2","3","","","NA","33.4","5","NA","","13","","","NA","507.8","0.0"
"-112.252","51.775","CRAIGMYLE AGCM","3021912","AB","-4.3","4","NA","7.1","2","-17.3","3","","","NA","11.6","4","NA","","3","","","NA","557.7","0.0"
"-112.283","51.767","CRAIGMYLE","3021940","AB","-3.1","1","5.7","16.5","1","-18.0","1","15.5","1","NA","15.5","1","NA","","4","","","NA","590.1","0.0"
"-112.677","51.445","DRUMHELLER EAST","30221LG","AB","-2.1","0","NA","11.2","0","-15.4","0","","","NA","","","NA","","","","","NA","581.5","0.0"
"-114.486","52.310","HESPERO AGCM","3023200","AB","-5.7","7","NA","8.3","7","-19.8","3","","","NA","6.4","7","NA","","3","","","NA","520.5","0.0"
"-112.500","51.183","HUSSAR AGDM","3023402","AB","-2.1","3","NA","13.7","3","-14.9","1","","","NA","6.5","3","NA","","1","","","NA","521.3","0.0"
"-113.756","52.449","LACOMBE CDA 2","3023722","AB","-3.8","0","NA","10.8","0","-19.7","0","","","NA","9.1","0","NA","18.0","3","","","NA","631.5","0.0"
"-114.473","52.553","LEEDALE AGDM","3023740","AB","-5.9","3","NA","8.3","2","-25.1","2","","","NA","9.6","3","NA","2.0","4","","","NA","621.9","0.0"
"-113.656","51.619","LINDEN AGCM","3023850","AB","-2.2","0","NA","12.2","0","-17.0","0","","","NA","4.5","8","NA","","2","","","NA","587.2","0.0"
"-112.675","51.660","MORRIN AGDM","3024668","AB","-4.4","1","NA","6.9","1","-18.8","1","","","NA","13.1","1","NA","","3","","","NA","626.4","0.0"
"-114.085","51.759","OLDS AGDM","3024925","AB","-1.4","1","NA","13.9","1","-14.2","1","","","NA","7.2","2","NA","","2","","","NA","542.3","0.0"
"-110.350","51.383","OYEN AGDM","3024965","AB","-4.3","3","NA","6.1","2","-15.9","3","","","NA","3.9","6","NA","","2","","","NA","579.4","0.0"
"-111.705","51.125","POLLOCKVILLE AGDM","3025243","AB","-3.5","10","NA","7.8","10","-18.0","5","","","NA","7.4","10","NA","","2","","","NA","409.3","0.0"
"-113.600","52.433","PRENTISS","3025297","AB","-2.2","2","NA","11.4","2","-14.6","1","","","NA","8.9","3","NA","","3","","","NA","546.2","0.0"
"-113.894","52.182","RED DEER REGIONAL A","3025481","AB","-5.2","0","NA","8.4","0","-21.1","0","9.4","1","NA","10.2","1","NA","25.0","3","","","NA","674.0","0.0"
"-110.091","50.307","SCHULER AGDM","3025768","AB","-1.1","5","NA","13.2","3","-14.3","4","","","NA","6.4","6","NA","","1","","","NA","459.0","0.0"
"-110.146","51.425","SIBBALD WESTGARD","3025928","AB","-4.5","3","NA","7.0","3","-16.0","3","8.0","3","NA","9.4","3","NA","4.0","3","","","NA","583.8","0.0"
"-113.206","51.768","THREE HILLS","3026479","AB","-3.4","2","NA","6.8","2","-15.3","1","","","NA","7.0","3","NA","","2","","","NA","578.7","0.0"
"-114.683","51.778","SUNDRE A","3026KNQ","AB","-1.5","0","NA","17.2","0","-20.1","0","","","NA","1.6","0","NA","1.0","1","","","NA","565.7","0.0"
"-113.591","51.936","WIMBORNE AGCM","3027582","AB","-2.7","5","NA","10.5","5","-15.2","1","","","NA","5.0","6","NA","","2","","","NA","495.6","0.0"
"-114.013","50.512","AZURE","3030450","AB","0.5","4","NA","15.2","4","-13.6","1","","","NA","8.2","7","NA","","4","","","NA","437.1","0.0"
"-112.300","49.800","BARNWELL AGDM","3030525","AB","1.8","9","NA","17.6","4","-13.4","6","","","NA","4.3","8","NA","","1","","","NA","323.5","0.0"
"-113.224","50.026","BARONS AGCM","3030529","AB","0.2","8","NA","16.1","7","-17.6","4","","","NA","1.1","9","NA","","0","","","NA","372.9","0.0"
"-112.465","50.893","BASSANO AGCM","3030540","AB","-1.7","6","NA","16.8","4","-13.1","4","","","NA","10.6","7","NA","","2","","","NA","454.0","0.0"
"-114.152","50.707","BLACK DIAMOND","3030680","AB","-0.4","4","NA","16.8","2","-15.8","3","","","NA","0.0","28","NA","","0","","","NA","461.1","0.0"
"-113.050","49.567","BLOOD TRIBE AGDM","3030720","AB","2.4","3","NA","16.1","2","-11.9","2","","","NA","0.4","5","NA","","0","","","NA","405.4","0.0"
"-111.450","49.734","BOW ISLAND","3030768","AB","1.5","0","NA","19.0","0","-15.3","0","","","NA","2.5","0","NA","","1","","","NA","478.1","0.0"
"-111.383","49.867","BOW ISLAND IRRIGATION AGDM","3030772","AB","1.0","0","NA","17.8","0","-14.5","0","","","NA","6.2","0","NA","","2","","","NA","492.6","0.0"
"-113.817","49.617","BROCKET AGDM","3030830","AB","2.7","3","NA","14.2","3","-11.9","1","","","NA","0.0","19","NA","","0","","","NA","397.3","0.0"
"-111.849","50.555","BROOKS","3030QLP","AB","-0.3","0","NA","18.3","0","-13.5","0","","","NA","5.9","0","NA","0.0","1","","","NA","532.0","0.0"
"-114.013","51.123","CALGARY INTL A","3031092","AB","1.4","0","NA","16.9","0","-11.3","0","1.8","0","NA","2.2","0","NA","0.0","1","","","NA","480.5","0.0"
"-114.000","51.109","CALGARY INT'L CS","3031094","AB","0.8","0","NA","16.6","0","-12.6","0","","","NA","1.7","0","NA","0.0","0","","","NA","499.2","0.0"
"-113.286","49.201","CARDSTON","3031322","AB","3.4","0","NA","19.0","0","-12.0","0","","","NA","0.5","0","NA","","0","","","NA","423.8","0.0"
"-113.376","49.001","CARWAY","3031402","AB","1.8","2","NA","15.5","2","-13.6","1","","","NA","0.2","2","NA","","0","","","NA","437.9","0.0"
"-113.350","50.282","CHAMPION AGDM","3031480","AB","0.7","0","NA","18.2","0","-17.7","0","","","NA","5.0","1","NA","","2","","","NA","502.9","0.0"
"-113.639","50.004","CLARESHOLM","3031640","AB","1.8","0","NA","17.3","0","-13.5","0","","","NA","2.2","0","NA","0.0","1","","","NA","469.5","0.0"
"-114.222","51.076","COP UPPER","3031875","AB","1.4","2","NA","14.6","1","-10.7","2","","","NA","0.0","3","NA","","0","","","NA","447.2","0.0"
"-112.433","50.183","ENCHANT AGDM","3032422","AB","1.0","2","NA","18.6","2","-15.5","1","","","NA","2.2","3","NA","","0","","","NA","459.6","0.0"
"-111.054","49.553","ETZIKOM AGCM","3032450","AB","-0.1","4","NA","12.8","4","-17.5","2","","","NA","8.8","4","NA","","2","","","NA","452.8","0.0"
"-112.033","49.800","FINCASTLE AGDM","3032550","AB","2.0","0","NA","18.0","0","-18.2","0","","","NA","4.6","1","NA","","2","","","NA","463.4","0.0"
"-111.486","49.483","FOREMOST AGDM","3032642","AB","0.7","7","NA","19.1","4","-12.1","4","","","NA","5.9","8","NA","","1","","","NA","380.6","0.0"
"-113.379","49.786","FORT MACLEOD AGCM","3032683","AB","2.3","0","NA","16.4","0","-13.9","0","","","NA","1.8","5","NA","","1","","","NA","454.3","0.0"
"-112.941","50.934","GLEICHEN AGCM","3032801","AB","-0.4","0","NA","15.3","0","-12.8","0","","","NA","0.8","16","NA","","0","","","NA","532.2","0.0"
"-111.733","49.874","GRASSY LAKE","3032927","AB","1.4","1","NA","18.0","1","-16.8","1","","","NA","2.3","1","NA","","0","","","NA","464.6","0.0"
"-112.733","49.900","IRON SPRINGS AGDM","3033498","AB","1.3","5","NA","17.2","5","-15.8","2","","","NA","4.7","6","NA","","1","","","NA","401.8","0.0"
"-110.261","49.989","IRVINE AGCM","3033550","AB","0.3","3","NA","16.5","3","-11.7","1","","","NA","7.5","4","NA","","2","","","NA","459.6","0.0"
"-112.799","49.630","LETHBRIDGE","3033875","AB","2.6","3","NA","17.8","3","-12.4","3","","","NA","0.6","3","NA","","0","","","NA","400.7","0.0"
"-112.768","49.695","LETHBRIDGE CDA","3033890","AB","3.5","0","NA","18.3","0","-11.8","0","","","NA","1.8","0","NA","","1","","","NA","421.5","0.0"
"-112.783","49.700","LETHBRIDGE CDA 2","3033892","AB","","","NA","","","","","1.0","0","NA","1.1","0","NA","2.0","1","","","NA","",""
"-112.750","49.683","LETHBRIDGE DEMO FARM AGDM","3033897","AB","2.4","2","NA","17.6","2","-13.1","1","","","NA","1.3","3","NA","","0","","","NA","420.4","0.0"
"-110.721","50.019","MEDICINE HAT","3034479","AB","0.7","0","NA","17.9","0","-11.7","0","","","NA","6.9","3","NA","","2","","","NA","500.5","0.0"
"-110.717","50.025","MEDICINE HAT RCS","3034485","AB","0.8","0","NA","17.7","0","-11.4","0","","","NA","9.4","0","NA","2.0","2","","","NA","498.1","0.0"
"-113.349","50.673","MOSSLEIGH AGCM","3034577","AB","0.4","3","NA","17.5","2","-17.9","2","","","NA","0.4","4","NA","","0","","","NA","457.7","0.0"
"-114.099","51.369","NIER AGDM","3034795","AB","1.2","7","NA","16.8","4","-13.3","4","","","NA","1.3","6","NA","","0","","","NA","368.8","0.0"
"-113.997","49.521","PINCHER CREEK","3035198","AB","2.5","6","NA","13.9","6","-12.1","5","","","NA","0.0","6","NA","","0","","","NA","355.5","0.0"
"-114.005","49.522","PINCHER CREEK CLIMATE","3035208","AB","2.5","0","NA","13.8","0","-12.5","0","","","NA","0.5","0","NA","","0","","","NA","449.7","0.0"
"-112.983","50.606","QUEENSTOWN","3035340","AB","0.3","0","5.9","18.5","0","-14.0","0","0.0","0","0.0","0.0","0","0.0","0.0","0","","","NA","513.8","0.0"
"-112.803","50.598","QUEENSTOWN","3035342","AB","0.2","2","NA","18.1","2","-13.7","1","","","NA","16.0","2","NA","","5","","","NA","479.3","0.0"
"-112.683","49.483","RAYMOND AGDM","3035422","AB","2.8","1","NA","18.0","1","-12.2","1","","","NA","0.9","1","NA","","0","","","NA","426.3","0.0"
"-111.701","50.265","ROLLING HILLS AGCM","3035530","AB","0.2","2","NA","19.3","2","-12.5","1","","","NA","2.6","3","NA","","1","","","NA","480.9","0.0"
"-112.050","50.833","ROSEMARY AGDM","3035650","AB","-2.1","3","NA","15.4","2","-27.2","2","","","NA","11.7","7","NA","","2","","","NA","522.3","0.0"
"-110.917","49.917","SEVEN PERSONS AGDM","3035845","AB","0.7","0","NA","17.8","0","-12.6","0","","","NA","7.8","0","NA","","2","","","NA","503.1","0.0"
"-112.982","51.228","STANDARD AGCM","3036086","AB","-0.1","6","NA","14.7","6","-12.4","3","","","NA","0.8","7","NA","","0","","","NA","415.3","0.0"
"-113.883","50.183","STAVELY AAFC","3036099","AB","2.0","0","NA","16.3","0","-11.5","0","","","NA","4.0","0","NA","","1","","","NA","464.2","0.0"
"-113.283","51.033","STRATHMORE AGDM","3036205","AB","-0.4","0","NA","15.0","0","-12.7","0","","","NA","8.3","3","NA","","1","","","NA","534.5","0.0"
"-112.124","49.792","TABER","3036360","AB","1.0","15","NA","17.0","10","-15.0","10","3.0","10","NA","3.0","10","NA","0.0","2","","","NA","238.6","0.0"
"-112.863","50.304","TRAVERS AGCM","3036500","AB","0.7","8","NA","17.9","7","-12.8","4","","","NA","4.1","9","NA","","2","","","NA","363.6","0.0"
"-112.133","50.050","VAUXHALL CDA CS","3036682","AB","1.4","0","NA","18.8","0","-15.1","0","","","NA","1.8","0","NA","","1","","","NA","482.1","0.0"
"-114.721","51.269","WILDCAT HILLS","3037550","AB","-0.6","0","NA","15.5","0","-17.5","0","1.8","0","NA","1.8","0","NA","0.0","1","","","NA","540.1","0.0"
"-112.117","49.500","WRENTHAM AGDM","3037675","AB","1.6","10","NA","18.1","9","-12.8","2","","","NA","0.9","10","NA","","0","","","NA","311.5","0.0"
"-113.961","50.729","OKOTOKS","303M9JM","AB","0.9","0","5.8","17.0","0","-14.0","0","2.3","0","13.0","3.0","0","17.0","0.0","1","","","NA","496.7","0.0"
"-112.817","49.050","DEL BONITA AGDM","3042045","AB","1.5","1","NA","16.0","1","-11.5","1","","","NA","0.0","1","NA","","0","","","NA","461.2","0.0"
"-110.678","49.364","MANYBERRIES AGCM","3044203","AB","-0.5","10","NA","17.2","10","-15.1","2","","","NA","3.4","10","NA","","1","","","NA","350.9","0.0"
"-111.652","49.137","MASINASIN AGDM","3044232","AB","2.2","3","NA","20.4","2","-11.0","2","","","NA","2.1","3","NA","0.0","2","","","NA","410.4","0.0"
"-112.050","49.133","MILK RIVER","3044533","AB","1.7","0","NA","20.0","0","-13.2","0","","","NA","2.9","0","NA","0.0","1","","","NA","471.9","0.0"
"-110.467","49.117","ONEFOUR CDA","3044923","AB","0.6","0","NA","18.0","0","-15.0","0","","","NA","6.3","0","NA","1.0","2","","","NA","505.6","0.0"
"-111.126","49.225","PAKOWKI LAKE AGCM","3045000","AB","1.3","5","NA","19.0","3","-11.3","5","","","NA","8.4","6","NA","","2","","","NA","401.0","0.0"
"-115.552","51.193","BANFF CS","3050519","AB","-1.0","0","NA","9.2","0","-16.7","0","","","NA","6.4","0","NA","11.0","3","","","NA","551.6","0.0"
"-114.175","49.468","BEAVER MINES","3050602","AB","3.1","12","NA","12.6","10","-10.5","8","","","NA","0.0","19","NA","2.0","0","","","NA","253.4","0.0"
"-115.067","51.083","BOW VALLEY","3050778","AB","1.4","2","NA","13.7","2","-12.6","0","","","NA","1.7","2","NA","","1","","","NA","448.7","0.0"
"-114.482","49.628","CROWSNEST","3051R4R","AB","1.5","0","NA","12.0","0","-13.7","0","","","NA","2.4","21","NA","","1","","","NA","477.4","0.0"
"-118.030","52.926","JASPER WARDEN","3053536","AB","0.1","1","NA","12.9","1","-15.8","0","","","NA","6.5","1","NA","20.0","1","","","NA","501.3","0.0"
"-115.035","51.028","KANANASKIS","3053600","AB","1.6","0","6.3","14.0","0","-14.0","0","2.6","0","11.0","1.8","0","9.0","0.0","1","","","NA","474.6","0.0"
"-115.120","50.713","KANANASKIS POCATERRA","3053604","AB","-2.8","25","5.4","8.0","18","-15.0","18","7.0","18","NA","7.0","18","NA","40.0","2","","","NA","83.0","0.0"
"-116.040","52.492","NORDEGG CS","3054843","AB","-0.4","0","NA","14.0","0","-20.4","0","","","NA","9.6","0","NA","5.0","1","","","NA","532.9","0.0"
"-114.416","50.368","PEKISKO","3055119","AB","0.6","1","NA","14.3","1","-13.8","1","","","NA","5.7","1","NA","11.0","2","","","NA","486.0","0.0"
"-113.809","49.131","WATERTON PARK GATE","3056214","AB","3.6","0","NA","14.8","0","-12.6","0","","","NA","4.2","0","NA","","1","","","NA","418.0","0.0"
"-115.190","50.943","NAKISKA RIDGETOP","305MGFF","AB","-4.8","8","NA","6.8","7","-15.4","3","","","NA","","","NA","","","","","NA","478.8","0.0"
"-113.382","54.635","ATHABASCA AGCM","3060330","AB","-3.1","0","NA","12.8","0","-17.1","0","","","NA","11.6","0","NA","","3","","","NA","612.8","0.0"
"-112.825","54.782","ATMORE AGDM","3060406","AB","-5.4","2","NA","9.4","1","-19.9","2","","","NA","15.0","3","NA","19.0","6","","","NA","631.8","0.0"
"-114.448","54.095","BARRHEAD CS","3060535","AB","-3.5","0","NA","12.6","0","-19.7","0","","","NA","14.3","0","NA","13.0","5","","","NA","622.2","0.0"
"-117.867","53.350","BRULE BLACK CAT","3060903","AB","0.3","9","6.9","14.5","5","-15.5","6","1.4","3","NA","21.0","3","NA","4.0","3","","","NA","353.4","0.0"
"-114.678","54.131","CAMPSIE AUTO","3061201","AB","-3.7","0","NA","12.4","0","-19.9","0","","","NA","14.3","0","NA","15.0","5","","","NA","629.8","0.0"
"-113.950","54.317","DAPP AGDM","3061975","AB","-7.1","16","NA","6.4","8","-23.3","13","","","NA","2.4","16","NA","","0","","","NA","326.3","0.0"
"-116.465","53.579","EDSON","3062239","AB","-2.5","1","NA","15.1","1","-17.9","1","","","NA","13.9","1","NA","","3","","","NA","573.8","0.0"
"-116.453","53.580","EDSON CLIMATE","3062246","AB","-2.3","0","NA","14.8","0","-16.9","0","","","NA","17.6","0","NA","28.0","7","","","NA","587.6","0.0"
"-114.983","53.600","ENTWISTLE","3062451","AB","-1.1","2","6.4","15.5","2","-15.0","2","16.0","2","NA","16.0","2","NA","31.0","5","","","NA","514.9","0.0"
"-115.062","53.614","EVANSBURG2 AGCM","3062476","AB","-3.7","0","NA","13.1","0","-19.7","0","","","NA","13.2","0","NA","","5","","","NA","630.5","0.0"
"-114.769","54.410","FORT ASSINIBOINE AGCM","3062660","AB","-3.8","16","NA","9.7","9","-17.2","14","","","NA","9.2","16","NA","","5","","","NA","283.2","0.0"
"-111.213","56.651","FORT MCMURRAY CS","3062696","AB","-9.8","0","NA","8.6","0","-31.5","0","","","NA","14.6","0","NA","","6","","","NA","806.6","0.0"
"-111.223","56.653","FORT MCMURRAY A","3062697","AB","-9.8","1","NA","8.8","1","-30.4","0","","","NA","5.4","1","NA","","2","","","NA","778.4","0.0"
"-118.447","53.795","HENDRICKSON CREEK","3063135","AB","-3.7","4","NA","11.3","3","-21.7","2","","","NA","9.8","4","NA","55.0","1","","","NA","543.0","0.0"
"-116.479","55.396","HIGH PRAIRIE AGDM","3063165","AB","-4.1","0","NA","9.5","0","-20.0","0","","","NA","14.5","0","NA","","6","","","NA","642.2","0.0"
"-113.543","54.821","ISLAND LAKE SOUTH","3063600","AB","-4.0","0","NA","10.9","0","-18.0","0","","","NA","14.8","0","NA","9.0","5","","","NA","638.0","0.0"
"-112.024","54.769","LAC LA BICHE CLIMATE","3063686","AB","-5.2","0","NA","10.2","0","-23.0","0","","","NA","12.6","0","NA","21.0","5","","","NA","673.9","0.0"
"-111.559","57.041","MILDRED LAKE","3064528","AB","-10.8","0","NA","7.3","0","-33.0","0","","","NA","24.1","0","NA","","7","","","NA","834.6","0.0"
"-111.700","54.500","RICH LAKE AGDM","3065475","AB","-6.4","0","NA","8.7","0","-26.3","0","","","NA","11.5","0","NA","","4","","","NA","708.0","0.0"
"-114.777","55.293","SLAVE LAKE","3065995","AB","-4.8","1","NA","6.7","1","-16.8","1","","","NA","7.1","1","NA","","2","","","NA","639.7","0.0"
"-114.777","55.293","SLAVE LAKE RCS","3065997","AB","-4.9","0","NA","6.6","0","-17.1","0","","","NA","12.4","0","NA","1.0","3","","","NA","663.1","0.0"
"-113.520","54.300","TAWATINAW AGCM","3066367","AB","-4.6","5","NA","6.4","5","-17.8","1","","","NA","8.1","5","NA","","3","","","NA","541.9","0.0"
"-115.784","54.140","WHITECOURT","3067371","AB","-2.1","5","NA","10.6","5","-15.1","4","","","NA","","","NA","","","","","NA","482.2","0.0"
"-115.787","54.144","WHITECOURT A","3067373","AB","-2.6","0","NA","11.6","0","-15.2","0","","","NA","","","NA","25.0","","","","NA","597.6","0.0"
"-118.348","53.386","WILLOW CREEK 1","306GE70","AB","-4.6","13","NA","6.2","13","-22.5","7","","","NA","17.3","13","NA","41.0","5","","","NA","361.3","0.0"
"-119.396","55.197","BEAVERLODGE RCS","3070600","AB","-2.8","0","NA","10.0","0","-14.2","0","","","NA","16.4","0","NA","12.0","5","","","NA","602.6","0.0"
"-117.886","56.118","BROWNVALE AGCM","3070800","AB","-5.6","10","NA","6.2","7","-17.3","6","","","NA","16.5","10","NA","","4","","","NA","447.7","0.0"
"-117.887","55.808","EAGLESHAM AGCM","3072151","AB","-4.4","0","NA","8.4","0","-19.6","0","","","NA","12.1","0","NA","","5","","","NA","648.5","0.0"
"-110.439","58.981","EGG ISLAND","3072246","AB","-20.6","10","NA","-7.4","8","-33.9","9","","","NA","","","NA","","","","","NA","733.1","0.0"
"-118.439","56.081","FAIRVIEW AGDM","3072525","AB","-5.9","3","NA","7.7","2","-21.0","2","","","NA","5.4","4","NA","","2","","","NA","620.6","0.0"
"-111.117","58.767","FORT CHIPEWYAN","3072655","AB","-17.9","0","NA","3.7","0","-34.1","0","","","NA","1.2","0","NA","","0","","","NA","1042.3","0.0"
"-111.117","58.767","FORT CHIPEWYAN RCS","3072659","AB","-18.1","0","NA","3.3","0","-34.6","0","","","NA","","","NA","26.0","","","","NA","1047.0","0.0"
"-116.040","58.382","FORT VERMILION","3072723","AB","-13.0","0","NA","4.4","0","-33.3","0","","","NA","28.6","0","NA","47.0","9","","","NA","899.6","0.0"
"-118.885","55.180","GRANDE PRAIRIE A","3072921","AB","-4.1","1","NA","8.4","1","-20.5","0","13.0","2","NA","11.6","2","NA","16.0","4","","","NA","618.5","0.0"
"-117.298","57.265","HAWK HILLS AGCM","3073071","AB","-8.4","0","NA","8.6","0","-23.5","0","","","NA","14.0","0","NA","","5","","","NA","765.3","0.0"
"-117.165","58.622","HIGH LEVEL","3073140","AB","-12.8","0","NA","8.6","0","-34.2","0","","","NA","13.4","0","NA","","4","","","NA","894.4","0.0"
"-117.165","58.621","HIGH LEVEL A","3073146","AB","-13.0","0","3.9","9.0","0","-33.6","0","40.4","0","191.0","21.5","0","123.0","48.0","8","","","NA","898.4","0.0"
"-117.120","55.913","JEAN COTE AGCM","3073535","AB","-4.6","0","NA","6.5","0","-16.3","0","","","NA","9.0","1","NA","","2","","","NA","654.8","0.0"
"-116.343","58.172","LA CRETE AGCM","3073730","AB","-12.1","0","NA","7.1","0","-30.7","0","","","NA","15.4","0","NA","","5","","","NA","871.5","0.0"
"-119.255","55.422","LA GLACE AGCM","3073740","AB","-5.0","0","NA","8.2","0","-22.9","0","","","NA","12.0","0","NA","","4","","","NA","666.7","0.0"
"-117.451","56.974","MANNING AGDM","3074190","AB","-7.9","6","NA","6.2","6","-20.8","2","","","NA","","","NA","","","","","NA","596.8","0.0"
"-119.745","56.314","CLEARDALE AGDM","3074935","AB","-4.9","2","NA","9.5","2","-20.6","1","","","NA","20.5","3","NA","","11","","","NA","619.4","0.0"
"-117.448","56.227","PEACE RIVER A","3075041","AB","-5.7","0","NA","7.1","0","-18.8","0","10.5","0","NA","8.1","0","NA","13.0","2","","","NA","686.0","0.0"
"-118.293","55.621","PEORIA AGDM","3075160","AB","-4.3","4","NA","9.8","4","-20.0","1","","","NA","9.9","5","NA","","3","","","NA","557.7","0.0"
"-115.278","56.552","RED EARTH","3075488","AB","-6.6","3","NA","10.5","1","-23.3","3","","","NA","17.7","4","NA","17.0","6","","","NA","638.8","0.0"
"-118.668","55.777","RYCROFT AGCM","3075601","AB","-4.0","4","NA","10.0","3","-17.1","3","","","NA","6.7","5","NA","","2","","","NA","549.3","0.0"
"-119.345","56.076","SAVANNA AGCM","3075770","AB","-4.6","3","NA","7.4","3","-18.0","2","","","NA","12.9","3","NA","","6","","","NA","588.3","0.0"
"-117.741","54.425","SIMONETTE","3075937","AB","-1.2","11","5.6","11.0","8","-17.0","7","1.0","8","NA","1.0","8","NA","","1","","","NA","346.0","0.0"
"-119.230","55.695","SPIRIT RIVER AUTO STATION","3076069","AB","-2.7","3","NA","10.3","3","-17.2","2","","","NA","13.2","4","NA","30.0","4","","","NA","537.9","0.0"
"-118.408","55.352","TEEPEE CREEK AGCM","3076366","AB","-5.1","5","NA","6.3","5","-20.6","2","","","NA","8.8","5","NA","","3","","","NA","555.3","0.0"
"-117.199","55.098","VALLEYVIEW AGDM","3076680","AB","-3.6","5","NA","8.8","5","-14.8","1","","","NA","9.8","5","NA","","4","","","NA","517.3","0.0"
"-113.866","58.711","GARDEN RIVER","307KPFP","AB","-14.8","0","NA","5.9","0","-35.6","0","","","NA","","","NA","","","","","NA","952.0","0.0"
"-110.283","54.417","COLD LAKE A","3081680","AB","-6.6","0","5.2","8.4","0","-25.9","0","19.1","0","125.0","13.7","0","127.0","25.0","5","","","NA","714.1","0.0"
"-110.868","54.367","DUPRE AGCM","3081690","AB","-7.1","0","NA","10.5","0","-28.2","0","","","NA","14.7","0","NA","","5","","","NA","728.3","0.0"
"-104.710","50.201","BRATT'S LAKE CLIMATE","4010811","SK","-4.1","0","NA","13.9","0","-21.3","0","","","NA","7.7","0","NA","","2","","","NA","640.1","0.0"
"-102.571","50.368","BROADVIEW","4010879","SK","-6.8","0","5.8","8.3","0","-28.1","0","","","NA","11.1","0","121.0","0.0","4","","","NA","719.9","0.0"
"-105.383","50.550","BUFFALO POUND LAKE","4010984","SK","-3.9","0","NA","14.5","0","-20.0","0","0.0","0","NA","0.0","0","NA","0.0","0","","","NA","634.7","0.0"
"-104.267","50.850","CUPAR","4011980","SK","-5.3","9","7.6","23.0","7","-20.0","7","0.0","7","NA","0.0","7","NA","0.0","0","","","NA","465.0","0.0"
"-104.867","51.183","DUVAL","4012300","SK","-6.1","0","5.1","7.5","0","-27.0","0","9.1","0","87.0","9.1","0","82.0","0.0","4","","","NA","698.8","0.0"
"-102.966","49.210","ESTEVAN A","4012401","SK","-4.0","0","NA","12.5","0","-21.0","0","2.2","8","NA","5.6","5","NA","0.0","2","","","NA","636.8","0.0"
"-102.967","49.217","ESTEVAN","4012410","SK","-4.2","0","NA","12.1","0","-20.3","0","","","NA","7.9","0","NA","4.0","2","","","NA","644.7","0.0"
"-103.650","50.550","INDIAN HEAD CDA","4013480","SK","-5.9","0","6.1","11.2","0","-22.7","0","","","NA","7.4","0","52.0","0.0","3","","","NA","693.0","0.0"
"-103.753","51.257","KELLIHER","4013660","SK","-8.3","2","4.2","5.5","2","-29.0","2","13.5","2","NA","13.5","2","NA","27.0","4","","","NA","711.2","0.0"
"-102.733","50.200","KIPLING","4014040","SK","-6.5","1","5.5","6.9","1","-26.6","1","13.0","1","NA","13.0","1","NA","0.0","5","","","NA","686.0","0.0"
"-101.717","50.900","LANGENBURG","4014145","SK","-10.7","10","3.0","8.0","10","-30.0","10","14.9","10","NA","18.1","10","NA","31.0","6","","","NA","546.0","0.0"
"-105.250","51.417","LAST MOUNTAIN CS","4014156","SK","-7.5","0","4.6","6.8","0","-23.5","0","","","NA","7.8","0","77.0","10.0","3","","","NA","738.2","0.0"
"-104.633","52.000","LEROY","4014322","SK","-10.2","16","3.1","4.5","16","-28.0","16","6.4","16","NA","6.4","16","NA","","2","","","NA","367.2","0.0"
"-103.889","51.152","LIPTON 2","4014481","SK","-7.4","12","6.4","7.5","12","-24.5","12","8.0","12","NA","8.0","12","NA","18.0","3","","","NA","432.4","0.0"
"-103.233","49.233","MACOUN","4014870","SK","","","NA","","","","","14.0","20","NA","16.0","20","NA","","5","","","NA","",""
"-105.538","50.332","MOOSE JAW CS","4015322","SK","-3.5","0","NA","14.8","0","-25.0","0","","","NA","8.2","0","NA","1.0","3","","","NA","622.3","0.0"
"-105.000","52.333","MUENSTER","4015440","SK","-8.3","3","4.7","5.0","3","-26.0","3","17.0","3","NA","17.0","3","NA","","7","","","NA","684.6","0.0"
"-102.117","49.317","OXBOW","4015800","SK","-5.4","1","NA","10.5","1","-26.5","1","11.5","1","NA","11.5","1","NA","0.0","4","","","NA","654.9","0.0"
"-103.265","51.403","PARKERVIEW","4015870","SK","-8.0","9","5.2","6.0","9","-28.0","9","7.0","27","NA","7.0","27","NA","35.0","2","","","NA","519.1","0.0"
"-103.983","50.567","QU'APPELLE 1","4016322","SK","-5.2","0","6.2","10.5","0","-22.0","0","4.7","0","43.0","4.7","0","41.0","1.0","2","","","NA","672.6","0.0"
"-104.667","50.451","REGINA RCMP SNOW","4016565","SK","","","NA","","","","","3.7","0","NA","3.7","0","NA","0.0","3","","","NA","",""
"-104.833","50.567","REGINA GILMOUR","4016651","SK","","","NA","","","","","3.0","0","33.0","3.0","0","31.0","0.0","3","","","NA","",""
"-104.667","50.433","REGINA RCS","4016699","SK","-4.5","0","NA","13.2","0","-18.9","0","","","NA","6.3","0","NA","0.0","1","","","NA","651.1","0.0"
"-105.400","51.667","WATROUS EAST","4018642","SK","-7.8","0","NA","5.3","0","-23.3","0","","","NA","5.0","0","NA","7.0","2","","","NA","749.1","0.0"
"-104.183","49.817","YELLOW GRASS","4019040","SK","-2.9","3","7.5","14.0","3","-20.0","3","10.2","3","NA","10.2","3","NA","0.0","7","","","NA","544.3","0.0"
"-102.464","51.265","YORKTON","4019073","SK","-8.8","0","NA","5.9","0","-29.7","0","","","NA","13.1","0","NA","19.0","4","","","NA","777.7","0.0"
"-102.462","51.265","YORKTON","4019075","SK","-8.7","0","NA","6.1","0","-29.3","0","","","NA","3.7","0","NA","","1","","","NA","773.9","0.0"
"-104.200","51.767","WYNYARD (AUT)","40190LN","SK","-8.7","0","NA","4.5","0","-30.2","0","","","NA","9.0","0","NA","8.0","4","","","NA","774.0","0.0"
"-103.800","49.700","WEYBURN","401HP5R","SK","-4.5","0","NA","12.3","0","-20.7","0","","","NA","12.0","0","NA","1.0","4","","","NA","651.4","0.0"
"-105.946","49.729","ASSINIBOIA AIRPORT","4020286","SK","-2.7","0","NA","13.8","0","-19.9","0","","","NA","7.3","0","NA","0.0","2","","","NA","601.2","0.0"
"-107.311","50.832","BEECHY","4020560","SK","-3.5","0","5.7","12.5","0","-22.5","0","3.9","0","50.0","3.9","0","46.0","0.0","2","","","NA","624.7","0.0"
