"Long","Lat","Stn_Name","Clim_ID","Prov","Tm","DwTm","D","Tx","DwTx","Tn","DwTn","S","DwS","S%N","P","DwP","P%N","S_G","Pd","BS","DwBS","BS%","HDD","CDD"
"-112.967","54.283","ABEE AGDM","3010010","AB","15.5","0","NA","28.1","0","4.0","0","","","NA","150.8","1","NA","","16","","","NA","82.4","3.9"
"-111.181","53.113","ALBERT HALL AGCM","3010060","AB","16.1","0","NA","29.4","0","6.1","0","","","NA","93.6","0","NA","","15","","","NA","66.0","6.1"
"-111.779","52.315","ALLIANCE AGCM","3010162","AB","16.4","0","NA","32.1","0","5.5","0","","","NA","104.8","0","NA","","13","","","NA","61.7","11.9"
"-112.279","53.917","ANDREW AGDM","3010237","AB","16.0","1","NA","27.8","1","6.1","1","","","NA","104.6","2","NA","","11","","","NA","66.7","5.8"
"-111.465","52.582","BELLSHILL AGCM","3010650","AB","16.7","4","NA","31.3","4","7.3","4","","","NA","108.8","4","NA","","11","","","NA","48.6","12.9"
"-110.101","52.124","BODO AGDM","3010730","AB","17.5","0","NA","31.6","0","6.7","0","","","NA","92.7","0","NA","","9","","","NA","42.3","27.9"
"-114.441","53.089","BRETON PLOTS","3010816","AB","14.8","0","NA","27.3","0","3.7","0","","","NA","177.1","1","NA","","15","","","NA","102.6","2.5"
"-113.922","53.931","BUSBY AGCM","3010979","AB","15.6","0","NA","27.3","0","5.6","0","","","NA","145.3","0","NA","","15","","","NA","79.5","3.7"
"-110.510","52.334","CADOGAN AGCM","3010992","AB","17.0","0","NA","31.9","0","5.6","0","","","NA","90.2","1","NA","","12","","","NA","50.3","18.0"
"-112.817","53.050","CAMROSE","3011240","AB","15.6","0","-1.2","28.8","0","5.5","0","","","NA","132.3","0","154.0","","13","","","NA","78.8","3.7"
"-110.713","51.937","CONSORT AGDM","3011815","AB","17.0","0","NA","31.0","0","6.3","0","","","NA","43.4","24","NA","","3","","","NA","48.9","18.0"
"-111.449","52.074","CORONATION CLIMATE","3011887","AB","16.0","0","NA","31.7","0","5.2","0","","","NA","71.0","0","NA","","10","","","NA","72.7","10.3"
"-113.903","52.733","CRESTOMERE AGCM","3011892","AB","15.4","0","NA","28.7","0","3.4","0","","","NA","93.8","0","NA","","13","","","NA","83.8","3.0"
"-113.176","52.183","DELBURNE AGCM","3012050","AB","15.8","0","NA","29.8","0","5.8","0","","","NA","67.1","0","NA","","7","","","NA","72.1","4.0"
"-110.588","53.659","DEWBERRY AGCM","3012073","AB","16.2","0","NA","28.9","0","5.9","0","","","NA","107.2","1","NA","","10","","","NA","66.8","9.7"
"-110.433","52.778","EDGERTON AGCM","3012192","AB","16.7","0","NA","30.3","0","6.6","0","","","NA","78.8","0","NA","","11","","","NA","51.9","12.1"
"-113.606","53.307","EDMONTON INTERNATIONAL CS","3012206","AB","15.3","0","NA","28.5","0","3.6","0","","","NA","115.6","0","NA","","14","","","NA","89.0","3.8"
"-113.517","53.573","EDMONTON BLATCHFORD","3012209","AB","17.1","1","NA","29.6","1","7.3","1","","","NA","163.4","1","NA","","17","","","NA","42.9","16.4"
"-113.467","53.667","EDMONTON NAMAO AWOS A","3012212","AB","15.8","3","NA","27.8","3","6.8","3","","","NA","","","NA","","","","","NA","67.2","5.2"
"-113.579","53.310","EDMONTON INTL A","3012216","AB","15.2","0","NA","28.1","0","3.9","0","0.0","0","NA","118.6","0","NA","","14","","","NA","91.6","3.3"
"-113.538","53.490","EDMONTON SOUTH CAMPUS","3012220","AB","16.7","0","NA","29.4","0","6.7","0","","","NA","83.3","0","NA","","12","","","NA","53.1","11.5"
"-113.856","53.668","EDMONTON VILLENEUVE A","3012229","AB","15.9","1","NA","28.0","1","6.8","1","","","NA","151.7","0","NA","","15","","","NA","69.1","6.5"
"-114.108","53.548","EDMONTON STONY PLAIN","301222F","AB","16.6","0","-0.4","29.5","0","5.5","0","0.0","0","NA","152.4","0","149.0","0.0","17","","","NA","54.9","12.2"
"-112.868","53.683","ELK ISLAND NAT PARK","3012275","AB","15.9","0","-1.2","27.3","0","6.3","0","","","NA","153.7","0","137.0","","14","","","NA","71.3","5.2"
"-111.000","52.967","FABYAN","3012515","AB","16.3","0","-0.7","29.5","0","5.0","0","0.0","0","NA","189.4","0","261.0","0.0","13","","","NA","62.7","9.2"
"-112.858","52.744","FERINTOSH AGCM","3012590","AB","15.0","0","NA","29.5","0","4.8","0","","","NA","131.1","0","NA","","14","","","NA","94.6","2.7"
"-111.813","52.041","FLEET AGCM","3012635","AB","15.9","0","NA","31.7","0","5.8","0","","","NA","93.0","2","NA","","12","","","NA","73.4","8.0"
"-112.120","52.467","FORESTBURG PLANT SITE","3012652","AB","17.1","0","-1.2","31.0","0","6.0","0","0.0","0","NA","123.6","0","164.0","0.0","15","","","NA","47.0","19.4"
"-112.123","52.548","FORESTBURG AGCM","3012653","AB","16.0","0","NA","30.2","0","5.0","0","","","NA","101.3","0","NA","","13","","","NA","69.2","5.9"
"-113.183","53.717","FORT SASKATCHEWAN","3012710","AB","16.9","3","-0.2","28.0","3","4.0","3","0.0","3","NA","118.5","3","NA","0.0","11","","","NA","42.4","10.8"
"-110.621","53.071","GILT EDGE NORTH AGCM","3012790","AB","16.4","2","NA","29.8","2","6.0","2","","","NA","113.2","2","NA","","15","","","NA","55.8","9.9"
"-114.320","53.295","ST. FRANCIS","3012799","AB","15.6","0","NA","27.3","0","6.1","0","","","NA","99.7","0","NA","","15","","","NA","79.8","4.7"
"-112.278","52.987","GLADSTONE AGCM","3012810","AB","15.2","0","NA","28.8","0","4.2","0","","","NA","119.8","2","NA","","12","","","NA","89.1","3.4"
"-114.539","53.833","GLENEVIS AGCM","3012818","AB","15.9","0","NA","27.7","0","6.4","0","","","NA","","","NA","","","","","NA","72.8","6.6"
"-110.803","52.113","GOOSEBERRY LAKE AGCM","3012871","AB","16.1","0","NA","31.1","0","5.2","0","","","NA","84.4","3","NA","","10","","","NA","69.6","11.2"
"-112.164","52.116","HALKIRK AGCM","3012999","AB","15.6","0","NA","31.3","0","5.1","0","","","NA","43.8","22","NA","","7","","","NA","78.5","3.8"
"-111.212","51.780","HEMARUKA AGCM","3013140","AB","16.7","0","NA","31.9","0","4.4","0","","","NA","46.8","5","NA","","9","","","NA","57.0","17.9"
"-112.246","53.185","HOLDEN AGDM","3013340","AB","15.9","0","NA","29.1","0","5.9","0","","","NA","146.3","2","NA","","15","","","NA","70.9","5.5"
"-110.784","52.578","HUGHENDEN AGCM","3013362","AB","16.6","0","NA","31.5","0","5.6","0","","","NA","77.6","2","NA","","16","","","NA","56.8","13.2"
"-111.872","52.848","KILLAM AGDM","3013640","AB","15.8","0","NA","29.8","0","5.8","0","","","NA","","","NA","","","","","NA","73.8","5.5"
"-111.113","52.290","KESSLER AGCM","3013644","AB","16.3","0","NA","31.1","0","5.5","0","","","NA","67.4","17","NA","","7","","","NA","65.3","12.1"
"-111.548","53.047","KINSELLA RESEARC STATION","3013647","AB","15.9","0","NA","29.9","0","3.7","0","","","NA","118.5","1","NA","","14","","","NA","73.1","6.7"
"-110.416","53.353","KITSCOTY AGCM","3013660","AB","16.0","5","NA","25.9","5","5.7","5","","","NA","110.0","4","NA","","12","","","NA","56.5","4.5"
"-113.474","54.003","LEGAL AGCM","3013790","AB","15.9","0","NA","28.1","0","6.5","0","","","NA","145.9","0","NA","","17","","","NA","70.4","4.3"
"-110.579","53.943","LINDBERGH AGDM","3013921","AB","15.6","0","NA","28.4","0","4.7","0","","","NA","133.7","0","NA","","13","","","NA","80.9","5.3"
"-110.073","53.309","LLOYDMINSTER","3013959","AB","16.3","0","NA","29.0","0","5.1","0","","","NA","120.2","1","NA","","12","","","NA","64.4","11.7"
"-110.073","53.309","LLOYDMINSTER A","3013961","AB","16.5","0","-0.5","29.0","0","5.0","0","0.0","0","NA","136.4","0","181.0","0.0","13","","","NA","60.2","13.3"
"-111.255","53.456","MANNVILLE AGCM","3014195","AB","15.9","0","NA","28.3","0","5.6","0","","","NA","115.3","0","NA","","14","","","NA","72.1","6.7"
"-110.550","52.017","MONITOR","3014600","AB","","","NA","","","","","0.0","0","NA","103.0","0","158.0","0.0","11","","","NA","",""
"-112.300","53.567","MUNDARE AGDM","3014665","AB","16.3","3","NA","27.6","3","6.3","3","","","NA","79.0","2","NA","","13","","","NA","52.0","5.2"
"-111.114","53.720","MYRNAM AGCM","3014690","AB","15.9","0","NA","28.7","0","3.5","0","","","NA","117.7","0","NA","","11","","","NA","71.6","6.6"
"-113.165","53.262","NEW SAREPTA AGCM","3014795","AB","15.2","8","NA","27.9","8","4.4","8","","","NA","147.1","8","NA","","11","","","NA","66.3","2.9"
"-113.350","53.650","OLIVER AGDM","3014921","AB","16.2","0","NA","28.8","0","5.8","0","","","NA","","","NA","","","","","NA","66.3","9.7"
"-112.879","53.995","RADWAY AGCM","3015346","AB","15.6","0","NA","27.7","0","4.9","0","","","NA","","","NA","","","","","NA","79.3","3.4"
"-111.726","53.425","RANFURLY AUTO","3015401","AB","16.6","2","NA","29.2","2","6.5","2","","","NA","87.3","2","NA","","12","","","NA","49.8","10.5"
"-110.343","52.587","RIBSTONE SOUTH AGCM","3015480","AB","16.4","0","NA","30.4","0","6.0","0","","","NA","138.3","0","NA","","15","","","NA","62.8","11.8"
"-110.102","53.019","RIVERCOURSE AGCM","3015501","AB","16.1","1","NA","29.7","1","6.2","1","","","NA","135.2","1","NA","","11","","","NA","67.9","11.0"
"-114.912","52.421","ROCKY MTN HOUSE (AUT)","3015523","AB","14.1","0","NA","28.7","0","1.1","0","","","NA","57.8","0","NA","","17","","","NA","124.4","2.0"
"-112.428","52.780","ROSALIND AGCM","3015600","AB","15.7","0","NA","29.0","0","5.8","0","","","NA","108.5","0","NA","","15","","","NA","74.2","4.2"
"-111.453","54.282","ST. LINA AGCM","3015673","AB","15.8","9","NA","28.0","9","5.6","9","","","NA","44.6","8","NA","","11","","","NA","51.5","2.6"
"-111.272","54.011","ST. PAUL AGCM","3015676","AB","16.5","0","NA","28.2","0","6.4","0","","","NA","96.1","16","NA","","10","","","NA","57.9","12.2"
"-110.755","51.590","SEDALIA AGCM","3015797","AB","17.3","0","NA","31.8","0","6.8","0","","","NA","106.4","1","NA","","12","","","NA","42.0","21.0"
"-112.539","53.333","SHONTS AGCM","3015900","AB","15.4","0","NA","28.2","0","3.8","0","","","NA","112.6","0","NA","","13","","","NA","83.1","2.9"
"-112.499","54.278","SMOKY LAKE AGDM","3016022","AB","15.6","0","NA","28.2","0","4.7","0","","","NA","161.9","0","NA","","17","","","NA","79.7","5.3"
"-111.683","51.816","SPONDIN AGCM","3016070","AB","16.3","0","NA","32.9","0","5.3","0","","","NA","47.3","16","NA","","6","","","NA","63.4","12.2"
"-112.596","52.347","STETTLER AGDM","3016124","AB","15.8","0","NA","30.5","0","4.6","0","","","NA","102.1","0","NA","","13","","","NA","72.4","5.0"
"-113.895","53.217","THORSBY AGCM","3016441","AB","15.9","8","NA","27.7","8","6.7","8","","","NA","113.5","8","NA","","11","","","NA","50.4","2.0"
"-114.718","53.439","TOMAHAWK AGDM","3016505","AB","14.9","0","NA","26.9","0","4.9","0","","","NA","142.3","1","NA","","14","","","NA","97.6","2.1"
"-110.081","53.664","TULLIBY LAKE AGCM","3016593","AB","16.6","0","NA","29.4","0","6.2","0","","","NA","82.5","0","NA","","11","","","NA","56.9","13.1"
"-113.033","53.500","UNCAS","3016650","AB","","","NA","","","","","0.0","0","NA","152.8","0","NA","0.0","15","","","NA","",""
"-111.678","53.625","TWO HILLS AGDM","3016655","AB","16.2","0","NA","27.9","0","6.2","0","","","NA","117.1","0","NA","","13","","","NA","65.4","8.1"
"-110.882","53.344","VERMILION AGDM","3016802","AB","16.5","0","NA","29.5","0","6.0","0","","","NA","121.5","1","NA","","13","","","NA","56.2","10.1"
"-111.732","53.182","VIKING AGCM","3016841","AB","16.1","6","NA","28.8","6","6.0","6","","","NA","65.1","6","NA","","10","","","NA","52.8","6.0"
"-111.921","54.130","VILNA AGCM","3016852","AB","15.7","6","NA","25.4","6","5.8","6","","","NA","101.5","6","NA","","13","","","NA","61.4","3.1"
"-115.126","53.144","VIOLET GROVE CS","3016860","AB","14.7","1","NA","27.2","1","3.8","1","","","NA","87.1","12","NA","","7","","","NA","100.0","1.8"
"-112.098","53.505","VEGREVILLE","3016GF0","AB","16.2","0","-0.5","29.2","0","5.3","0","","","NA","114.1","0","150.0","","13","","","NA","63.9","7.2"
"-113.444","52.980","WETASKIWIN AGCM","3017282","AB","15.1","2","NA","28.0","2","4.6","2","","","NA","117.8","2","NA","","10","","","NA","86.8","1.9"
"-111.224","51.491","YOUNGSTOWN AGCM","3017705","AB","17.2","0","NA","33.1","0","6.6","0","","","NA","66.4","0","NA","","11","","","NA","48.1","22.5"
"-114.108","53.547","EDMONTON STONY PLAIN CS","301A001","AB","15.8","2","NA","28.1","2","6.1","2","","","NA","125.7","2","NA","","15","","","NA","69.7","5.3"
"-110.206","51.670","ESTHER 1","301B460","AB","16.7","0","NA","31.7","0","6.4","0","","","NA","66.5","0","NA","","8","","","NA","52.8","13.9"
"-111.096","52.829","WAINWRIGHT CFB AIRFIELD 21","301S001","AB","16.9","0","NA","31.7","0","5.4","0","","","NA","","","NA","","","","","NA","47.7","14.3"
"-110.317","51.066","ACADIA VALLEY","3020035","AB","18.3","0","NA","34.9","0","6.8","0","","","NA","29.9","0","NA","","5","","","NA","30.6","40.1"
"-111.006","50.810","ATLEE AGCM","3020405","AB","18.3","0","NA","35.7","0","6.5","0","","","NA","18.2","0","NA","","6","","","NA","37.0","45.4"
"-113.357","51.379","BEISEKER AGCM","3020610","AB","15.1","0","NA","30.6","0","4.7","0","","","NA","53.2","1","NA","","8","","","NA","94.3","3.2"
"-112.803","51.998","BIG VALLEY AGCM","3020679","AB","16.0","0","NA","31.0","0","4.6","0","","","NA","75.2","0","NA","","12","","","NA","69.8","7.8"
"-110.686","50.798","BUFFALO AGCM","3020950","AB","18.5","0","NA","37.4","0","6.7","0","","","NA","14.4","0","NA","","6","","","NA","30.5","47.0"
"-110.797","51.067","CAPPON","3021200","AB","17.6","0","NA","35.7","0","6.2","0","","","NA","43.7","5","NA","","7","","","NA","43.6","31.7"
"-110.824","51.276","CEREAL AGCM","3021463","AB","17.6","0","NA","35.3","0","7.1","0","","","NA","72.7","2","NA","","9","","","NA","40.3","26.7"
"-112.252","51.775","CRAIGMYLE AGCM","3021912","AB","16.2","0","NA","31.6","0","4.9","0","","","NA","55.4","0","NA","","9","","","NA","65.6","9.6"
"-112.677","51.445","DRUMHELLER EAST","30221LG","AB","17.5","1","NA","32.7","1","7.8","1","","","NA","79.4","1","NA","","8","","","NA","42.0","27.5"
"-112.097","51.053","FINNEGAN AGCM","3022650","AB","17.5","0","NA","35.3","0","5.9","0","","","NA","","","NA","","","","","NA","41.6","25.3"
"-112.135","51.453","HAND HILLS AGCM","3022990","AB","16.0","0","NA","31.5","0","5.6","0","","","NA","63.5","0","NA","","10","","","NA","72.9","11.2"
"-114.486","52.310","HESPERO AGCM","3023200","AB","14.4","0","NA","28.6","0","4.2","0","","","NA","50.6","0","NA","","12","","","NA","111.8","1.7"
"-112.500","51.183","HUSSAR AGDM","3023402","AB","15.7","0","NA","30.2","0","5.8","0","","","NA","49.5","1","NA","","6","","","NA","79.9","9.3"
"-110.359","51.913","KIRRIEMUIR AGCM","3023660","AB","17.0","0","NA","31.3","0","6.9","0","","","NA","86.8","5","NA","","9","","","NA","46.7","16.7"
"-113.756","52.449","LACOMBE CDA 2","3023722","AB","15.2","3","NA","28.6","3","3.8","3","","","NA","91.5","3","NA","","11","","","NA","79.7","2.0"
"-114.473","52.553","LEEDALE AGDM","3023740","AB","14.2","0","NA","27.5","0","1.6","0","","","NA","52.9","1","NA","","12","","","NA","119.6","0.4"
"-113.656","51.619","LINDEN AGCM","3023850","AB","14.7","0","NA","28.8","0","4.8","0","","","NA","49.6","0","NA","","11","","","NA","103.5","1.5"
"-110.341","49.458","LODGE CREEK","3023900","AB","17.1","0","NA","34.2","0","0.9","0","","","NA","26.5","4","NA","","5","","","NA","51.5","24.1"
"-112.675","51.660","MORRIN AGDM","3024668","AB","16.0","1","NA","30.5","1","5.4","1","","","NA","34.4","11","NA","","4","","","NA","68.6","8.4"
"-114.085","51.759","OLDS AGDM","3024925","AB","14.8","0","NA","27.8","0","5.9","0","","","NA","59.3","0","NA","","11","","","NA","100.4","2.1"
"-110.350","51.383","OYEN AGDM","3024965","AB","17.3","0","NA","32.6","0","6.9","0","","","NA","56.8","2","NA","","9","","","NA","46.6","26.1"
"-111.621","50.740","PATRICIA AGCM","3025013","AB","18.1","0","NA","34.3","0","5.1","0","","","NA","55.4","2","NA","","7","","","NA","36.7","40.6"
"-111.705","51.125","POLLOCKVILLE AGDM","3025243","AB","17.7","0","NA","35.3","0","4.9","0","","","NA","41.1","0","NA","","7","","","NA","42.7","33.0"
"-113.600","52.433","PRENTISS","3025297","AB","15.1","3","NA","27.8","3","5.3","3","","","NA","79.5","12","NA","","6","","","NA","84.0","2.7"
"-113.894","52.182","RED DEER REGIONAL A","3025481","AB","15.1","3","NA","29.4","3","5.0","3","","","NA","","","NA","","","","","NA","83.7","2.6"
"-112.106","52.182","RED DEER OVERLAP","3025483","AB","","","NA","","","","","0.0","1","NA","44.4","1","NA","0.0","10","","","NA","",""
"-113.620","53.692","ST. ALBERT RESEARCH STATION","3025750","AB","15.7","0","NA","27.9","0","5.7","0","","","NA","149.3","1","NA","","14","","","NA","74.4","4.4"
"-110.091","50.307","SCHULER AGDM","3025768","AB","18.5","0","NA","36.6","0","5.5","0","","","NA","11.9","0","NA","","4","","","NA","26.1","41.4"
"-111.646","51.463","SHEERNESS AGCM","3025890","AB","17.4","0","NA","34.2","0","6.5","0","","","NA","51.7","3","NA","","12","","","NA","48.5","28.8"
"-111.388","51.301","SUNNYNOOK AGCM","3026264","AB","17.0","0","NA","34.7","0","4.8","0","","","NA","41.4","4","NA","","8","","","NA","53.7","21.9"
"-113.206","51.768","THREE HILLS","3026479","AB","15.4","0","NA","29.5","0","5.8","0","","","NA","64.8","0","NA","","7","","","NA","83.8","2.3"
"-111.955","50.895","VERGER","3026800","AB","17.4","0","NA","35.9","0","3.1","0","","","NA","39.9","0","NA","","4","","","NA","43.3","25.1"
"-114.683","51.778","SUNDRE A","3026KNQ","AB","13.6","16","NA","25.2","16","3.3","16","","","NA","57.3","16","NA","","8","","","NA","66.5","0.0"
"-113.591","51.936","WIMBORNE AGCM","3027582","AB","15.4","0","NA","28.7","0","5.6","0","","","NA","69.9","0","NA","","11","","","NA","83.4","2.3"
"-113.434","49.528","ARDENVILLE","3030200","AB","16.5","0","NA","33.7","0","5.6","0","","","NA","24.9","5","NA","","6","","","NA","66.1","20.9"
"-114.013","50.512","AZURE","3030450","AB","15.0","0","NA","29.8","0","3.4","0","","","NA","99.3","5","NA","","7","","","NA","94.6","3.1"
"-112.300","49.800","BARNWELL AGDM","3030525","AB","18.4","2","NA","34.9","2","2.9","2","","","NA","31.6","2","NA","","1","","","NA","28.8","39.1"
"-113.224","50.026","BARONS AGCM","3030529","AB","16.5","0","NA","33.4","0","0.2","0","","","NA","54.0","0","NA","","6","","","NA","64.7","17.5"
"-112.465","50.893","BASSANO AGCM","3030540","AB","17.0","0","NA","34.0","0","4.3","0","","","NA","41.5","0","NA","","9","","","NA","50.9","19.9"
"-114.152","50.707","BLACK DIAMOND","3030680","AB","14.3","0","NA","29.3","0","1.7","0","","","NA","57.0","1","NA","","9","","","NA","115.8","1.6"
"-113.640","50.546","BLACKIE AGCM","3030690","AB","15.3","0","NA","31.3","0","0.7","0","","","NA","43.7","7","NA","","6","","","NA","88.5","4.7"
"-113.050","49.567","BLOOD TRIBE AGDM","3030720","AB","16.7","0","NA","35.0","0","3.8","0","","","NA","22.4","1","NA","","6","","","NA","61.4","20.8"
"-111.450","49.734","BOW ISLAND","3030768","AB","18.8","0","NA","34.4","0","4.7","0","","","NA","22.4","0","NA","","4","","","NA","26.2","52.0"
"-111.383","49.867","BOW ISLAND IRRIGATION AGDM","3030772","AB","19.3","0","NA","35.6","0","3.8","0","","","NA","20.8","0","NA","","3","","","NA","21.8","63.5"
"-113.817","49.617","BROCKET AGDM","3030830","AB","15.6","0","NA","32.0","0","1.9","0","","","NA","36.5","0","NA","","4","","","NA","80.6","5.8"
"-110.484","50.339","BULL SPRINGS AGCM","3030879","AB","19.4","0","NA","37.4","0","4.9","0","","","NA","14.6","0","NA","","5","","","NA","22.6","65.1"
"-111.849","50.555","BROOKS","3030QLP","AB","18.2","0","NA","34.0","0","4.6","0","","","NA","46.6","0","NA","","8","","","NA","36.5","41.5"
"-114.013","51.123","CALGARY INTL A","3031092","AB","16.5","1","NA","30.4","1","7.0","1","0.0","11","NA","83.5","0","NA","","13","","","NA","60.9","14.5"
"-114.000","51.109","CALGARY INT'L CS","3031094","AB","15.7","0","NA","29.5","0","6.4","0","","","NA","72.1","0","NA","","11","","","NA","79.2","8.7"
"-114.371","51.105","CALGARY SPRINGBANK A","3031109","AB","14.2","2","NA","29.8","2","3.0","2","","","NA","50.5","3","NA","","7","","","NA","111.3","2.0"
"-113.286","49.201","CARDSTON","3031322","AB","17.0","0","NA","34.2","0","4.4","0","","","NA","26.7","0","NA","","3","","","NA","55.9","25.3"
"-113.376","49.001","CARWAY","3031402","AB","15.6","0","NA","32.3","0","4.2","0","","","NA","62.9","0","NA","","7","","","NA","84.0","8.8"
"-113.350","50.282","CHAMPION AGDM","3031480","AB","16.3","0","NA","32.6","0","1.7","0","","","NA","56.8","0","NA","","7","","","NA","65.8","14.4"
"-113.639","50.004","CLARESHOLM","3031640","AB","16.2","0","NA","33.4","0","2.4","0","","","NA","46.6","0","NA","0.0","6","","","NA","68.8","13.0"
"-114.222","51.076","COP UPPER","3031875","AB","15.6","1","NA","30.4","1","5.8","1","","","NA","44.6","17","NA","","5","","","NA","81.6","8.5"
"-112.433","50.183","ENCHANT AGDM","3032422","AB","18.1","0","NA","34.4","0","5.2","0","","","NA","56.9","0","NA","","8","","","NA","33.9","37.0"
"-111.054","49.553","ETZIKOM AGCM","3032450","AB","18.6","0","NA","36.7","0","1.5","0","","","NA","23.7","5","NA","","5","","","NA","35.9","54.9"
"-112.033","49.800","FINCASTLE AGDM","3032550","AB","18.9","0","NA","34.9","0","4.4","0","","","NA","31.7","0","NA","","2","","","NA","27.2","53.9"
"-111.486","49.483","FOREMOST AGDM","3032642","AB","18.5","0","NA","35.5","0","2.1","0","","","NA","30.7","0","NA","","5","","","NA","34.6","50.2"
"-113.379","49.786","FORT MACLEOD AGCM","3032683","AB","16.7","0","NA","34.6","0","3.4","0","","","NA","18.9","0","NA","","5","","","NA","63.9","22.3"
"-112.941","50.934","GLEICHEN AGCM","3032801","AB","16.3","0","NA","32.0","0","4.0","0","","","NA","59.1","0","NA","","9","","","NA","64.6","10.7"
"-111.733","49.874","GRASSY LAKE","3032927","AB","18.8","0","NA","36.0","0","5.2","0","","","NA","23.4","0","NA","","1","","","NA","26.9","50.9"
"-112.733","49.900","IRON SPRINGS AGDM","3033498","AB","17.1","0","NA","33.6","0","4.0","0","","","NA","34.0","2","NA","","3","","","NA","47.2","20.5"
"-114.292","50.869","PRIDDIS OBSERVATORY","3033505","AB","15.3","3","NA","29.0","3","5.8","3","","","NA","46.1","3","NA","","10","","","NA","82.7","6.2"
"-110.261","49.989","IRVINE AGCM","3033550","AB","19.6","0","NA","37.3","0","3.5","0","","","NA","23.1","1","NA","","3","","","NA","20.8","69.2"
"-113.631","51.191","KEOMA AGCM","3033620","AB","15.0","0","NA","31.0","0","3.0","0","","","NA","65.4","0","NA","","10","","","NA","94.9","3.0"
"-112.299","50.600","LATHOM AGCM","3033770","AB","17.6","0","NA","35.0","0","3.9","0","","","NA","33.1","6","NA","","6","","","NA","42.9","29.6"
"-112.799","49.630","LETHBRIDGE","3033875","AB","17.6","0","NA","34.2","0","5.1","0","","","NA","31.3","1","NA","","5","","","NA","46.5","33.9"
"-112.763","49.647","LETHBRIDGE AGTECH AGCM","3033877","AB","17.4","0","NA","33.6","0","5.1","0","","","NA","32.8","1","NA","","6","","","NA","48.9","29.1"
"-112.768","49.695","LETHBRIDGE CDA","3033890","AB","18.7","0","NA","34.4","0","7.6","0","","","NA","43.7","1","NA","","4","","","NA","30.5","51.3"
"-112.783","49.700","LETHBRIDGE CDA 2","3033892","AB","","","NA","","","","","0.0","0","NA","43.0","0","NA","0.0","6","","","NA","",""
"-112.750","49.683","LETHBRIDGE DEMO FARM AGDM","3033897","AB","17.9","0","NA","33.5","0","6.4","0","","","NA","44.9","0","NA","","4","","","NA","39.9","36.7"
"-110.721","50.019","MEDICINE HAT","3034479","AB","19.9","0","NA","36.6","0","5.5","0","","","NA","4.3","0","NA","","2","","","NA","14.1","73.3"
"-110.717","50.025","MEDICINE HAT RCS","3034485","AB","20.1","0","NA","37.0","0","5.6","0","","","NA","4.8","0","NA","","2","","","NA","13.1","76.9"
"-113.349","50.673","MOSSLEIGH AGCM","3034577","AB","16.0","0","NA","32.5","0","0.9","0","","","NA","62.0","0","NA","","10","","","NA","69.2","8.1"
"-114.099","51.369","NIER AGDM","3034795","AB","13.9","0","NA","27.5","0","3.9","0","","","NA","105.6","1","NA","","14","","","NA","129.1","1.0"
"-113.997","49.521","PINCHER CREEK","3035198","AB","15.2","1","NA","30.8","1","3.8","1","","","NA","46.8","1","NA","","6","","","NA","88.8","3.8"
"-114.005","49.522","PINCHER CREEK CLIMATE","3035208","AB","15.1","1","NA","30.7","1","4.0","1","","","NA","46.7","1","NA","","5","","","NA","89.6","3.8"
"-112.983","50.606","QUEENSTOWN","3035340","AB","17.3","0","-0.6","33.0","0","5.5","0","0.0","0","NA","70.7","0","132.0","0.0","9","","","NA","50.5","27.7"
"-112.803","50.598","QUEENSTOWN","3035342","AB","17.0","3","NA","34.1","3","3.0","3","","","NA","35.8","2","NA","","9","","","NA","50.5","21.3"
"-112.117","50.367","RAINIER AGCM","3035355","AB","18.0","0","NA","34.7","0","3.2","0","","","NA","30.7","0","NA","","8","","","NA","37.1","36.8"
"-111.213","50.099","RALSTON AGCM","3035362","AB","19.3","0","NA","36.5","0","5.1","0","","","NA","7.7","2","NA","","1","","","NA","22.0","63.1"
"-112.683","49.483","RAYMOND AGDM","3035422","AB","17.2","0","NA","34.8","0","4.0","0","","","NA","26.4","1","NA","","5","","","NA","52.3","26.8"
"-111.701","50.265","ROLLING HILLS AGCM","3035530","AB","18.4","0","NA","35.6","0","5.0","0","","","NA","36.0","2","NA","","3","","","NA","32.5","44.4"
"-112.050","50.833","ROSEMARY AGDM","3035650","AB","17.2","0","NA","35.2","0","3.1","0","","","NA","39.6","1","NA","","6","","","NA","46.0","20.5"
"-110.917","49.917","SEVEN PERSONS AGDM","3035845","AB","18.9","0","NA","36.5","0","3.0","0","","","NA","13.1","0","NA","","3","","","NA","25.7","55.1"
"-110.215","50.732","SOCIAL PLAINS AGCM","3036040","AB","18.7","0","NA","37.3","0","6.0","0","","","NA","39.4","0","NA","","6","","","NA","28.1","50.3"
"-112.982","51.228","STANDARD AGCM","3036086","AB","16.4","0","NA","29.8","0","6.3","0","","","NA","82.7","2","NA","","6","","","NA","58.9","10.5"
"-113.883","50.183","STAVELY AAFC","3036099","AB","15.3","0","NA","29.5","0","5.3","0","","","NA","70.3","0","NA","","6","","","NA","94.8","11.6"
"-113.283","51.033","STRATHMORE AGDM","3036205","AB","16.4","0","NA","31.4","0","6.0","0","","","NA","10.0","27","NA","","2","","","NA","65.8","14.9"
"-112.124","49.792","TABER","3036360","AB","19.2","17","NA","34.5","10","7.5","11","0.0","10","NA","33.5","10","NA","","1","","","NA","11.4","28.7"
"-111.321","50.456","TIDE LAKE AGCM","3036485","AB","18.4","0","NA","36.3","0","3.9","0","","","NA","13.1","0","NA","","5","","","NA","34.4","47.3"
"-112.863","50.304","TRAVERS AGCM","3036500","AB","17.4","0","NA","32.6","0","5.9","0","","","NA","59.3","0","NA","","7","","","NA","45.0","26.2"
"-112.133","50.050","VAUXHALL CDA CS","3036682","AB","18.3","0","NA","35.2","0","4.3","0","","","NA","31.5","0","NA","","6","","","NA","33.5","43.6"
"-112.117","49.500","WRENTHAM AGDM","3037675","AB","17.8","0","NA","35.9","0","3.3","0","","","NA","26.1","1","NA","","3","","","NA","42.0","35.7"
"-113.961","50.729","OKOTOKS","303M9JM","AB","16.7","0","-0.2","32.0","0","5.0","0","0.0","0","NA","73.0","0","134.0","0.0","15","","","NA","58.3","19.2"
"-112.788","49.871","PICTURE BUTTE WEST","303N1G3","AB","18.0","5","NA","34.0","3","3.0","3","0.0","3","NA","36.0","3","NA","0.0","5","","","NA","28.4","28.7"
"-112.817","49.050","DEL BONITA AGDM","3042045","AB","15.4","0","NA","33.4","0","1.5","0","","","NA","23.6","0","NA","","6","","","NA","88.6","9.1"
"-110.678","49.364","MANYBERRIES AGCM","3044203","AB","18.2","0","NA","35.4","0","-0.2","0","","","NA","28.9","2","NA","","4","","","NA","44.4","49.9"
"-111.652","49.137","MASINASIN AGDM","3044232","AB","18.5","1","NA","36.3","1","2.7","1","","","NA","24.9","3","NA","","4","","","NA","30.9","47.2"
"-112.050","49.133","MILK RIVER","3044533","AB","17.7","0","NA","36.5","0","2.3","0","","","NA","27.4","0","NA","","4","","","NA","46.4","35.7"
"-110.467","49.117","ONEFOUR CDA","3044923","AB","19.4","0","NA","35.8","0","3.8","0","","","NA","11.7","0","NA","","2","","","NA","24.7","66.6"
"-111.126","49.225","PAKOWKI LAKE AGCM","3045000","AB","18.7","0","NA","37.3","0","2.1","0","","","NA","5.7","8","NA","","2","","","NA","33.2","56.3"
"-111.025","49.029","PINHORN AGCM","3045100","AB","18.3","0","NA","35.0","0","2.9","0","","","NA","15.2","2","NA","","4","","","NA","38.6","48.5"
"-112.160","49.283","WARNER AGCM","3046951","AB","17.9","0","NA","35.9","0","4.4","0","","","NA","36.6","9","NA","","4","","","NA","44.2","39.6"
"-115.552","51.193","BANFF CS","3050519","AB","13.3","0","NA","29.5","0","3.2","0","","","NA","94.9","0","NA","","12","","","NA","146.5","2.0"
"-114.175","49.468","BEAVER MINES","3050602","AB","14.9","0","NA","29.4","0","4.4","0","","","NA","60.7","0","NA","","7","","","NA","98.5","3.1"
"-115.067","51.083","BOW VALLEY","3050778","AB","14.4","1","NA","31.3","1","0.7","1","","","NA","76.1","1","NA","","10","","","NA","110.0","2.8"
"-114.482","49.628","CROWSNEST","3051R4R","AB","13.8","0","NA","32.6","0","0.1","0","","","NA","83.8","0","NA","","6","","","NA","131.2","1.9"
"-118.030","52.926","JASPER WARDEN","3053536","AB","14.2","1","NA","30.9","1","0.0","1","","","NA","63.6","1","NA","0.0","13","","","NA","114.2","1.3"
"-115.035","51.028","KANANASKIS","3053600","AB","13.9","0","-0.6","30.5","0","1.5","0","0.0","0","NA","89.6","0","138.0","0.0","14","","","NA","128.9","2.0"
"-116.040","52.492","NORDEGG CS","3054843","AB","12.7","0","NA","29.9","0","0.4","0","","","NA","77.8","0","NA","","12","","","NA","165.6","2.3"
"-114.416","50.368","PEKISKO","3055119","AB","12.1","5","NA","29.7","5","-0.3","5","","","NA","60.0","5","NA","","5","","","NA","154.3","0.0"
"-113.809","49.131","WATERTON PARK GATE","3056214","AB","15.4","0","NA","32.5","0","1.9","0","","","NA","20.3","0","NA","","6","","","NA","86.5","6.7"
"-115.787","54.144","WHITECOURT A","3057376","AB","15.1","1","NA","27.7","1","4.3","1","","","NA","","","NA","","","","","NA","90.3","4.2"
"-115.190","50.943","NAKISKA RIDGETOP","305MGFF","AB","7.8","0","NA","20.2","0","-0.9","0","","","NA","","","NA","","","","","NA","317.5","0.0"
"-113.382","54.635","ATHABASCA AGCM","3060330","AB","16.0","0","NA","28.2","0","6.4","0","","","NA","162.2","0","NA","","18","","","NA","67.7","7.1"
"-112.825","54.782","ATMORE AGDM","3060406","AB","15.5","0","NA","29.0","0","3.4","0","","","NA","135.9","0","NA","","13","","","NA","83.1","4.4"
"-114.448","54.095","BARRHEAD CS","3060535","AB","16.1","0","NA","28.7","0","5.8","0","","","NA","117.2","0","NA","","16","","","NA","65.5","6.1"
"-117.867","53.350","BRULE BLACK CAT","3060903","AB","14.6","7","0.4","28.0","6","4.5","3","0.0","1","NA","132.0","1","NA","0.0","15","","","NA","82.0","0.8"
"-114.678","54.131","CAMPSIE AUTO","3061201","AB","15.7","0","NA","27.6","0","6.3","0","","","NA","121.7","0","NA","","16","","","NA","73.4","3.0"
"-115.894","53.623","CARROT CREEK","3061350","AB","14.5","0","NA","29.4","0","3.2","0","","","NA","178.3","6","NA","","15","","","NA","110.4","1.3"
"-113.950","54.317","DAPP AGDM","3061975","AB","15.2","0","NA","28.1","0","3.9","0","","","NA","157.8","0","NA","","17","","","NA","89.6","2.0"
"-116.465","53.579","EDSON","3062239","AB","14.3","0","NA","27.3","0","3.0","0","","","NA","168.4","0","NA","","15","","","NA","118.2","2.3"
"-116.453","53.580","EDSON CLIMATE","3062246","AB","14.5","1","NA","27.9","1","3.4","1","","","NA","143.5","1","NA","","15","","","NA","108.3","2.9"
"-114.983","53.600","ENTWISTLE","3062451","AB","15.7","2","-0.8","28.5","2","5.0","2","0.0","2","NA","179.6","2","NA","0.0","14","","","NA","72.5","5.1"
"-115.062","53.614","EVANSBURG2 AGCM","3062476","AB","14.8","0","NA","27.3","0","3.7","0","","","NA","139.4","1","NA","","13","","","NA","101.7","1.3"
"-114.769","54.410","FORT ASSINIBOINE AGCM","3062660","AB","15.4","0","NA","28.1","0","6.0","0","","","NA","132.1","0","NA","","17","","","NA","85.0","3.0"
"-111.213","56.651","FORT MCMURRAY CS","3062696","AB","16.7","2","NA","30.6","2","4.3","2","","","NA","68.8","8","NA","","9","","","NA","54.1","17.0"
"-111.223","56.653","FORT MCMURRAY A","3062697","AB","16.6","0","NA","30.4","0","4.5","0","","","NA","88.8","0","NA","","12","","","NA","62.9","18.4"
"-118.447","53.795","HENDRICKSON CREEK","3063135","AB","10.1","0","NA","26.0","0","-1.3","0","","","NA","","","NA","0.0","","","","NA","244.9","0.0"
"-116.479","55.396","HIGH PRAIRIE AGDM","3063165","AB","15.6","0","NA","26.8","0","3.8","0","","","NA","115.0","4","NA","","11","","","NA","77.7","2.4"
"-113.543","54.821","ISLAND LAKE SOUTH","3063600","AB","15.5","0","NA","28.3","0","5.7","0","","","NA","103.3","0","NA","","13","","","NA","79.5","3.2"
"-112.981","54.563","KINIKINIK","3063640","AB","16.0","0","NA","28.0","0","6.9","0","","","NA","169.9","4","NA","","15","","","NA","66.6","5.1"
"-112.024","54.769","LAC LA BICHE CLIMATE","3063686","AB","16.5","1","NA","26.7","1","6.3","1","","","NA","145.1","1","NA","","10","","","NA","54.9","8.9"
"-111.559","57.041","MILDRED LAKE","3064528","AB","17.2","0","NA","31.5","0","6.8","0","","","NA","69.8","0","NA","","10","","","NA","56.0","30.7"
"-113.321","54.964","PLEASANT VIEW","3065200","AB","15.4","0","NA","28.2","0","6.5","0","","","NA","108.5","0","NA","","12","","","NA","83.0","3.3"
"-111.700","54.500","RICH LAKE AGDM","3065475","AB","15.2","0","NA","28.0","0","5.1","0","","","NA","93.6","0","NA","","14","","","NA","89.7","2.3"
"-111.835","53.851","ISPAS","3065712","AB","16.2","0","NA","28.1","0","6.0","0","","","NA","115.7","0","NA","","12","","","NA","64.8","8.3"
"-114.777","55.293","SLAVE LAKE","3065995","AB","16.0","0","NA","28.2","0","7.4","0","","","NA","156.3","0","NA","","13","","","NA","68.5","5.3"
"-114.777","55.293","SLAVE LAKE RCS","3065997","AB","15.8","0","NA","28.1","0","7.2","0","","","NA","130.5","0","NA","","13","","","NA","73.6","4.8"
"-113.520","54.300","TAWATINAW AGCM","3066367","AB","16.1","0","NA","29.2","0","5.5","0","","","NA","135.4","4","NA","","13","","","NA","65.8","8.3"
"-118.348","53.386","WILLOW CREEK 1","306GE70","AB","11.2","1","NA","27.6","1","-0.5","1","","","NA","108.8","1","NA","","14","","","NA","203.4","0.0"
"-117.236","55.577","BALLATER AGCM","3070495","AB","15.6","0","NA","28.0","0","2.9","0","","","NA","69.7","0","NA","","9","","","NA","78.4","4.2"
"-119.396","55.197","BEAVERLODGE RCS","3070600","AB","14.7","0","NA","25.8","0","4.3","0","","","NA","91.6","0","NA","","10","","","NA","103.2","0.3"
"-117.886","56.118","BROWNVALE AGCM","3070800","AB","15.3","0","NA","27.9","0","2.9","0","","","NA","87.7","17","NA","","8","","","NA","90.6","5.4"
"-117.933","56.529","CLEAR HILLS AGCM","3071661","AB","14.9","0","NA","27.7","0","1.9","0","","","NA","80.4","15","NA","","8","","","NA","102.4","5.2"
"-117.543","56.715","DEADWOOD AGCM","3071957","AB","15.8","0","NA","28.9","0","4.2","0","","","NA","147.2","1","NA","","12","","","NA","77.2","9.9"
"-117.887","55.808","EAGLESHAM AGCM","3072151","AB","15.4","0","NA","26.9","0","3.1","0","","","NA","78.8","0","NA","","11","","","NA","82.7","3.3"
"-110.439","58.981","EGG ISLAND","3072246","AB","16.4","11","NA","26.5","11","7.4","11","","","NA","","","NA","","","","","NA","44.2","12.5"
"-118.439","56.081","FAIRVIEW AGDM","3072525","AB","14.9","0","NA","26.8","0","2.5","0","","","NA","60.8","2","NA","","12","","","NA","102.0","4.6"
"-111.117","58.767","FORT CHIPEWYAN","3072655","AB","15.9","0","NA","32.9","0","-0.1","0","","","NA","5.1","0","NA","","2","","","NA","94.0","29.9"
"-111.117","58.767","FORT CHIPEWYAN RCS","3072659","AB","16.1","0","NA","34.1","0","-0.3","0","","","NA","28.5","0","NA","","6","","","NA","92.5","33.4"
"-116.040","58.382","FORT VERMILION","3072723","AB","17.1","0","NA","31.3","0","4.6","0","","","NA","14.3","0","NA","","3","","","NA","53.9","26.9"
"-118.885","55.180","GRANDE PRAIRIE A","3072921","AB","15.6","0","NA","26.8","0","6.3","0","0.0","0","NA","88.4","0","NA","","12","","","NA","76.7","1.5"
"-117.298","57.265","HAWK HILLS AGCM","3073071","AB","16.0","0","NA","30.3","0","3.4","0","","","NA","157.3","0","NA","","14","","","NA","70.2","7.1"
"-117.165","58.622","HIGH LEVEL","3073140","AB","16.2","2","NA","30.7","2","2.7","2","","","NA","0.0","4","NA","","0","","","NA","63.4","12.4"
"-117.165","58.621","HIGH LEVEL A","3073146","AB","16.5","0","0.0","31.0","0","2.5","0","0.0","0","NA","56.6","0","85.0","0.0","7","","","NA","64.2","16.5"
"-117.120","55.913","JEAN COTE AGCM","3073535","AB","15.7","0","NA","26.8","0","2.9","0","","","NA","161.5","0","NA","","12","","","NA","86.1","14.0"
"-117.677","57.788","KEG RIVER AGCM","3073644","AB","15.8","1","NA","29.8","0","1.9","1","","","NA","99.3","7","NA","","10","","","NA","73.2","8.1"
"-116.343","58.172","LA CRETE AGCM","3073730","AB","17.2","0","NA","30.4","0","5.6","0","","","NA","42.0","0","NA","","5","","","NA","49.1","23.7"
"-119.255","55.422","LA GLACE AGCM","3073740","AB","14.2","0","NA","26.7","0","3.7","0","","","NA","62.7","0","NA","","9","","","NA","117.1","0.7"
"-117.451","56.974","MANNING AGDM","3074190","AB","17.1","1","NA","30.6","0","3.6","1","","","NA","","","NA","","","","","NA","38.1","10.9"
"-119.745","56.314","CLEARDALE AGDM","3074935","AB","15.2","0","NA","28.2","0","3.1","0","","","NA","106.2","0","NA","","13","","","NA","90.9","4.0"
"-117.448","56.227","PEACE RIVER A","3075041","AB","15.4","0","NA","27.6","0","2.3","0","0.0","0","NA","90.5","0","NA","","12","","","NA","85.5","4.5"
"-118.293","55.621","PEORIA AGDM","3075160","AB","14.9","0","NA","27.2","0","1.6","0","","","NA","48.6","0","NA","","9","","","NA","99.1","3.5"
"-115.278","56.552","RED EARTH","3075488","AB","15.8","1","NA","31.3","1","3.4","1","","","NA","117.3","1","NA","","26","","","NA","79.2","11.8"
"-116.481","58.452","ROCKY LANE AGCM","3075550","AB","16.4","0","NA","31.5","0","0.0","0","","","NA","36.2","0","NA","","3","","","NA","65.3","16.7"
"-118.668","55.777","RYCROFT AGCM","3075601","AB","15.6","0","NA","28.3","0","1.2","0","","","NA","70.0","0","NA","","7","","","NA","79.0","3.4"
"-119.345","56.076","SAVANNA AGCM","3075770","AB","14.8","0","NA","28.1","0","1.8","0","","","NA","110.9","4","NA","","11","","","NA","100.3","2.1"
"-111.997","58.853","SWEETGRASS LANDING","3076330","AB","","","NA","","","","","","","NA","25.2","2","NA","","6","","","NA","",""
"-118.408","55.352","TEEPEE CREEK AGCM","3076366","AB","15.4","0","NA","26.9","0","4.6","0","","","NA","79.2","0","NA","","7","","","NA","83.8","2.9"
"-116.848","58.021","TOMPKINS LANDING AGCM","3076530","AB","17.3","1","NA","31.2","0","5.1","1","","","NA","37.6","2","NA","","10","","","NA","45.5","25.8"
"-117.199","55.098","VALLEYVIEW AGDM","3076680","AB","15.5","0","NA","27.7","0","4.9","0","","","NA","122.0","0","NA","","9","","","NA","81.2","4.2"
"-113.866","58.711","GARDEN RIVER","307KPFP","AB","16.7","1","NA","34.4","1","1.1","1","","","NA","34.2","1","NA","","5","","","NA","65.6","26.1"
"-110.283","54.417","COLD LAKE A","3081680","AB","16.9","0","-0.5","29.7","0","5.7","0","0.0","0","NA","80.0","0","102.0","","13","","","NA","50.9","17.4"
"-110.868","54.367","DUPRE AGCM","3081690","AB","15.7","0","NA","29.5","0","5.4","0","","","NA","66.2","0","NA","","13","","","NA","77.5","7.6"
