"Long","Lat","Stn_Name","Clim_ID","Prov","Tm","DwTm","D","Tx","DwTx","Tn","DwTn","S","DwS","S%N","P","DwP","P%N","S_G","Pd","BS","DwBS","BS%","HDD","CDD"
"-123.742","48.935","CHEMAINUS","1011500","BC","4.7","0","NA","13.0","0","-5.5","0","53.8","0","NA","546.6","0","NA","0.0","28","","","NA","413.2","0.0"
"-124.052","48.829","LAKE COWICHAN","1012055","BC","2.6","16","-0.9","13.0","10","-10.5","10","67.6","20","NA","613.8","10","NA","","20","","","NA","231.1","0.0"
"-123.226","48.425","DISCOVERY ISLAND","1012475","BC","6.5","0","NA","14.5","0","-4.8","0","","","NA","","","NA","","","","","NA","357.9","0.0"
"-123.439","48.432","ESQUIMALT HARBOUR","1012710","BC","5.9","0","NA","15.6","0","-4.9","0","","","NA","219.0","5","NA","","19","","","NA","373.8","0.0"
"-123.573","48.985","GALIANO NORTH","10130MN","BC","6.7","15","NA","12.5","15","-5.5","15","0.0","15","NA","191.1","15","NA","0.0","16","","","NA","180.3","0.0"
"-123.530","48.575","MALAHAT","1014820","BC","3.2","0","NA","11.7","0","-8.2","0","","","NA","","","NA","","","","","NA","459.7","0.0"
"-123.561","48.374","METCHOSIN","1015105","BC","","","NA","","","","","52.4","9","NA","433.2","9","NA","0.0","19","","","NA","",""
"-123.718","48.824","NORTH COWICHAN","1015628","BC","","","NA","","","","","62.4","0","440.0","444.5","0","229.0","0.0","29","","","NA","",""
"-123.719","48.824","NORTH COWICHAN","1015630","BC","3.8","1","NA","13.1","1","-7.3","1","","","NA","291.5","5","NA","","22","","","NA","427.4","0.0"
"-123.287","48.764","NORTH PENDER ISLAND","1015638","BC","5.0","3","NA","12.0","3","-7.0","3","17.0","3","NA","191.6","3","NA","","23","","","NA","363.1","0.0"
"-124.326","48.592","PORT RENFREW","1016335","BC","5.1","4","1.1","12.5","4","-4.0","4","58.0","4","NA","962.0","4","NA","0.0","27","","","NA","347.3","0.0"
"-123.531","48.298","RACE ROCKS","1016640","BC","5.7","9","NA","16.6","9","-5.2","9","","","NA","","","NA","","","","","NA","270.9","0.0"
"-123.419","48.622","SAANICHTON CDA","1016940","BC","4.8","6","0.0","13.5","3","-7.0","4","19.0","3","NA","280.7","3","NA","0.0","24","","","NA","330.8","0.0"
"-123.546","48.888","SALTSPRING ST MARY'S L","1016995","BC","5.1","1","0.8","12.0","1","-5.5","1","29.8","1","NA","325.9","1","NA","0.0","25","","","NA","386.6","0.0"
"-123.427","48.598","SAANICHTON MT NEWTON","1016RM0","BC","","","NA","","","","","35.0","0","337.0","334.6","0","214.0","0.0","28","","","NA","",""
"-123.128","48.775","SATURNA CAPMON CS","1017099","BC","4.1","1","NA","10.9","1","-8.7","1","","","NA","189.3","1","NA","0.0","21","","","NA","417.0","0.0"
"-123.045","48.784","SATURNA ISLAND CS","1017101","BC","6.2","0","NA","13.1","0","-6.3","0","","","NA","156.8","4","NA","","21","","","NA","366.9","0.0"
"-123.626","48.647","SHAWNIGAN LAKE","1017230","BC","3.6","0","0.2","13.0","0","-6.5","0","70.0","0","346.0","465.8","0","216.0","0.0","29","","","NA","445.9","0.0"
"-123.921","48.377","SHERINGHAM POINT","1017254","BC","6.5","0","NA","14.1","0","-4.0","0","","","NA","308.0","3","NA","","27","","","NA","355.6","0.0"
"-123.305","48.457","VICTORIA UNIVERSITY CS","1018598","BC","5.3","1","NA","13.4","1","-5.5","1","","","NA","34.0","29","NA","","2","","","NA","380.0","0.0"
"-123.325","48.413","VICTORIA GONZALES CS","1018611","BC","5.8","0","NA","13.5","0","-5.7","0","","","NA","175.4","5","NA","","19","","","NA","378.4","0.0"
"-123.426","48.647","VICTORIA INTL A","1018621","BC","5.1","0","NA","14.2","0","-6.2","0","29.3","0","NA","291.3","0","NA","","26","","","NA","398.8","0.0"
"-123.388","48.423","VICTORIA HARBOUR A","1018633","BC","6.0","0","NA","14.4","0","-5.1","0","","","NA","","","NA","","","","","NA","371.2","0.0"
"-124.160","49.350","BALLENAS ISLAND","1020590","BC","5.6","0","NA","12.2","0","-4.7","0","","","NA","164.6","5","NA","","23","","","NA","383.3","0.0"
"-125.273","49.952","CAMPBELL RIVER A","1021261","BC","2.4","0","0.0","10.5","0","-11.0","0","74.0","0","318.0","337.3","0","155.0","0.0","26","","","NA","484.6","0.0"
"-125.273","49.952","CAMPBELL RIVER A","1021270","BC","1.9","0","NA","10.5","0","-10.9","0","","","NA","","","NA","","","","","NA","497.6","0.0"
"-125.195","49.998","CAPE MUDGE","1021330","BC","4.8","0","0.7","11.5","0","-7.0","0","32.4","0","234.0","379.2","0","166.0","0.0","27","","","NA","410.1","0.0"
"-125.446","50.333","CHATHAM POINT","1021480","BC","7.0","23","2.9","12.0","23","3.0","23","0.0","23","NA","157.0","23","NA","","8","","","NA","88.0","0.0"
"-124.683","49.472","CHROME ISLAND","1021500","BC","5.4","0","NA","14.0","0","-5.0","0","39.4","0","NA","514.2","0","NA","0.0","30","","","NA","391.8","0.0"
"-124.900","49.717","COMOX A","1021830","BC","4.2","0","0.4","12.4","0","-6.4","0","45.8","0","384.0","374.4","0","218.0","","26","","","NA","426.7","0.0"
"-125.033","49.686","COURTENAY PUNTLEDGE","1021989","BC","2.9","4","NA","11.0","2","-9.0","2","8.0","2","NA","423.3","2","NA","0.0","24","","","NA","406.9","0.0"
"-123.811","49.209","ENTRANCE ISLAND","1022689","BC","5.7","0","NA","12.6","0","-4.7","0","","","NA","98.0","3","NA","","21","","","NA","380.1","0.0"
"-125.993","50.454","FANNY ISLAND","1022795","BC","3.5","3","NA","11.4","3","-8.0","3","","","NA","306.8","10","NA","","20","","","NA","405.7","0.0"
"-125.203","50.099","HERIOT BAY SE","1023462","BC","4.2","1","NA","10.5","1","-7.5","1","32.4","1","NA","392.4","1","NA","0.0","26","","","NA","413.9","0.0"
"-124.512","49.353","LITTLE QUALICUM HATCHERY","1024638","BC","3.0","15","-0.2","11.5","15","-5.5","15","30.0","15","NA","188.2","15","NA","","15","","","NA","240.0","0.0"
"-123.870","49.054","NANAIMO A","1025365","BC","3.8","0","NA","13.6","0","-8.9","0","","","NA","","","NA","","","","","NA","441.3","0.0"
"-123.870","49.054","NANAIMO A","1025369","BC","4.1","1","NA","14.0","1","-9.0","1","86.8","1","NA","275.0","1","NA","0.0","25","","","NA","416.3","0.0"
"-123.988","49.199","NANAIMO CITY YARD","10253G0","BC","","","NA","","","","","32.2","0","238.0","358.6","0","193.0","0.0","29","","","NA","",""
"-127.367","50.681","PORT HARDY A","1026271","BC","3.3","0","NA","11.4","0","-8.1","0","22.4","0","NA","327.9","0","NA","","25","","","NA","455.1","0.0"
"-124.394","49.337","QUALICUM BEACH AIRPORT","1026562","BC","4.0","0","NA","13.4","0","-7.8","0","","","NA","","","NA","0.0","","","","NA","433.4","0.0"
"-124.617","49.394","QUALICUM R FISH RESEARCH","1026565","BC","4.2","2","0.4","13.0","2","-5.0","2","46.2","2","NA","451.1","2","NA","0.0","27","","","NA","398.9","0.0"
"-124.435","49.487","SISTERS ISLAND","1027403","BC","6.0","3","NA","13.7","3","-3.9","3","","","NA","","","NA","","","","","NA","335.3","0.0"
"-123.809","49.209","ENTRANCE ISLAND","102BFHH","BC","5.9","0","NA","12.0","0","-5.0","0","20.0","0","NA","246.6","0","NA","0.0","25","","","NA","376.0","0.0"
"-124.982","49.337","ALBERNI ROBERTSON CREEK","1030230","BC","2.5","0","0.6","9.0","0","-5.5","0","67.0","0","297.0","686.2","0","202.0","0.0","29","","","NA","479.2","0.0"
"-125.216","48.786","CAPE BEALE LIGHT","1031316","BC","6.5","1","0.6","11.5","1","-2.5","1","15.0","1","NA","712.4","1","NA","0.0","30","","","NA","344.9","0.0"
"-124.751","48.612","CARMANAH POINT","1031402","BC","","","NA","","","","","21.0","0","264.0","655.4","0","150.0","0.0","31","","","NA","",""
"-126.543","49.383","ESTEVAN POINT","1032730","BC","6.1","0","0.2","11.0","0","-3.0","0","2.0","0","100.0","619.2","0","136.0","0.0","28","","","NA","369.5","0.0"
"-126.543","49.383","ESTEVAN POINT CS","1032731","BC","5.5","0","NA","10.4","0","-3.3","0","","","NA","189.3","0","NA","","29","","","NA","387.4","0.0"
"-125.923","49.111","LENNARD ISLAND","1034600","BC","4.4","1","NA","11.0","1","-7.0","1","10.2","1","NA","680.8","1","NA","0.0","27","","","NA","406.6","0.0"
"-124.655","48.859","NITINAT RIVER HATCHERY","1035612","BC","4.1","3","0.1","11.5","2","-3.5","3","35.0","2","NA","######","2","NA","0.0","28","","","NA","390.1","0.0"
"-126.617","49.600","NOOTKA LIGHTSTATION","1035614","BC","5.7","0","0.1","11.5","0","-5.5","0","11.6","0","247.0","631.4","0","134.0","0.0","28","","","NA","381.1","0.0"
"-125.097","48.723","PACHENA POINT","1035940","BC","6.5","2","0.8","13.0","2","-3.0","2","12.0","2","NA","609.8","2","NA","0.0","27","","","NA","332.3","0.0"
"-124.752","49.202","PORT ALBERNI COX LAKE","1036208","BC","2.1","25","-0.7","11.5","25","-6.0","25","24.2","25","NA","193.2","25","NA","0.0","6","","","NA","95.2","0.0"
"-127.653","50.534","QUATSINO","1036570","BC","3.4","1","-1.0","12.5","1","-6.5","1","19.6","1","NA","545.8","1","NA","0.0","27","","","NA","437.0","0.0"
"-128.033","50.441","QUATSINO LIGHTSTATION","1036572","BC","4.5","1","-1.5","12.0","1","-13.0","1","24.2","1","NA","463.2","1","NA","0.0","26","","","NA","404.8","0.0"
"-124.927","49.317","PORT ALBERNI (AUT)","1036B06","BC","2.3","2","NA","11.2","2","-7.5","2","","","NA","558.9","2","NA","","24","","","NA","455.9","0.0"
"-128.908","50.821","SARTINE ISLAND (AUT)","1037090","BC","4.8","1","NA","10.2","1","-6.3","1","","","NA","332.6","6","NA","","25","","","NA","395.7","0.0"
"-127.940","50.112","SOLANDER ISLAND (AUT)","1037553","BC","5.4","2","NA","10.3","2","-5.4","2","","","NA","321.8","6","NA","","25","","","NA","366.3","0.0"
"-126.654","49.932","TAHSIS VILLAGE NORTH","1037899","BC","4.6","16","NA","13.0","16","-7.0","16","","","NA","582.2","18","NA","","13","","","NA","200.5","0.0"
"-125.773","49.082","TOFINO A","1038205","BC","5.9","7","0.5","11.5","7","-3.5","7","7.0","7","NA","626.0","7","NA","0.0","22","","","NA","291.0","0.0"
"-125.773","49.082","TOFINO A","1038210","BC","5.4","8","NA","11.3","8","-3.6","8","","","NA","","","NA","","","","","NA","290.2","0.0"
"-125.527","48.945","UCLUELET KENNEDY CAMP","1038332","BC","5.9","0","0.4","12.0","0","-3.5","0","21.8","0","320.0","784.7","0","156.0","0.0","28","","","NA","374.3","0.0"
"-126.779","50.053","ZEBALLOS MURAUDE CREEK","1039035","BC","3.5","4","NA","11.5","4","-8.0","4","25.0","4","NA","988.0","4","NA","0.0","24","","","NA","390.5","0.0"
"-123.402","49.360","BOWEN ISLAND SUNSET PARK","104091B","BC","","","NA","","","","","32.0","7","NA","435.0","7","NA","0.0","23","","","NA","",""
"-123.541","49.386","GIBSONS GOWER POINT","1043152","BC","4.9","1","0.3","11.5","1","-6.5","1","20.8","1","NA","306.6","1","NA","","27","","","NA","393.9","0.0"
"-123.913","49.468","MERRY ISLAND LIGHTSTATION","1045100","BC","5.4","1","0.1","11.5","1","-5.5","1","14.2","1","NA","245.4","1","NA","0.0","25","","","NA","376.6","0.0"
"-123.299","49.488","HOWE SOUND - PAM ROCKS","10459NN","BC","4.4","0","NA","13.6","0","-7.9","0","","","NA","274.0","7","NA","","21","","","NA","421.8","0.0"
"-124.032","49.634","PENDER HARBOUR","1046115","BC","","","NA","","","","","23.8","0","NA","252.6","0","NA","0.0","29","","","NA","",""
"-123.496","49.526","PORT MELLON","1046332","BC","5.8","13","NA","11.9","13","0.1","13","","","NA","521.9","13","NA","0.0","17","","","NA","219.9","0.0"
"-124.500","49.834","POWELL RIVER A","1046391","BC","4.0","1","0.5","11.0","1","-7.0","1","66.6","1","NA","275.6","1","NA","0.0","28","","","NA","418.6","0.0"
"-124.497","49.835","POWELL RIVER","1046392","BC","3.8","0","NA","11.1","0","-6.5","0","","","NA","307.6","0","NA","","28","","","NA","439.9","0.0"
"-124.500","49.834","POWELL RIVER A","1046396","BC","3.8","1","NA","11.0","1","-6.6","1","","","NA","","","NA","","","","","NA","427.1","0.0"
"-123.715","49.458","SECHELT AUT","1047172","BC","4.6","0","NA","11.8","0","-5.7","0","","","NA","247.9","0","NA","","25","","","NA","414.5","0.0"
"-123.161","49.783","SQUAMISH AIRPORT","10476F0","BC","1.3","1","NA","11.8","1","-12.5","1","","","NA","461.8","6","NA","","24","","","NA","500.3","0.0"
"-122.955","50.129","WHISTLER","1048898","BC","-2.4","1","-0.3","6.0","1","-18.0","1","150.4","1","NA","314.6","1","NA","74.0","26","","","NA","611.9","0.0"
"-131.016","51.936","CAPE ST JAMES","1051351","BC","4.1","1","NA","9.0","1","-7.6","1","","","NA","330.4","1","NA","","23","","","NA","417.4","0.0"
"-132.772","53.316","KINDAKUN ROCKS (AUT)","1054222","BC","3.9","1","NA","10.1","1","-9.1","1","","","NA","161.0","6","NA","","22","","","NA","423.9","0.0"
"-133.058","54.255","LANGARA","1054500","BC","2.3","0","-1.7","9.5","0","-9.0","0","31.6","0","159.0","210.2","0","102.0","0.0","25","","","NA","485.5","0.0"
"-133.058","54.255","LANGARA ISLAND RCS","1054503","BC","2.1","1","NA","8.1","1","-9.2","1","","","NA","209.0","1","NA","","21","","","NA","478.1","0.0"
"-132.125","54.027","MASSET A","1054929","BC","1.1","1","NA","9.3","1","-9.3","1","","","NA","","","NA","","","","","NA","506.3","0.0"
"-131.661","54.159","ROSE SPIT (AUT)","1056869","BC","1.9","0","NA","8.1","0","-9.4","0","","","NA","104.1","0","NA","","28","","","NA","499.7","0.0"
"-131.813","53.249","SANDSPIT AIRPORT AUTO","1057051","BC","1.9","0","NA","9.7","0","-9.8","0","","","NA","58.6","3","NA","","24","","","NA","498.7","0.0"
"-131.814","53.254","SANDSPIT","1057052","BC","2.1","0","NA","9.7","0","-9.3","0","","","NA","180.5","1","NA","","21","","","NA","493.6","0.0"
"-127.864","51.604","ADDENBROKE ISLAND","1060080","BC","4.0","0","-0.6","11.5","0","-10.0","0","7.0","0","54.0","571.0","0","141.0","0.0","29","","","NA","433.8","0.0"
"-128.157","52.185","BELLA BELLA","1060815","BC","2.2","2","NA","10.5","2","-12.5","2","","","NA","393.1","3","NA","","25","","","NA","458.2","0.0"
"-126.587","52.389","BELLA COOLA AIRPORT","1060844","BC","-2.2","1","NA","7.3","1","-19.6","1","","","NA","236.8","1","NA","35.0","20","","","NA","604.7","0.0"
"-126.596","52.388","BELLA COOLA A","1060848","BC","-2.3","3","NA","7.0","3","-19.6","3","","","NA","","","NA","","","","","NA","568.8","0.0"
"-128.524","52.643","BOAT BLUFF","1060901","BC","2.1","0","-1.5","12.0","0","-12.0","0","69.8","0","254.0","839.6","0","139.0","0.0","27","","","NA","492.4","0.0"
"-130.638","53.493","BONILLA ISLAND","1060902","BC","2.9","0","-2.1","9.0","0","-11.0","0","29.0","0","333.0","244.0","0","103.0","0.0","24","","","NA","468.9","0.0"
"-130.639","53.493","BONILLA ISLAND (AUT)","1060R0K","BC","2.7","7","NA","9.2","7","-10.8","7","","","NA","89.8","16","NA","","14","","","NA","368.2","0.0"
"-127.471","52.187","CATHEDRAL POINT (AUT)","1061458","BC","1.4","2","NA","13.7","2","-12.9","2","","","NA","351.0","12","NA","","17","","","NA","481.3","0.0"
"-131.602","53.030","CUMSHEWA ISLAND","1062251","BC","3.8","1","NA","10.2","1","-8.2","1","","","NA","32.0","7","NA","","9","","","NA","424.6","0.0"
"-128.112","52.185","DRYAD POINT","1062544","BC","2.8","0","-1.4","11.0","0","-11.0","0","18.0","0","168.0","373.9","0","134.0","0.0","25","","","NA","469.7","0.0"
"-127.835","51.247","EGG ISLAND","1062646","BC","3.9","7","-1.0","11.0","7","-7.0","7","13.4","7","NA","334.6","7","NA","0.0","21","","","NA","337.9","0.0"
"-130.708","54.569","GREEN ISLAND","1063298","BC","1.3","0","-1.9","9.5","0","-9.0","0","22.6","0","179.0","309.4","0","116.0","0.0","24","","","NA","517.9","0.0"
"-130.698","54.580","GREY ISLET (AUT)","1063303","BC","2.2","1","NA","9.1","1","-9.4","1","","","NA","","","NA","","","","","NA","473.4","0.0"
"-127.632","50.940","HERBERT ISLAND (AUT)","1063461","BC","4.9","0","NA","11.9","0","-5.4","0","","","NA","256.2","6","NA","","24","","","NA","405.4","0.0"
"-130.361","54.172","HOLLAND ROCK","1063496","BC","-0.2","17","NA","8.7","17","-11.3","17","","","NA","24.4","25","NA","","5","","","NA","254.2","0.0"
"-128.407","52.270","IVORY ISLAND","1063690","BC","2.6","0","-1.7","10.5","0","-11.5","0","34.8","0","211.0","374.6","0","126.0","0.0","27","","","NA","476.7","0.0"
"-127.943","53.563","KEMANO","1064020","BC","-3.4","0","-1.9","5.5","0","-18.5","0","213.6","0","358.0","428.8","0","172.0","73.0","24","","","NA","661.9","0.0"
"-128.634","54.054","KITIMAT TOWNSITE","1064320","BC","-3.4","24","-1.6","4.0","24","-24.0","24","4.0","24","NA","62.0","24","NA","","5","","","NA","149.5","0.0"
"-128.705","54.010","KITIMAT 2","1064321","BC","-2.6","3","-1.7","12.0","3","-18.0","3","213.0","3","NA","432.0","3","NA","0.0","20","","","NA","577.3","0.0"
"-130.609","54.296","LUCY ISLAND LIGHTSTATION","1064728","BC","2.2","4","NA","9.2","4","-10.5","4","","","NA","","","NA","","","","","NA","427.8","0.0"
"-128.719","52.262","MCINNES ISLAND","1065010","BC","3.5","0","-1.2","9.5","0","-9.5","0","8.6","0","95.0","378.8","0","125.0","0.0","26","","","NA","450.2","0.0"
"-130.445","54.286","PRINCE RUPERT","1066482","BC","0.3","2","NA","8.9","2","-17.2","2","","","NA","270.4","2","NA","","19","","","NA","513.3","0.0"
"-129.983","55.933","STEWART A","1067748","BC","-4.8","0","NA","4.0","0","-21.7","0","","","NA","","","NA","","","","","NA","708.0","0.0"
"-128.625","54.502","TERRACE PCC","1068131","BC","-3.7","0","-1.8","5.5","0","-25.5","0","150.0","0","334.0","270.8","0","200.0","31.0","21","","","NA","674.1","0.0"
"-128.578","54.469","TERRACE A","1068134","BC","-4.7","0","NA","3.8","0","-21.8","0","231.4","0","NA","281.2","0","NA","28.0","22","","","NA","704.5","0.0"
"-130.880","54.295","TRIPLE ISLAND","1068250","BC","2.9","0","NA","9.5","0","-12.0","0","4.0","0","NA","131.0","0","NA","0.0","22","","","NA","467.8","0.0"
"-128.682","54.044","KITIMAT HATCHERY","106D289","BC","-4.0","12","NA","5.0","12","-20.5","12","63.6","12","NA","203.1","12","NA","110.0","12","","","NA","418.6","0.0"
"-126.668","54.396","HOUSTON","1073615","BC","-11.0","4","NA","5.0","4","-39.5","4","54.0","6","NA","54.0","6","NA","45.0","11","","","NA","782.6","0.0"
"-127.183","54.825","SMITHERS","1077499","BC","-9.0","0","NA","5.5","0","-33.9","0","","","NA","32.0","0","NA","","4","","","NA","837.7","0.0"
"-127.189","54.824","SMITHERS AIRPORT AUTO","1077501","BC","-8.7","1","NA","5.8","1","-35.6","1","","","NA","61.8","1","NA","31.0","11","","","NA","801.0","0.0"
"-127.171","55.289","SUSKWA VALLEY","107G879","BC","-8.4","4","-1.9","5.0","4","-30.0","4","78.8","4","NA","83.2","4","NA","50.0","16","","","NA","712.0","0.0"
"-125.997","53.772","OOTSA LAKESKINS LAKE CLIMATE","1085836","BC","-8.1","2","NA","4.7","2","-37.1","0","","","NA","84.0","0","NA","37.0","15","","","NA","757.0","0.0"
"-122.738","50.302","PEMBERTON AIRPORT (WIND)","1086081","BC","-2.4","0","NA","6.2","0","-19.0","0","","","NA","","","NA","","","","","NA","631.8","0.0"
"-122.734","50.306","PEMBERTON AIRPORT CS","1086082","BC","-2.3","0","NA","5.0","0","-16.9","0","","","NA","","","NA","25.0","","","","NA","628.9","0.0"
"-124.136","52.114","PUNTZI MOUNTAIN (AUT)","1086558","BC","-12.2","0","NA","7.0","0","-48.8","0","","","NA","72.6","0","NA","31.0","24","","","NA","937.6","0.0"
"-124.403","51.675","TATLAYOKO LAKE RCS","1088015","BC","-6.4","0","NA","7.6","0","-35.5","0","","","NA","102.5","0","NA","9.0","15","","","NA","757.0","0.0"
"-125.959","54.383","BURNS LAKE DECKER LAKE","1091174","BC","-12.1","0","NA","5.3","0","-44.1","0","","","NA","65.5","0","NA","51.0","10","","","NA","932.7","0.0"
"-124.286","54.455","FORT ST JAMES AUTO","1092975","BC","-8.5","3","NA","10.5","3","-37.6","3","","","NA","60.4","0","NA","40.0","11","","","NA","742.5","0.0"
"-122.286","52.531","MCLEESE LAKE GRANITE MT","1095018","BC","-9.4","14","NA","10.0","10","-38.5","9","53.4","9","NA","62.2","9","NA","51.0","11","","","NA","465.8","0.0"
"-122.678","53.884","PRINCE GEORGE","1096439","BC","-9.2","0","NA","6.3","0","-44.2","0","","","NA","58.1","0","NA","","10","","","NA","844.3","0.0"
"-122.672","53.889","PRINCE GEORGE AIRPORT AUTO","1096453","BC","-9.2","0","NA","6.2","0","-44.4","0","","","NA","57.2","0","NA","29.0","11","","","NA","843.3","0.0"
"-122.791","53.900","PRINCE GEORGE MASSEY AUTO","1096454","BC","-7.0","1","NA","8.1","1","-37.5","1","","","NA","74.5","1","NA","32.0","11","","","NA","750.0","0.0"
"-122.768","53.880","PRINCE GEORGE STP","1096468","BC","-6.6","0","0.2","9.0","0","-38.0","0","75.0","0","175.0","87.2","0","160.0","32.0","14","","","NA","761.3","0.0"
"-122.510","53.026","QUESNEL","1096629","BC","-7.8","0","NA","8.8","0","-41.6","0","","","NA","8.9","2","NA","","5","","","NA","798.6","0.0"
"-122.506","53.027","QUESNEL AIRPORT AUTO","1096631","BC","-7.8","0","NA","8.6","0","-41.9","0","","","NA","38.2","0","NA","35.0","13","","","NA","799.4","0.0"
"-121.686","52.184","SPOKIN LAKE 4E","1097646","BC","-8.9","0","-1.3","5.5","0","-45.5","0","39.0","0","107.0","42.8","0","94.0","45.0","15","","","NA","835.4","0.0"
"-122.054","52.183","WILLIAMS LAKE A","1098941","BC","-5.6","12","NA","6.1","12","-36.4","12","36.2","2","NA","39.6","4","NA","22.0","12","","","NA","447.6","0.0"
"-124.017","54.033","VANDERHOOF","1098D90","BC","-9.0","0","-0.1","10.5","0","-44.0","0","64.0","0","169.0","71.0","0","160.0","0.0","13","","","NA","837.8","0.0"
"-121.263","51.623","108 MILE HOUSE ABEL LAKE","109E7R6","BC","-6.9","0","NA","6.0","0","-43.0","0","66.0","0","NA","70.8","0","NA","34.0","15","","","NA","772.9","0.0"
"-122.360","49.025","ABBOTSFORD A","1100031","BC","2.8","0","NA","15.7","0","-12.3","0","44.3","0","NA","359.7","0","NA","","26","","","NA","471.7","0.0"
"-122.360","49.025","ABBOTSFORD A","1100032","BC","2.8","0","NA","15.7","0","-12.3","0","","","NA","","","NA","","","","","NA","471.7","0.0"
"-121.760","49.243","AGASSIZ RCS","1100119","BC","2.2","0","-1.2","13.1","0","-13.1","0","","","NA","359.2","0","NA","","25","","","NA","489.9","0.0"
"-121.760","49.243","AGASSIZ CDA","1100120","BC","","","","","","-10.0","3","12.0","2","NA","371.7","2","NA","0.0","25","","","NA","",""
"-122.955","50.129","WHISTLER - NESTERS","1100875","BC","-2.5","0","NA","6.8","0","-19.1","0","","","NA","332.4","0","NA","71.0","25","","","NA","635.8","0.0"
"-123.111","50.144","CALLAGHAN VALLEY","1101300","BC","-2.3","0","NA","6.3","0","-21.2","0","","","NA","380.8","0","NA","158.0","18","","","NA","630.0","0.0"
"-121.979","49.079","CULTUS LAKE","1102221","BC","1.8","0","NA","16.0","0","-12.5","0","","","NA","228.8","15","NA","","15","","","NA","502.0","0.0"
"-123.002","49.126","DELTA BURNS BOG","1102415","BC","4.0","0","NA","12.5","0","-8.7","0","","","NA","","","NA","","","","","NA","434.8","0.0"
"-123.093","49.011","DELTA TSAWWASSEN BEACH","1102425","BC","6.0","0","0.9","12.5","0","-7.0","0","16.4","0","158.0","273.4","0","203.0","0.0","26","","","NA","371.5","0.0"
"-122.551","49.145","FORT LANGLEY TELEGRAPH TRAIL","1102912","BC","4.0","0","NA","15.5","0","-10.5","0","49.0","0","NA","433.6","0","NA","0.0","28","","","NA","434.8","0.0"
"-122.573","49.264","HANEY UBC RF ADMIN","1103332","BC","3.8","2","0.6","13.0","2","-9.5","2","36.0","2","NA","533.6","2","NA","0.0","25","","","NA","411.1","0.0"
"-122.271","49.153","MISSION WEST ABBEY","1105192","BC","2.1","2","-1.1","12.0","2","-13.5","2","51.6","2","NA","420.8","2","NA","0.0","25","","","NA","459.7","0.0"
"-123.078","49.381","N VANC GROUSE MTN RESORT","1105658","BC","-0.9","3","-0.5","11.0","2","-18.0","3","52.0","2","NA","776.7","2","NA","0.0","20","","","NA","529.0","0.0"
"-123.115","49.315","N VANCOUVER WHARVES","1105669","BC","","","NA","","","","","0.0","2","NA","428.5","2","NA","0.0","25","","","NA","",""
"-122.690","49.208","PITT MEADOWS CS","1106178","BC","3.8","0","NA","15.3","0","-9.6","0","","","NA","485.9","0","NA","","27","","","NA","440.6","0.0"
"-123.265","49.330","POINT ATKINSON","1106200","BC","5.5","0","NA","12.7","0","-6.6","0","","","NA","######","0","NA","","31","","","NA","386.0","0.0"
"-123.087","49.179","RICHMOND DALLYN 2","1106764","BC","","","NA","","","","","36.8","0","NA","373.2","0","NA","0.0","27","","","NA","",""
"-122.881","49.279","PORT MOODY GLENAYRE","1106CL2","BC","4.5","3","0.7","12.0","3","-10.5","3","9.0","3","NA","474.1","3","NA","0.0","23","","","NA","376.8","0.0"
"-123.093","49.171","RICHMOND NATURE PARK","1106PF7","BC","5.1","1","1.1","12.5","1","-8.0","1","26.2","1","NA","367.6","1","NA","0.0","27","","","NA","387.7","0.0"
"-123.303","49.106","SANDHEADS CS","1107010","BC","5.1","0","NA","12.8","0","-7.3","0","","","NA","","","NA","","","","","NA","398.4","0.0"
"-122.110","49.113","SUMAS CANAL","1107785","BC","3.1","17","NA","16.5","11","-12.0","12","29.0","11","NA","377.2","11","NA","0.0","19","","","NA","208.9","0.0"
"-123.187","49.183","VANCOUVER SEA ISLAND CCG","1108380","BC","4.7","0","NA","12.5","0","-7.8","0","","","NA","","","NA","","","","","NA","413.7","0.0"
"-123.184","49.195","VANCOUVER INTL A","1108395","BC","4.6","0","NA","12.3","0","-8.0","0","34.6","0","NA","256.6","0","NA","","24","","","NA","414.3","0.0"
"-123.122","49.295","VANCOUVER HARBOUR CS","1108446","BC","6.6","7","NA","12.4","7","-5.9","7","","","NA","9.4","27","NA","","3","","","NA","273.6","0.0"
"-123.193","49.347","WEST VANCOUVER AUT","1108824","BC","4.5","1","NA","13.3","1","-8.3","1","","","NA","3.2","29","NA","0.0","2","","","NA","404.2","0.0"
"-122.947","50.068","WHISTLER ROUNDHOUSE","1108906","BC","-6.0","0","NA","2.5","0","-23.5","0","473.0","0","NA","517.9","0","NA","255.0","29","","","NA","742.8","0.0"
"-122.784","49.018","WHITE ROCK CAMPBELL SCIENTIFIC","1108910","BC","4.8","0","NA","14.4","0","-9.6","0","","","NA","264.4","8","NA","","19","","","NA","409.3","0.0"
"-121.498","49.368","HOPE A","1113542","BC","0.9","0","NA","13.1","0","-15.3","0","","","NA","339.6","2","NA","","20","","","NA","530.0","0.0"
"-121.493","49.370","HOPE AIRPORT","1113543","BC","1.0","0","NA","13.4","0","-15.1","0","","","NA","405.1","0","NA","","25","","","NA","527.0","0.0"
"-121.233","49.267","HOPE SLIDE","1113581","BC","-1.4","0","0.3","7.0","0","-19.0","0","117.0","0","170.0","338.0","0","193.0","22.0","27","","","NA","602.4","0.0"
"-121.934","50.684","LILLOOET","1114619","BC","-1.4","0","NA","16.5","0","-22.4","0","","","NA","34.8","19","NA","","6","","","NA","601.5","0.0"
"-121.582","50.224","LYTTON A","1114738","BC","-0.6","0","NA","14.8","0","-20.8","0","","","NA","111.4","0","NA","","14","","","NA","575.7","0.0"
"-121.582","50.224","LYTTON RCS","1114746","BC","-0.5","0","NA","14.8","0","-20.8","0","","","NA","108.6","0","NA","","17","","","NA","572.0","0.0"
"-120.333","49.673","JELLICOE","1123721","BC","-4.0","0","NA","7.0","0","-25.0","0","61.0","0","NA","107.8","0","NA","45.0","22","","","NA","681.3","0.0"
"-119.378","49.957","KELOWNA","1123939","BC","-2.3","0","NA","7.5","0","-22.3","0","","","NA","23.9","0","NA","","7","","","NA","630.8","0.0"
"-119.400","49.941","KELOWNA UBCO","1123996","BC","-1.7","0","NA","8.4","0","-18.7","0","","","NA","","","NA","0.0","","","","NA","609.2","0.0"
"-120.778","50.113","MERRITT","1125073","BC","-1.5","1","NA","12.6","1","-25.9","1","","","NA","9.0","24","NA","","2","","","NA","585.5","0.0"
"-120.801","50.114","MERRITT STP","1125079","BC","-2.2","0","0.8","13.0","0","-23.0","0","28.0","0","167.0","42.5","0","139.0","0.0","11","","","NA","625.3","0.0"
"-119.545","49.179","OLIVER STP","1125766","BC","-0.1","9","0.6","11.5","9","-15.0","9","34.6","9","NA","56.5","9","NA","0.0","13","","","NA","398.9","0.0"
"-119.441","49.028","OSOYOOS CS","1125852","BC","0.3","0","1.2","10.3","0","-14.1","0","","","NA","","","NA","","","","","NA","548.9","0.0"
"-119.717","49.783","PEACHLAND","1126070","BC","0.5","0","0.7","11.0","0","-16.5","0","70.0","0","294.0","99.8","0","230.0","0.0","21","","","NA","543.6","0.0"
"-119.602","49.463","PENTICTON A","1126146","BC","0.2","1","NA","9.8","1","-15.2","1","32.6","0","NA","37.1","0","NA","","12","","","NA","533.4","0.0"
"-120.513","49.468","PRINCETON A","1126510","BC","-4.1","2","0.9","6.0","2","-24.0","2","37.8","2","NA","54.8","2","NA","40.0","11","","","NA","641.2","0.0"
"-120.513","49.468","PRINCETON A","1126518","BC","-4.9","0","NA","5.8","0","-24.0","0","","","NA","","","NA","","","","","NA","709.1","0.0"
"-119.194","50.223","VERNON AUTO","1128582","BC","-3.3","0","NA","6.4","0","-23.6","0","","","NA","50.9","0","NA","","16","","","NA","661.2","0.0"
"-119.271","50.344","VERNON NORTH","1128583","BC","-3.0","0","-0.2","7.5","0","-21.5","0","75.6","0","186.0","88.4","0","169.0","38.0","19","","","NA","650.4","0.0"
"-119.056","50.359","VERNON SILVER STAR LODGE","1128584","BC","-6.7","0","NA","2.5","0","-29.0","0","170.4","0","NA","170.4","0","NA","171.0","25","","","NA","765.7","0.0"
"-120.510","49.465","PRINCETON CS","112FN0M","BC","-5.4","0","NA","5.5","0","-26.9","0","","","NA","40.7","0","NA","38.0","11","","","NA","724.5","0.0"
"-119.649","49.563","SUMMERLAND CS","112G8L1","BC","0.0","0","1.4","10.5","0","-16.5","0","","","NA","38.2","0","NA","","12","","","NA","558.4","0.0"
"-118.772","49.004","MIDWAY","1135126","BC","-2.4","1","1.8","9.0","1","-20.0","1","60.0","1","NA","67.6","1","NA","7.0","14","","","NA","612.8","0.0"
"-118.228","49.017","BILLINGS","1140876","BC","-1.9","0","1.5","4.0","0","-16.0","0","76.6","0","201.0","117.1","0","237.0","31.0","24","","","NA","615.8","0.0"
"-117.633","49.296","CASTLEGAR A","1141455","BC","-1.1","0","0.5","7.5","0","-14.5","0","107.4","0","194.0","139.1","0","184.0","24.0","21","","","NA","593.0","0.0"
"-117.774","49.343","CASTLEGAR BCHPA DAM","1141457","BC","0.8","6","2.0","8.0","3","-12.0","3","44.0","3","NA","84.5","3","NA","0.0","20","","","NA","429.5","0.0"
"-117.633","49.296","CASTLEGAR A","1141460","BC","-1.3","0","NA","7.5","0","-14.2","0","","","NA","","","NA","","","","","NA","599.5","0.0"
"-116.972","50.239","DUNCAN LAKE DAM","1142574","BC","-1.8","0","1.1","7.0","0","-15.0","0","52.2","0","94.0","120.2","0","129.0","28.0","19","","","NA","613.2","0.0"
"-117.817","50.269","NAKUSP CS","1145297","BC","-1.9","1","NA","6.7","1","-17.1","1","","","NA","154.7","7","NA","66.0","17","","","NA","596.3","0.0"
"-117.206","49.586","NELSON NE","1145442","BC","-0.3","0","NA","8.0","0","-12.0","0","116.6","0","NA","179.0","0","NA","40.0","26","","","NA","566.6","0.0"
"-117.370","49.996","NEW DENVER","1145460","BC","-1.0","0","0.7","8.0","0","-14.5","0","70.0","0","122.0","141.0","0","140.0","22.0","20","","","NA","589.3","0.0"
"-117.305","49.491","NELSON CS","1145M29","BC","-0.2","0","NA","8.2","0","-12.4","0","","","NA","","","NA","13.0","","","","NA","565.2","0.0"
"-117.739","49.112","WARFIELD RCS","1148705","BC","-1.2","1","NA","7.6","1","-13.3","1","","","NA","180.0","1","NA","38.0","25","","","NA","577.1","0.0"
"-116.501","49.082","CRESTON CAMPBELL SCIENTIFIC","114B1F0","BC","-0.1","1","NA","8.0","1","-11.6","1","","","NA","78.8","1","NA","5.0","18","","","NA","544.2","0.0"
"-117.399","49.512","NELSON RIXEN CREEK","114EMDM","BC","-2.2","0","NA","6.0","0","-17.5","0","145.8","0","NA","184.0","0","NA","65.0","24","","","NA","626.1","0.0"
"-115.782","49.612","CRANBROOK A","1152105","BC","-4.7","3","NA","6.6","3","-21.3","3","30.9","0","NA","22.9","0","NA","16.0","7","","","NA","635.7","0.0"
"-115.789","49.618","CRANBROOK AIRPORT AUTO","1152106","BC","-4.8","0","NA","6.4","0","-24.6","0","","","NA","29.2","0","NA","16.0","8","","","NA","706.0","0.0"
"-115.073","49.489","FERNIE","1152850","BC","-3.7","6","1.5","9.0","6","-21.0","6","126.2","6","NA","198.5","6","NA","62.0","22","","","NA","542.1","0.0"
"-115.461","49.524","FT STEELE DANDY CRK","1153034","BC","-5.5","12","NA","6.5","7","-21.0","7","21.0","7","NA","23.0","7","NA","0.0","10","","","NA","446.8","0.0"
"-115.962","49.632","KIMBERLEY PCC","1154203","BC","-5.5","11","1.4","5.5","11","-24.5","11","43.4","11","NA","43.6","11","NA","","11","","","NA","469.3","0.0"
"-116.061","50.631","KOOTENAY NP WEST GATE","1154410","BC","-5.8","2","1.0","5.0","2","-24.0","2","46.6","2","NA","56.0","2","NA","31.0","11","","","NA","690.9","0.0"
"-114.883","49.745","SPARWOOD","1157630","BC","-4.8","0","1.7","6.0","0","-24.0","0","46.6","0","92.0","50.4","0","93.0","6.0","11","","","NA","706.8","0.0"
"-114.884","49.745","SPARWOOD CS","1157631","BC","-5.1","1","NA","6.0","1","-23.9","1","","","NA","","","NA","10.0","","","","NA","691.8","0.0"
"-114.883","49.833","SPARWOOD A","1157635","BC","-5.0","0","NA","6.0","0","-24.0","0","","","NA","","","NA","","","","","NA","711.9","0.0"
"-115.460","49.473","WARDNER KTNY HATCHERY","1158692","BC","-3.2","6","1.9","7.0","6","-21.0","6","24.4","6","NA","24.6","6","NA","","5","","","NA","530.0","0.0"
"-121.281","50.708","ASHCROFT","1160515","BC","-2.3","0","NA","13.8","0","-23.2","0","","","NA","0.6","28","NA","","0","","","NA","630.7","0.0"
"-119.290","52.129","BLUE RIVER A","1160899","BC","-7.6","0","-0.4","8.0","0","-42.0","0","121.8","0","107.0","118.7","0","113.0","88.0","20","","","NA","794.0","0.0"
"-119.293","52.125","BLUE RIVER A","1160902","BC","-8.2","1","NA","4.2","1","-42.1","1","","","NA","","","NA","","","","","NA","784.6","0.0"
"-119.290","52.129","BLUE RIVER CS","1160H99","BC","-8.3","1","NA","4.4","1","-43.3","1","","","NA","109.7","3","NA","81.0","7","","","NA","788.6","0.0"
"-120.082","51.653","CLEARWATER AUTO","1161650","BC","-5.9","1","NA","6.9","1","-35.7","1","","","NA","","","NA","","","","","NA","717.7","0.0"
"-121.685","51.266","CLINTON A","1161662","BC","-8.0","0","NA","8.7","0","-39.5","0","","","NA","13.4","0","NA","","7","","","NA","806.0","0.0"
"-121.505","51.144","CLINTON RCS","1161663","BC","-6.6","0","NA","6.9","0","-33.3","0","","","NA","30.6","0","NA","27.0","9","","","NA","764.0","0.0"
"-120.728","51.030","CRISS CREEK","1162177","BC","-7.0","1","0.5","7.5","1","-37.0","1","44.0","1","NA","47.4","1","NA","36.0","12","","","NA","751.0","0.0"
"-120.449","50.703","KAMLOOPS A","1163781","BC","-2.6","0","NA","10.8","0","-23.9","0","17.1","0","NA","20.9","0","NA","","6","","","NA","637.3","0.0"
"-120.442","50.702","KAMLOOPS AUT","1163842","BC","-2.3","0","NA","10.8","0","-23.7","0","","","NA","33.1","0","NA","","8","","","NA","630.5","0.0"
"-121.217","51.681","100 MILE HOUSE 6NE","1165793","BC","-6.4","0","NA","7.5","0","-40.0","0","49.0","0","NA","50.2","0","NA","33.0","11","","","NA","757.7","0.0"
"-120.800","50.935","RED LAKE","1166658","BC","-6.6","2","-0.3","5.0","2","-30.0","2","73.0","2","NA","73.0","2","NA","71.0","13","","","NA","714.1","0.0"
"-119.350","50.545","SILVER CREEK","1167337","BC","-3.2","0","0.1","8.0","0","-25.5","0","91.6","0","211.0","112.4","0","187.0","51.0","21","","","NA","658.3","0.0"
"-119.911","50.903","SUN PEAKS MOUNTAIN","1168204","BC","-9.5","11","NA","0.5","6","-33.0","6","90.0","6","NA","90.0","6","NA","","15","","","NA","549.0","0.0"
"-119.778","51.576","VAVENBY","1168520","BC","-4.7","0","0.5","11.0","0","-32.0","0","40.2","0","148.0","54.8","0","139.0","11.0","16","","","NA","704.3","0.0"
"-120.172","50.630","KAMLOOPS PRATT ROAD","116C8P0","BC","-3.6","0","NA","10.0","0","-26.0","0","58.8","0","NA","64.8","0","NA","24.0","14","","","NA","670.3","0.0"
"-119.291","50.703","SALMON ARM CS","116FRMN","BC","-2.7","0","-0.1","8.4","0","-24.9","0","","","NA","","","NA","","","","","NA","643.0","0.0"
"-119.883","50.887","SUN PEAKS LOWER","116Q20D","BC","-4.9","7","NA","5.5","4","-32.0","4","100.0","4","NA","100.0","4","NA","","17","","","NA","548.9","0.0"
"-119.918","50.902","SUN PEAKS UPPER","116QK0M","BC","-9.9","8","NA","0.0","5","-31.0","5","102.0","5","NA","102.0","5","NA","193.0","18","","","NA","642.2","0.0"
"-116.982","51.299","GOLDEN A","1173210","BC","-7.0","0","0.9","5.0","0","-26.0","0","73.4","0","162.0","58.6","0","128.0","50.0","13","","","NA","774.9","0.0"
"-116.982","51.299","GOLDEN A","1173214","BC","-7.2","0","NA","5.0","0","-26.3","0","","","NA","","","NA","","","","","NA","781.3","0.0"
"-116.984","51.300","GOLDEN AIRPORT","1173220","BC","-7.1","0","NA","4.7","0","-26.5","0","","","NA","68.3","0","NA","45.0","14","","","NA","776.9","0.0"
"-118.585","52.053","MICA DAM","1175122","BC","-5.2","6","-0.3","4.0","3","-23.0","3","220.0","3","NA","220.0","3","NA","140.0","23","","","NA","579.2","0.0"
"-118.183","50.967","REVELSTOKE A","1176745","BC","-3.4","0","NA","5.5","0","-19.9","0","","","NA","124.0","0","NA","","21","","","NA","663.4","0.0"
"-118.176","50.958","REVELSTOKE AIRPORT AUTO","1176755","BC","-3.4","0","NA","5.6","0","-19.5","0","","","NA","161.6","0","NA","79.0","25","","","NA","662.2","0.0"
"-116.345","51.443","YOHO PARK","11790J1","BC","-9.7","0","NA","1.2","0","-32.2","0","","","NA","","","NA","111.0","","","","NA","857.3","0.0"
"-121.627","55.687","CHETWYND A","1181508","BC","-15.4","0","-5.2","6.0","0","-38.0","0","63.6","0","233.0","33.6","0","159.0","20.0","6","","","NA","1034.0","0.0"
"-121.627","55.687","CHETWYND A","1181513","BC","-15.4","0","NA","6.0","0","-38.2","0","","","NA","","","NA","","","","","NA","1034.2","0.0"
"-120.183","55.742","DAWSON CREEK A","1182289","BC","-15.3","0","NA","7.3","0","-41.4","0","","","NA","20.1","1","NA","","6","","","NA","1032.6","0.0"
"-120.740","56.238","FORT ST. JOHN A","1183001","BC","-15.5","0","NA","4.4","0","-36.1","0","37.7","0","NA","37.7","0","NA","20.0","10","","","NA","1037.4","0.0"
"-123.133","55.299","MACKENZIE","1184791","BC","-7.9","5","NA","4.4","5","-30.1","5","","","NA","81.8","2","NA","","12","","","NA","672.6","0.0"
"-123.138","55.305","MACKENZIE AIRPORT AUTO","1184793","BC","-10.5","0","NA","4.3","0","-36.1","0","","","NA","","","NA","97.0","","","","NA","883.5","0.0"
"-130.031","58.422","DEASE LAKE A","1192341","BC","-18.5","0","NA","5.4","0","-41.4","0","","","NA","4.7","0","NA","","1","","","NA","1131.0","0.0"
"-122.597","58.836","FORT NELSON A","1192946","BC","-23.0","1","NA","0.9","1","-40.5","1","31.8","0","NA","26.6","0","NA","40.0","8","","","NA","1228.6","0.0"
"-122.574","58.841","FORT NELSON","1192948","BC","-22.8","0","NA","1.2","0","-40.0","0","","","NA","21.9","0","NA","36.0","6","","","NA","1263.7","0.0"
"-130.025","58.426","DEASE LAKE (AUT)","119BLM0","BC","-18.5","2","NA","5.4","2","-41.3","2","","","NA","6.6","2","NA","50.0","2","","","NA","1058.2","0.0"
"-133.700","59.567","ATLIN","1200560","BC","-15.2","0","-2.4","2.0","0","-34.0","0","47.4","0","107.0","47.4","0","104.0","34.0","11","","","NA","1028.9","0.0"
"-136.367","59.450","PLEASANT CAMP","1206197","BC","-11.0","1","-3.1","2.0","1","-27.5","1","186.2","1","NA","186.2","1","NA","0.0","14","","","NA","868.9","0.0"
"-140.869","62.410","BEAVER CREEK A","2100155","YT","-31.8","0","NA","-7.0","0","-46.9","0","","","NA","","","NA","","","","","NA","1543.5","0.0"
"-139.040","61.371","BURWASH A","2100181","YT","-26.9","0","NA","1.0","0","-44.6","0","","","NA","9.9","0","NA","","3","","","NA","1390.9","0.0"
"-139.017","61.367","BURWASH AIRPORT AUTO","2100184","YT","-27.0","0","NA","1.0","0","-44.8","0","","","NA","5.9","0","NA","16.0","1","","","NA","1395.2","0.0"
"-136.192","62.115","CARMACKS CS","2100301","YT","-29.4","0","NA","-0.1","0","-49.8","0","","","NA","","","NA","44.0","","","","NA","1470.6","0.0"
"-139.130","64.042","DAWSON CITY A","2100407","YT","-31.3","0","NA","-1.4","0","-47.6","0","","","NA","","","NA","","","","","NA","1527.8","0.0"
"-133.376","62.208","FARO (AUT)","2100518","YT","-26.1","0","NA","1.1","0","-47.5","0","","","NA","","","NA","","","","","NA","1367.7","0.0"
"-133.373","62.207","FARO A","2100527","YT","-26.2","0","NA","1.0","0","-47.3","0","","","NA","","","NA","","","","","NA","1370.1","0.0"
"-137.580","60.773","HAINES JUNCTION","2100630","YT","-11.7","26","NA","0.5","26","-27.4","26","","","NA","","","NA","34.0","","","","NA","148.3","0.0"
"-138.913","69.568","HERSCHEL ISLAND","2100636","YT","-25.4","1","NA","-9.4","1","-37.3","1","","","NA","","","NA","","","","","NA","1303.1","0.0"
"-140.150","69.164","IVVAVIK NAT. PARK","2100660","YT","-28.1","3","NA","-13.5","3","-40.5","3","","","NA","","","NA","19.0","","","","NA","1289.9","0.0"
"-130.037","63.244","MACMILLAN PASS","2100693","YT","-21.8","1","NA","-4.1","1","-38.9","1","","","NA","1.2","1","NA","105.0","0","","","NA","1193.5","0.0"
"-140.848","68.801","MARGARET LAKE","2100697","YT","-29.5","2","NA","-16.1","2","-38.6","2","","","NA","","","NA","","","","","NA","1377.1","0.0"
"-135.868","63.616","MAYO A","2100701","YT","-30.6","1","NA","-1.1","1","-49.6","1","51.4","0","NA","25.2","0","NA","94.0","5","","","NA","1459.2","0.0"
"-135.869","63.617","MAYO A","2100702","YT","-30.3","0","NA","-1.1","0","-49.6","0","","","NA","","","NA","","","","","NA","1498.2","0.0"
"-139.839","67.571","OLD CROW RCS","2100805","YT","-33.1","0","NA","-19.9","0","-45.2","0","","","NA","18.4","0","NA","5.0","6","","","NA","1583.5","0.0"
"-139.840","67.570","OLD CROW A","2100807","YT","-33.2","0","NA","-20.0","0","-45.3","0","","","NA","","","NA","","","","","NA","1585.7","0.0"
"-137.050","61.033","OTTER FALLS NCPC","2100840","YT","-22.1","5","-5.9","-1.0","5","-37.0","5","8.0","5","NA","8.0","5","NA","0.0","4","","","NA","1041.8","0.0"
"-136.218","66.981","ROCK RIVER","2100935","YT","-25.7","3","NA","-11.6","3","-34.4","3","","","NA","","","NA","","","","","NA","1223.8","0.0"
"-137.217","68.950","SHINGLE POINT A","2100950","YT","-25.8","3","NA","-14.5","3","-40.9","3","","","NA","","","NA","","","","","NA","1227.7","0.0"
"-139.127","64.061","DAWSON","2100LRP","YT","-31.3","0","NA","-1.4","0","-47.7","0","","","NA","34.6","0","NA","73.0","8","","","NA","1528.3","0.0"
"-135.573","60.946","TAKHINI RIVER RANCH","2101095","YT","-24.9","0","-6.6","4.0","0","-46.0","0","15.0","0","102.0","15.0","0","102.0","0.0","10","","","NA","1329.0","0.0"
"-132.733","60.167","TESLIN (AUT)","2101102","YT","-20.0","0","NA","4.0","0","-43.8","0","","","NA","","","NA","39.0","","","","NA","1178.0","0.0"
"-132.742","60.173","TESLIN A","2101106","YT","-20.0","0","NA","4.2","0","-43.4","0","","","NA","","","NA","","","","","NA","1178.0","0.0"
"-128.823","60.116","WATSON LAKE A","2101201","YT","-25.7","0","NA","1.3","0","-48.7","0","24.4","0","NA","20.3","0","NA","49.0","6","","","NA","1353.4","0.0"
"-128.823","60.116","WATSON LAKE A","2101202","YT","-25.7","0","NA","1.3","0","-48.7","0","","","NA","","","NA","","","","","NA","1353.4","0.0"
"-128.832","60.116","WATSON LAKE (AUT)","2101204","YT","-26.1","2","NA","1.8","2","-49.2","2","","","NA","15.6","2","NA","45.0","5","","","NA","1280.1","0.0"
"-135.067","60.709","WHITEHORSE A","2101303","YT","-21.9","0","NA","1.8","0","-40.6","0","","","NA","","","NA","","","","","NA","1235.8","0.0"
"-135.098","60.733","WHITEHORSE AUTO","2101310","YT","-21.4","0","NA","1.4","0","-40.7","0","","","NA","16.8","0","NA","25.0","6","","","NA","1221.6","0.0"
"-135.006","68.223","AKLAVIK A","2200105","NT","-28.7","0","NA","-16.8","0","-41.6","0","","","NA","","","NA","","","","","NA","1447.9","0.0"
"-124.717","70.167","CAPE PARRY A","2200675","NT","-25.9","1","NA","-15.5","1","-35.4","1","","","NA","","","NA","","","","","NA","1315.6","0.0"
"-126.123","67.021","COLVILLE LAKE","2200824","NT","-29.4","21","NA","-16.5","21","-39.7","21","","","NA","4.1","21","NA","","3","","","NA","473.5","0.0"
"-126.129","67.021","COLVILLE LAKE A","2200827","NT","-28.8","1","NA","-16.4","1","-39.9","1","","","NA","14.9","1","NA","","7","","","NA","1405.2","0.0"
"-123.433","65.209","DELINE CS","2201022","NT","-27.1","0","NA","-15.3","0","-39.3","0","","","NA","25.5","0","NA","50.0","5","","","NA","1397.2","0.0"
"-123.436","65.211","DELINE A","2201023","NT","-27.0","0","NA","-15.4","0","-39.4","0","","","NA","","","NA","","","","","NA","1395.3","0.0"
"-124.468","61.257","DEADMEN VALLEY","22010H0","NT","-27.8","7","NA","1.4","7","-47.3","7","","","NA","","","NA","38.0","","","","NA","1099.7","0.0"
"-128.648","66.241","FORT GOOD HOPE A","2201406","NT","-30.4","2","NA","-16.3","2","-44.7","2","","","NA","","","NA","","","","","NA","1403.9","0.0"
"-128.644","66.242","FORT GOOD HOPE CS","2201450","NT","-30.0","0","NA","-16.3","0","-44.9","0","","","NA","23.3","0","NA","47.0","7","","","NA","1487.8","0.0"
"-123.467","60.233","FORT LIARD","2201579","NT","-26.2","0","NA","-10.2","0","-41.9","0","","","NA","8.1","0","NA","57.0","2","","","NA","1371.6","0.0"
"-123.470","60.236","FORT LIARD A","2201581","NT","-26.6","0","NA","-10.5","0","-42.0","0","","","NA","","","NA","","","","","NA","1382.9","0.0"
"-134.860","67.407","FORT MCPHERSON A","2201606","NT","-29.8","0","NA","-16.4","0","-43.7","0","","","NA","","","NA","","","","","NA","1480.3","0.0"
"-125.569","64.910","TULITA A","2201705","NT","-28.1","1","NA","-17.6","1","-42.8","1","","","NA","","","NA","","","","","NA","1382.0","0.0"
"-117.602","61.317","FORT PROVIDENCE","2201799","NT","-25.2","0","NA","-11.0","0","-42.5","0","","","NA","","","NA","","","","","NA","1339.8","0.0"
"-109.168","62.711","FORT RELIANCE (AUT)","2201903","NT","-24.1","1","NA","-2.3","1","-43.2","1","","","NA","13.7","1","NA","47.0","4","","","NA","1262.8","0.0"
"-113.690","61.181","FORT RESOLUTION A","2202010","NT","-23.4","0","NA","-3.2","0","-42.4","0","","","NA","","","NA","","","","","NA","1282.6","0.0"
"-121.237","61.760","FORT SIMPSON CLIMATE","2202102","NT","-27.2","0","NA","-12.5","0","-42.2","0","","","NA","18.5","0","NA","24.0","7","","","NA","1401.0","0.0"
"-121.237","61.760","FORT SIMPSON A","2202103","NT","-27.2","1","NA","-12.6","1","-42.3","1","22.0","0","NA","10.1","0","NA","37.0","4","","","NA","1355.1","0.0"
"-121.237","61.760","FORT SIMPSON A","2202104","NT","-27.3","0","NA","-12.6","0","-42.3","0","","","NA","","","NA","","","","","NA","1402.8","0.0"
"-111.962","60.020","FORT SMITH A","2202201","NT","-20.9","0","NA","-0.3","0","-40.2","0","54.2","0","NA","29.9","0","NA","50.0","5","","","NA","1206.9","0.0"
"-111.929","60.026","FORT SMITH CLIMATE","2202202","NT","-20.4","0","NA","-0.2","0","-38.8","0","","","NA","30.3","0","NA","49.0","5","","","NA","1190.1","0.0"
"-111.962","60.020","FORT SMITH A","2202203","NT","-20.9","0","NA","-0.3","0","-40.2","0","","","NA","","","NA","","","","","NA","1206.9","0.0"
"-115.783","60.840","HAY RIVER A","2202401","NT","-23.6","0","NA","-3.5","0","-41.2","0","31.4","0","NA","22.9","0","NA","27.0","5","","","NA","1289.1","0.0"
"-115.777","60.839","HAY RIVER CLIMATE","2202402","NT","-23.2","0","NA","-3.3","0","-40.4","0","","","NA","23.5","0","NA","28.0","5","","","NA","1275.8","0.0"
"-115.783","60.840","HAY RIVER A","2202403","NT","-23.6","0","NA","-3.5","0","-41.2","0","","","NA","","","NA","","","","","NA","1289.1","0.0"
"-113.726","61.920","INNER WHALEBACKS","2202560","NT","","","NA","","","","","","","NA","5.6","3","NA","","1","","","NA","",""
"-133.483","68.304","INUVIK A","2202571","NT","-27.6","0","NA","-15.2","0","-39.2","0","","","NA","","","NA","","","","","NA","1414.8","0.0"
"-133.517","68.317","INUVIK CLIMATE","2202578","NT","-26.8","0","NA","-15.4","0","-39.0","0","","","NA","17.9","0","NA","36.0","7","","","NA","1390.1","0.0"
"-117.245","63.134","LAC LA MARTRE","2202678","NT","-27.9","0","NA","-14.3","0","-46.5","0","","","NA","13.3","0","NA","33.0","6","","","NA","1421.4","0.0"
"-110.682","62.418","LUTSELK'E A","2202690","NT","-24.6","0","NA","-3.0","0","-43.8","0","","","NA","","","NA","","","","","NA","1319.5","0.0"
"-126.799","65.281","NORMAN WELLS A","2202801","NT","-28.7","0","NA","-16.5","0","-44.4","0","33.6","0","NA","20.3","0","NA","37.0","7","","","NA","1447.9","0.0"
"-126.753","65.288","NORMAN WELLS CLIMATE","2202810","NT","-28.5","1","NA","-16.6","1","-44.1","1","","","NA","24.9","25","NA","54.0","6","","","NA","1395.4","0.0"
"-124.076","69.361","PAULATUK A","2203055","NT","-25.0","0","NA","-15.0","0","-38.4","0","","","NA","","","NA","","","","","NA","1333.1","0.0"
"-124.083","69.358","PAULATUK","2203058","NT","-24.7","1","NA","-14.9","1","-38.2","1","","","NA","20.0","1","NA","6.0","9","","","NA","1282.2","0.0"
"-135.444","69.633","PELLY ISLAND","2203095","NT","-26.2","4","NA","-12.1","4","-35.4","4","","","NA","","","NA","","","","","NA","1192.2","0.0"
"-127.209","61.963","RABBIT KETTLE","2203342","NT","-30.1","8","NA","-10.8","8","-50.0","8","","","NA","","","NA","55.0","","","","NA","1106.0","0.0"
"-117.328","64.112","RAE LAKES","2203359","NT","-28.8","0","NA","-14.4","0","-46.8","0","","","NA","16.0","0","NA","47.0","7","","","NA","1451.6","0.0"
"-117.310","64.116","GAMETI A","2203365","NT","-29.0","0","NA","-14.5","0","-47.3","0","","","NA","","","NA","","","","","NA","1456.9","0.0"
"-133.026","69.433","TUKTOYAKTUK A","2203911","NT","-26.6","0","NA","-14.1","0","-36.9","0","","","NA","","","NA","","","","","NA","1383.6","0.0"
"-133.017","69.433","TUKTOYAKTUK","2203914","NT","-26.5","1","NA","-14.4","0","-35.2","1","","","NA","","","NA","","","","","NA","1335.0","0.0"
"-122.359","69.199","TUKTUT NOGAIT","2203918","NT","-25.2","3","NA","-13.5","3","-37.5","3","","","NA","","","NA","","","","","NA","1210.5","0.0"
"-114.077","64.191","WEKWEETI A","2203980","NT","-27.8","0","NA","-7.4","0","-48.4","0","","","NA","7.3","0","NA","","4","","","NA","1418.5","0.0"
"-123.437","63.210","WRIGLEY A","2204005","NT","-28.9","0","NA","-17.6","0","-43.7","0","","","NA","","","NA","","","","","NA","1452.7","0.0"
"-114.440","62.463","YELLOWKNIFE A","2204101","NT","-26.4","4","NA","-6.0","4","-43.8","4","12.4","0","NA","6.2","0","NA","35.0","3","","","NA","1199.2","0.0"
"-114.383","62.450","YELLOWKNIFE-HENDERSON","2204110","NT","-3.6","0","NA","10.5","0","-19.5","0","33.0","0","NA","68.0","0","NA","10.0","10","","","NA","670.9","0.0"
"-123.742","61.242","YOHIN","2204300","NT","-25.4","9","NA","-6.6","9","-40.2","9","","","NA","","","NA","","","","","NA","955.0","0.0"
"-130.228","67.179","LITTLE CHICAGO","220B6Q3","NT","-30.5","2","NA","-18.4","2","-44.4","2","","","NA","","","NA","","","","","NA","1406.6","0.0"
"-121.239","60.441","SAMBAA K'E","220CQHR","NT","-25.8","0","NA","-3.1","0","-44.1","0","","","NA","32.2","0","NA","38.0","7","","","NA","1358.1","0.0"
"-122.851","61.125","LINDBURG LANDING","220N003","NT","-27.5","3","NA","-14.2","3","-43.6","3","","","NA","29.0","3","NA","58.0","9","","","NA","1274.8","0.0"
"-133.502","68.746","TRAIL VALLEY","220N005","NT","-26.7","3","NA","-12.6","3","-36.6","3","","","NA","11.4","3","NA","21.0","5","","","NA","1251.6","0.0"
"-94.072","61.094","ARVIAT A","2300427","NU","-22.6","0","NA","-2.1","0","-37.2","0","","","NA","0.3","0","NA","","0","","","NA","1259.3","0.0"
"-96.000","64.317","BAKER LAKE CLIMATE","2300501","NU","-26.6","0","NA","-4.9","0","-37.9","0","","","NA","9.4","0","NA","4.0","3","","","NA","1384.1","0.0"
"-96.078","64.299","BAKER LAKE A","2300503","NU","-26.2","4","NA","-4.8","4","-37.5","4","11.2","0","NA","11.2","0","NA","22.0","5","","","NA","1194.2","0.0"
"-96.078","64.299","BAKER LAKE A","2300504","NU","-26.6","0","NA","-4.8","0","-38.2","0","","","NA","","","NA","","","","","NA","1381.1","0.0"
"-108.015","66.838","BATHURST INLET","2300551","NU","-24.5","2","NA","-11.7","2","-37.0","2","","","NA","11.4","2","NA","18.0","4","","","NA","1232.8","0.0"
"-90.731","63.347","CHESTERFIELD INLET A","2300710","NU","-29.0","19","NA","-13.2","19","-38.5","19","","","NA","","","NA","","","","","NA","564.3","0.0"
"-115.144","67.817","KUGLUKTUK A","2300903","NU","-25.8","0","NA","-14.8","0","-36.9","0","35.0","0","NA","6.8","0","NA","22.0","2","","","NA","1356.3","0.0"
"-115.135","67.817","KUGLUKTUK CLIMATE","2300904","NU","-25.6","0","NA","-14.7","0","-36.9","0","","","NA","7.9","0","NA","6.0","2","","","NA","1352.6","0.0"
"-115.144","67.817","KUGLUKTUK A","2300905","NU","-25.8","0","NA","-14.8","0","-36.9","0","","","NA","","","NA","","","","","NA","1356.3","0.0"
"-83.359","64.193","CORAL HARBOUR A","2301002","NU","-27.8","11","NA","-7.0","11","-37.5","11","16.4","7","NA","16.0","7","NA","53.0","4","","","NA","916.5","0.0"
"-83.359","64.193","CORAL HARBOUR A","2301004","NU","-27.1","0","NA","-7.0","0","-39.6","0","","","NA","","","NA","","","","","NA","1397.4","0.0"
"-83.350","64.183","CORAL HARBOUR RCS","2301010","NU","-26.4","1","NA","-6.7","1","-38.2","1","","","NA","19.3","1","NA","41.0","6","","","NA","1332.8","0.0"
"-100.884","61.132","ENNADAI LAKE (AUT)","2301102","NU","-33.6","26","NA","-15.7","26","-39.1","26","","","NA","0.2","27","NA","","0","","","NA","258.1","0.0"
"-94.067","61.100","ARVIAT CLIMATE","2301153","NU","-23.8","0","NA","-2.0","0","-38.6","0","","","NA","4.3","0","NA","29.0","1","","","NA","1295.1","0.0"
"-95.850","68.636","GJOA HAVEN A","2302337","NU","-30.2","0","NA","-14.3","0","-42.1","0","","","NA","3.1","0","NA","","1","","","NA","1494.7","0.0"
"-95.850","68.636","GJOA HAVEN CLIMATE","2302340","NU","-30.4","0","NA","-14.3","0","-42.6","0","","","NA","0.9","0","NA","77.0","0","","","NA","1500.7","0.0"
"-89.796","68.538","KUGAARUK CLIMATE","2303094","NU","-29.0","0","NA","-14.2","0","-40.5","0","","","NA","5.2","0","NA","6.0","0","","","NA","1458.3","0.0"
"-89.805","68.536","KUGAARUK A","2303095","NU","-29.1","0","NA","-14.2","0","-41.0","0","","","NA","","","NA","","","","","NA","1461.4","0.0"
"-92.115","62.811","RANKIN INLET A","2303405","NU","-26.2","0","NA","-4.7","0","-38.0","0","8.0","0","NA","7.6","0","NA","31.0","4","","","NA","1370.2","0.0"
"-102.429","65.100","ROBERTSON LAKE (AUT)","2303610","NU","-27.5","0","NA","-6.8","0","-40.9","0","","","NA","20.7","0","NA","51.0","9","","","NA","1409.4","0.0"
"-79.250","56.537","SANIKILUAQ A","2303660","NU","-19.0","0","NA","-6.2","0","-31.1","0","","","NA","","","NA","","","","","NA","1146.4","0.0"
"-79.260","56.537","SANIKILUAQ","2303668","NU","-18.6","4","NA","-6.1","4","-31.7","4","","","NA","6.5","4","NA","14.0","1","","","NA","989.2","0.0"
"-93.433","68.817","SHEPHERD BAY A","2303685","NU","-31.6","1","NA","-13.8","1","-47.7","1","","","NA","","","NA","","","","","NA","1487.7","0.0"
"-92.598","62.240","WHALE COVE A","2303990","NU","-25.7","1","NA","-4.6","1","-36.7","1","","","NA","","","NA","","","","","NA","1310.7","0.0"
"-111.246","65.755","LUPIN CS","230N002","NU","-26.8","5","NA","-11.1","5","-42.3","5","","","NA","2.4","4","NA","45.0","0","","","NA","1165.4","0.0"
"-62.333","82.500","ALERT CLIMATE","2400305","NU","-33.9","3","NA","-20.9","3","-43.4","3","","","NA","6.8","3","NA","2.0","1","","","NA","1453.8","0.0"
"-62.333","82.500","ALERT UA","2400306","NU","","","NA","","","","","7.6","0","NA","2.8","0","NA","8.0","1","","","NA","",""
"-85.047","73.006","ARCTIC BAY","2400399","NU","-31.4","0","NA","-23.6","0","-37.9","0","","","NA","","","NA","","","","","NA","1530.0","0.0"
"-85.012","72.993","ARCTIC BAY CS","2400404","NU","-32.6","0","NA","-23.7","0","-41.1","0","","","NA","4.0","0","NA","4.0","2","","","NA","1568.7","0.0"
"-64.033","67.547","QIKIQTARJUAQ CLIMATE","2400573","NU","-27.2","0","NA","-13.6","0","-38.1","0","","","NA","1.9","0","NA","36.0","0","","","NA","1402.6","0.0"
"-64.032","67.547","QIKIQTARJUAQ A","2400577","NU","-27.2","0","NA","-13.6","0","-37.7","0","","","NA","0.0","0","NA","","0","","","NA","1401.5","0.0"
"-105.137","69.108","CAMBRIDGE BAY A","2400601","NU","-29.3","0","NA","-15.6","0","-41.0","0","0.0","6","NA","0.0","6","NA","16.0","0","","","NA","1466.2","0.0"
"-105.138","69.108","CAMBRIDGE BAY GSN","2400602","NU","-29.0","0","NA","-15.2","0","-40.6","0","","","NA","5.9","0","NA","2.0","0","","","NA","1456.0","0.0"
"-105.137","69.108","CAMBRIDGE BAY A","2400603","NU","-29.3","0","NA","-15.6","0","-41.0","0","","","NA","","","NA","","","","","NA","1466.2","0.0"
"-76.530","64.231","CAPE DORSET CLIMATE","2400636","NU","-21.7","0","NA","-7.9","0","-31.8","0","","","NA","19.3","0","NA","","7","","","NA","1231.1","0.0"
"-76.525","64.230","CAPE DORSET A","2400637","NU","-21.6","0","NA","-7.8","0","-31.5","0","","","NA","0.3","0","NA","","0","","","NA","1226.2","0.0"
"-61.383","66.650","CAPE DYER","2400650","NU","-28.0","17","NA","-9.1","17","-40.8","17","","","NA","","","NA","","","","","NA","643.3","0.0"
"-78.293","73.668","CAPE LIVERPOOL","2400675","NU","-29.2","0","NA","-20.5","0","-38.7","0","","","NA","2.8","1","NA","26.0","0","","","NA","1462.5","0.0"
"-107.823","69.036","CAPE PEEL WEST","2400697","NU","-28.4","3","NA","-17.0","3","-38.2","3","","","NA","","","NA","","","","","NA","1298.4","0.0"
"-68.517","70.483","CLYDE RIVER CLIMATE","2400802","NU","-29.4","0","NA","-20.2","0","-42.8","0","","","NA","4.5","0","NA","56.0","2","","","NA","1470.9","0.0"
"-68.517","70.486","CLYDE RIVER A","2400804","NU","-29.3","0","NA","-20.2","0","-41.7","0","","","NA","2.4","0","NA","","1","","","NA","1466.5","0.0"
"-85.934","79.989","EUREKA CLIMATE","2401199","NU","-39.7","0","NA","-24.3","0","-49.0","0","","","NA","2.0","0","NA","3.0","0","","","NA","1788.6","0.0"
"-85.812","79.994","EUREKA A","2401208","NU","-39.3","0","NA","-24.6","0","-49.2","0","","","NA","","","NA","","","","","NA","1775.7","0.0"
"-94.198","72.018","FORT ROSS","2402051","NU","-27.9","3","NA","-12.2","3","-36.5","3","","","NA","9.5","3","NA","","3","","","NA","1285.9","0.0"
"-100.267","70.633","GATESHEAD ISLAND","2402332","NU","-31.1","4","NA","-13.0","4","-42.0","4","","","NA","3.8","4","NA","","0","","","NA","1327.0","0.0"
"-82.902","76.423","GRISE FIORD CLIMATE","2402351","NU","-33.2","0","NA","-19.5","0","-42.1","0","","","NA","1.2","0","NA","","0","","","NA","1588.0","0.0"
"-81.244","68.776","HALL BEACH CLIMATE","2402353","NU","-30.3","1","NA","-15.3","1","-40.3","1","","","NA","5.9","1","NA","29.0","1","","","NA","1450.2","0.0"
"-81.243","68.776","HALL BEACH A","2402354","NU","-30.4","0","NA","-15.2","0","-40.1","0","","","NA","0.8","0","NA","","0","","","NA","1501.3","0.0"
"-82.908","76.426","GRISE FIORD A","2402360","NU","-32.4","0","NA","-20.4","0","-40.5","0","","","NA","","","NA","","","","","NA","1562.0","0.0"
"-81.816","69.365","IGLOOLIK A","2402546","NU","-30.2","1","NA","-16.0","1","-38.2","1","","","NA","","","NA","","","","","NA","1446.7","0.0"
"-68.544","63.747","IQALUIT CLIMATE","2402592","NU","-26.4","1","NA","-10.8","1","-39.6","1","","","NA","0.0","25","NA","18.0","0","","","NA","1330.5","0.0"
"-68.556","63.757","IQALUIT A","2402596","NU","-26.3","0","NA","-10.0","0","-39.4","0","","","NA","","","NA","","","","","NA","1374.5","0.0"
"-103.554","78.792","ISACHSEN (AUT)","2402604","NU","-34.7","4","NA","-12.9","4","-47.4","4","","","NA","0.6","4","NA","7.0","0","","","NA","1423.0","0.0"
"-69.877","62.848","KIMMIRUT A","2402673","NU","-22.7","0","NA","-4.8","0","-35.1","0","","","NA","","","NA","","","","","NA","1262.4","0.0"
"-65.711","66.143","PANGNIRTUNG","2403049","NU","-28.2","2","NA","-13.0","2","-35.3","2","","","NA","2.1","2","NA","28.0","0","","","NA","1339.6","0.0"
"-65.714","66.145","PANGNIRTUNG A","2403054","NU","-28.3","2","NA","-13.0","2","-35.2","2","","","NA","","","NA","","","","","NA","1341.5","0.0"
"-77.958","72.693","POND INLET CLIMATE","2403204","NU","-35.3","0","NA","-26.7","0","-45.5","0","","","NA","2.5","0","NA","27.0","1","","","NA","1652.3","0.0"
"-77.969","72.689","POND INLET A","2403206","NU","-34.7","0","NA","-26.6","0","-44.6","0","","","NA","0.4","0","NA","","0","","","NA","1632.4","0.0"
"-105.715","75.377","REA POINT","2403450","NU","-28.9","20","NA","-11.5","20","-40.1","20","","","NA","","","NA","","","","","NA","516.0","0.0"
"-86.225","66.521","NAUJAAT A","2403495","NU","-27.6","0","NA","-13.9","0","-37.8","0","","","NA","","","NA","","","","","NA","1414.6","0.0"
"-94.969","74.717","RESOLUTE BAY A","2403497","NU","-32.3","3","NA","-15.0","3","-42.7","3","","","NA","","","NA","","","","","NA","1407.2","0.0"
"-94.969","74.717","RESOLUTE BAY A","2403498","NU","-32.3","7","NA","-15.0","7","-42.7","7","5.4","12","NA","5.4","0","NA","24.0","3","","","NA","1207.1","0.0"
"-94.983","74.716","RESOLUTE CS","2403505","NU","-32.8","0","NA","-14.9","0","-44.2","0","","","NA","","","NA","5.0","","","","NA","1574.8","0.0"
"-79.033","69.083","ROWLEY ISLAND","2403625","NU","-29.7","1","NA","-14.9","1","-40.6","1","","","NA","","","NA","","","","","NA","1429.5","0.0"
"-105.296","73.766","STEFANSSON ISLAND","2403756","NU","-32.2","8","NA","-13.6","8","-43.2","8","","","NA","4.0","8","NA","12.0","1","","","NA","1154.7","0.0"
"-91.816","81.161","SVARTEVAEG","2403833","NU","-34.8","0","NA","-23.5","0","-43.6","0","","","NA","3.0","0","NA","","0","","","NA","1636.9","0.0"
"-93.577","69.547","TALOYOAK A","2403855","NU","-32.0","12","NA","-19.1","12","-42.0","12","14.0","9","NA","11.8","8","NA","40.0","5","","","NA","949.7","0.0"
"-93.577","69.547","TALOYOAK A","2403856","NU","-30.8","0","NA","-14.2","0","-42.7","0","","","NA","","","NA","","","","","NA","1512.2","0.0"
"-89.446","65.879","WAGER BAY (AUT)","2403945","NU","-26.5","0","NA","-10.7","0","-37.0","0","","","NA","14.9","0","NA","10.0","4","","","NA","1380.4","0.0"
"-112.161","74.457","CAPE PROVIDENCE","2501419","NT","-28.6","2","NA","-12.5","2","-40.4","2","","","NA","10.1","2","NA","","2","","","NA","1350.2","0.0"
"-117.806","70.763","ULUKHAKTOK A","2502503","NT","-27.0","1","NA","-15.6","1","-36.6","1","","","NA","","","NA","","","","","NA","1350.2","0.0"
"-117.800","70.761","HOLMAN CS","2502505","NT","-26.6","0","NA","-15.7","0","-36.6","0","","","NA","13.2","0","NA","","5","","","NA","1382.1","0.0"
"-125.254","71.993","SACHS HARBOUR CLIMATE","2503648","NT","-27.1","0","NA","-15.6","0","-36.8","0","","","NA","3.3","0","NA","22.0","0","","","NA","1397.5","0.0"
"-125.241","71.994","SACHS HARBOUR A","2503649","NT","-27.3","0","NA","-15.0","0","-38.0","0","","","NA","","","NA","","","","","NA","1405.3","0.0"
"-119.538","73.231","THOMSEN RIVER","2503886","NT","-34.2","6","NA","-15.7","6","-51.8","6","","","NA","9.0","7","NA","34.0","3","","","NA","1305.8","0.0"
"-119.347","76.238","MOULD BAY CS","250M001","NT","-33.0","4","NA","-9.6","4","-45.9","4","","","NA","2.8","5","NA","40.0","1","","","NA","1377.8","0.0"
"-112.967","54.283","ABEE AGDM","3010010","AB","-16.7","0","NA","2.5","0","-45.0","0","","","NA","8.7","16","NA","","3","","","NA","1075.4","0.0"
"-111.181","53.113","ALBERT HALL AGCM","3010060","AB","-15.3","0","NA","3.0","0","-39.8","0","","","NA","13.1","0","NA","","6","","","NA","1032.0","0.0"
"-111.779","52.315","ALLIANCE AGCM","3010162","AB","-13.1","0","NA","5.8","0","-38.4","0","","","NA","3.5","0","NA","","0","","","NA","965.3","0.0"
"-112.279","53.917","ANDREW AGDM","3010237","AB","-15.5","2","NA","2.7","2","-42.6","2","","","NA","9.9","1","NA","","3","","","NA","970.2","0.0"
"-111.465","52.582","BELLSHILL AGCM","3010650","AB","-13.5","7","NA","3.4","7","-34.9","7","","","NA","5.0","7","NA","","3","","","NA","757.1","0.0"
"-110.101","52.124","BODO AGDM","3010730","AB","-13.0","0","NA","6.4","0","-38.7","0","","","NA","6.5","1","NA","","3","","","NA","961.5","0.0"
"-114.441","53.089","BRETON PLOTS","3010816","AB","-11.6","0","NA","9.8","0","-40.0","0","","","NA","22.3","0","NA","","8","","","NA","918.8","0.0"
"-113.922","53.931","BUSBY AGCM","3010979","AB","-15.3","0","NA","4.1","0","-43.3","0","","","NA","16.6","0","NA","","4","","","NA","1033.6","0.0"
"-110.510","52.334","CADOGAN AGCM","3010992","AB","-13.3","0","NA","5.0","0","-39.4","0","","","NA","8.1","0","NA","","3","","","NA","970.2","0.0"
"-112.817","53.050","CAMROSE","3011240","AB","-14.5","0","-2.9","4.5","0","-39.8","0","","","NA","14.4","0","63.0","26.0","5","","","NA","1006.2","0.0"
"-110.713","51.937","CONSORT AGDM","3011815","AB","-13.5","0","NA","3.0","0","-38.2","0","","","NA","5.2","0","NA","","1","","","NA","976.8","0.0"
"-111.449","52.074","CORONATION CLIMATE","3011887","AB","-14.2","0","NA","4.3","0","-40.4","0","","","NA","5.2","0","NA","10.0","2","","","NA","998.5","0.0"
"-113.903","52.733","CRESTOMERE AGCM","3011892","AB","-12.3","0","NA","9.3","0","-42.8","0","","","NA","6.7","3","NA","","1","","","NA","940.1","0.0"
"-113.176","52.183","DELBURNE AGCM","3012050","AB","-11.8","0","NA","8.0","0","-38.1","0","","","NA","4.5","0","NA","","2","","","NA","922.6","0.0"
"-110.588","53.659","DEWBERRY AGCM","3012073","AB","-15.3","0","NA","4.0","0","-38.9","0","","","NA","11.9","1","NA","","4","","","NA","1032.1","0.0"
"-110.433","52.778","EDGERTON AGCM","3012192","AB","-14.3","0","NA","3.4","0","-38.5","0","","","NA","8.8","0","NA","","3","","","NA","1001.4","0.0"
"-113.606","53.307","EDMONTON INTERNATIONAL CS","3012206","AB","-15.1","0","NA","2.1","0","-42.2","0","","","NA","15.0","0","NA","","3","","","NA","1027.6","0.0"
"-113.517","53.573","EDMONTON BLATCHFORD","3012209","AB","-12.4","0","NA","4.6","0","-37.6","0","","","NA","21.3","0","NA","24.0","6","","","NA","943.8","0.0"
"-113.467","53.667","EDMONTON NAMAO AWOS A","3012212","AB","-14.6","1","NA","3.7","1","-38.7","1","","","NA","17.0","1","NA","","5","","","NA","978.1","0.0"
"-113.579","53.310","EDMONTON INTL A","3012216","AB","-15.3","0","NA","2.0","0","-42.3","0","26.7","0","NA","24.6","0","NA","25.0","8","","","NA","1031.8","0.0"
"-113.538","53.490","EDMONTON SOUTH CAMPUS","3012220","AB","-12.3","0","NA","7.0","0","-36.8","0","","","NA","22.7","0","NA","","5","","","NA","940.6","0.0"
"-113.856","53.668","EDMONTON VILLENEUVE A","3012229","AB","-15.1","2","NA","5.0","2","-41.9","2","","","NA","12.7","2","NA","","4","","","NA","960.6","0.0"
"-114.108","53.548","EDMONTON STONY PLAIN","301222F","AB","-12.3","0","-2.3","5.5","0","-37.5","0","37.4","0","158.0","24.8","0","115.0","21.0","7","","","NA","938.6","0.0"
"-112.868","53.683","ELK ISLAND NAT PARK","3012275","AB","-15.2","0","-3.2","4.5","0","-44.1","0","","","NA","23.6","0","130.0","30.0","6","","","NA","1029.5","0.0"
"-111.000","52.967","FABYAN","3012515","AB","-15.5","0","-1.4","2.5","0","-41.0","0","13.2","0","70.0","13.2","0","67.0","0.0","8","","","NA","1039.6","0.0"
"-112.858","52.744","FERINTOSH AGCM","3012590","AB","-13.7","0","NA","5.5","0","-41.0","0","","","NA","10.7","0","NA","","3","","","NA","983.2","0.0"
"-111.813","52.041","FLEET AGCM","3012635","AB","-14.0","0","NA","5.2","0","-38.2","0","","","NA","4.2","1","NA","","0","","","NA","990.9","0.0"
"-112.120","52.467","FORESTBURG PLANT SITE","3012652","AB","-13.3","1","-3.1","7.0","1","-36.0","1","14.0","1","NA","14.0","1","NA","0.0","7","","","NA","939.8","0.0"
"-112.123","52.548","FORESTBURG AGCM","3012653","AB","-13.7","0","NA","6.6","0","-39.8","0","","","NA","12.0","0","NA","","4","","","NA","981.4","0.0"
"-113.183","53.717","FORT SASKATCHEWAN","3012710","AB","-12.2","16","-0.3","12.0","6","-32.0","16","27.0","6","NA","27.0","6","NA","0.0","5","","","NA","453.1","0.0"
"-110.621","53.071","GILT EDGE NORTH AGCM","3012790","AB","-12.8","5","NA","3.9","5","-37.1","5","","","NA","11.1","5","NA","","5","","","NA","799.9","0.0"
"-114.320","53.295","ST. FRANCIS","3012799","AB","-11.3","0","NA","6.5","0","-35.2","0","","","NA","15.3","2","NA","","5","","","NA","907.4","0.0"
"-112.278","52.987","GLADSTONE AGCM","3012810","AB","-15.0","0","NA","5.2","0","-42.1","0","","","NA","11.1","5","NA","","5","","","NA","1023.5","0.0"
"-114.539","53.833","GLENEVIS AGCM","3012818","AB","-12.7","0","NA","8.5","0","-40.3","0","","","NA","","","NA","","","","","NA","952.6","0.0"
"-110.803","52.113","GOOSEBERRY LAKE AGCM","3012871","AB","-14.1","0","NA","5.1","0","-43.1","0","","","NA","7.1","4","NA","","2","","","NA","993.7","0.0"
"-112.164","52.116","HALKIRK AGCM","3012999","AB","-13.5","0","NA","4.7","0","-38.1","0","","","NA","3.2","15","NA","","0","","","NA","977.8","0.0"
"-111.212","51.780","HEMARUKA AGCM","3013140","AB","-13.6","0","NA","4.7","0","-39.4","0","","","NA","4.1","7","NA","","1","","","NA","981.0","0.0"
"-112.246","53.185","HOLDEN AGDM","3013340","AB","-15.1","0","NA","2.3","0","-42.3","0","","","NA","10.6","2","NA","","3","","","NA","1026.4","0.0"
"-110.784","52.578","HUGHENDEN AGCM","3013362","AB","-14.0","0","NA","5.2","0","-38.9","0","","","NA","7.7","1","NA","","3","","","NA","992.4","0.0"
"-111.872","52.848","KILLAM AGDM","3013640","AB","-14.7","0","NA","4.4","0","-41.3","0","","","NA","","","NA","","","","","NA","1014.4","0.0"
"-111.113","52.290","KESSLER AGCM","3013644","AB","-13.3","0","NA","6.4","0","-40.5","0","","","NA","7.8","17","NA","","3","","","NA","970.1","0.0"
"-111.548","53.047","KINSELLA RESEARC STATION","3013647","AB","-15.1","0","NA","3.6","0","-43.4","0","","","NA","11.8","0","NA","","6","","","NA","1026.7","0.0"
"-110.416","53.353","KITSCOTY AGCM","3013660","AB","-13.6","2","NA","2.1","2","-38.3","2","","","NA","10.4","2","NA","","5","","","NA","917.2","0.0"
"-113.474","54.003","LEGAL AGCM","3013790","AB","-15.0","0","NA","2.9","0","-41.5","0","","","NA","21.1","1","NA","","3","","","NA","1022.3","0.0"
"-110.579","53.943","LINDBERGH AGDM","3013921","AB","-15.3","0","NA","3.9","0","-41.0","0","","","NA","13.3","1","NA","","6","","","NA","1033.6","0.0"
"-110.073","53.309","LLOYDMINSTER","3013959","AB","-14.9","0","NA","1.8","0","-37.7","0","","","NA","8.8","0","NA","","3","","","NA","1019.6","0.0"
"-110.073","53.309","LLOYDMINSTER A","3013961","AB","-14.9","0","-0.6","2.0","0","-38.0","0","16.4","0","96.0","14.0","0","89.0","11.0","6","","","NA","1019.8","0.0"
"-111.255","53.456","MANNVILLE AGCM","3014195","AB","-14.7","0","NA","3.4","0","-38.7","0","","","NA","12.7","0","NA","","6","","","NA","1013.9","0.0"
"-110.550","52.017","MONITOR","3014600","AB","","","NA","","","","","11.8","0","65.0","12.8","0","67.0","0.0","6","","","NA","",""
"-112.300","53.567","MUNDARE AGDM","3014665","AB","-14.7","2","NA","3.9","2","-38.3","2","","","NA","13.8","2","NA","7.0","3","","","NA","948.1","0.0"
"-111.114","53.720","MYRNAM AGCM","3014690","AB","-14.7","2","NA","5.2","2","-42.8","2","","","NA","9.2","2","NA","","4","","","NA","946.9","0.0"
"-113.165","53.262","NEW SAREPTA AGCM","3014795","AB","-14.3","1","NA","4.5","1","-39.3","1","","","NA","15.6","1","NA","","5","","","NA","969.2","0.0"
"-113.350","53.650","OLIVER AGDM","3014921","AB","-15.4","0","NA","4.3","0","-42.8","0","","","NA","","","NA","","","","","NA","1035.4","0.0"
"-112.879","53.995","RADWAY AGCM","3015346","AB","-16.1","0","NA","3.1","0","-44.7","0","","","NA","","","NA","","","","","NA","1056.8","0.0"
"-111.726","53.425","RANFURLY AUTO","3015401","AB","-14.9","0","NA","2.7","0","-37.9","0","","","NA","14.5","0","NA","20.0","5","","","NA","1020.1","0.0"
"-110.343","52.587","RIBSTONE SOUTH AGCM","3015480","AB","-14.2","0","NA","4.2","0","-40.3","0","","","NA","8.5","0","NA","","4","","","NA","996.8","0.0"
"-110.102","53.019","RIVERCOURSE AGCM","3015501","AB","-16.0","5","NA","1.7","5","-37.9","5","","","NA","8.0","5","NA","","4","","","NA","883.2","0.0"
"-114.912","52.421","ROCKY MTN HOUSE (AUT)","3015523","AB","-13.4","0","NA","9.9","0","-42.6","0","","","NA","8.1","0","NA","28.0","4","","","NA","972.9","0.0"
"-112.422","52.792","ROSALIND AGCM","3015600","AB","-14.3","0","NA","6.5","0","-41.0","0","","","NA","10.9","0","NA","","4","","","NA","1000.0","0.0"
"-111.453","54.282","ST. LINA AGCM","3015673","AB","-12.8","5","NA","3.8","5","-39.3","5","","","NA","13.6","5","NA","","4","","","NA","800.3","0.0"
"-111.272","54.011","ST. PAUL AGCM","3015676","AB","-15.8","0","NA","2.2","0","-41.3","0","","","NA","3.1","27","NA","","1","","","NA","1048.3","0.0"
"-110.755","51.590","SEDALIA AGCM","3015797","AB","-13.1","0","NA","4.4","0","-38.6","0","","","NA","7.4","1","NA","","4","","","NA","964.1","0.0"
"-112.539","53.333","SHONTS AGCM","3015900","AB","-14.8","0","NA","3.0","0","-40.7","0","","","NA","14.0","0","NA","","5","","","NA","1017.8","0.0"
"-112.499","54.278","SMOKY LAKE AGDM","3016022","AB","-15.0","0","NA","2.9","0","-39.7","0","","","NA","18.5","0","NA","","5","","","NA","1021.5","0.0"
"-111.683","51.816","SPONDIN AGCM","3016070","AB","-13.6","0","NA","5.8","0","-38.6","0","","","NA","5.1","15","NA","","2","","","NA","979.1","0.0"
"-112.596","52.347","STETTLER AGDM","3016124","AB","-12.8","0","NA","4.5","0","-38.4","0","","","NA","6.0","3","NA","","1","","","NA","953.9","0.0"
"-113.895","53.217","THORSBY AGCM","3016441","AB","-14.5","2","NA","5.0","2","-39.8","2","","","NA","15.4","2","NA","","5","","","NA","943.4","0.0"
"-114.718","53.439","TOMAHAWK AGDM","3016505","AB","-12.6","0","NA","8.3","0","-40.4","0","","","NA","24.4","0","NA","","8","","","NA","949.7","0.0"
"-110.081","53.664","TULLIBY LAKE AGCM","3016593","AB","-15.5","0","NA","2.9","0","-40.9","0","","","NA","11.7","0","NA","","5","","","NA","1039.1","0.0"
"-113.033","53.500","UNCAS","3016650","AB","","","NA","","","","","28.0","0","NA","28.2","0","NA","28.0","9","","","NA","",""
"-111.678","53.625","TWO HILLS AGDM","3016655","AB","-14.8","0","NA","1.6","0","-38.5","0","","","NA","10.4","0","NA","","3","","","NA","1017.2","0.0"
"-110.882","53.344","VERMILION AGDM","3016802","AB","-15.0","0","NA","2.3","0","-39.1","0","","","NA","9.6","8","NA","","6","","","NA","1024.0","0.0"
"-111.732","53.182","VIKING AGCM","3016841","AB","-9.0","12","NA","1.2","12","-22.7","12","","","NA","5.7","12","NA","","3","","","NA","513.5","0.0"
"-111.921","54.130","VILNA AGCM","3016852","AB","-16.6","3","NA","3.9","3","-42.0","3","","","NA","8.5","3","NA","","3","","","NA","969.9","0.0"
"-115.126","53.144","VIOLET GROVE CS","3016860","AB","-11.8","0","NA","7.0","0","-40.2","0","","","NA","36.2","0","NA","27.0","15","","","NA","925.3","0.0"
"-112.098","53.505","VEGREVILLE","3016GF0","AB","-15.6","0","-2.3","3.5","0","-41.6","0","","","NA","20.9","0","138.0","","7","","","NA","1042.5","0.0"
"-113.444","52.980","WETASKIWIN AGCM","3017282","AB","-13.5","3","NA","4.8","3","-40.7","3","","","NA","11.7","3","NA","","4","","","NA","881.0","0.0"
"-111.224","51.491","YOUNGSTOWN AGCM","3017705","AB","-12.9","0","NA","3.6","0","-37.5","0","","","NA","6.2","1","NA","","1","","","NA","959.4","0.0"
"-114.108","53.547","EDMONTON STONY PLAIN CS","301A001","AB","-12.6","0","NA","4.7","0","-37.9","0","","","NA","25.3","0","NA","28.0","5","","","NA","948.1","0.0"
"-110.206","51.670","ESTHER 1","301B460","AB","-12.3","1","NA","5.9","1","-36.5","1","","","NA","6.4","0","NA","","2","","","NA","909.1","0.0"
"-111.096","52.829","WAINWRIGHT CFB AIRFIELD 21","301S001","AB","-14.5","0","NA","3.3","0","-40.9","0","","","NA","","","NA","","","","","NA","1006.1","0.0"
"-110.317","51.066","ACADIA VALLEY","3020035","AB","-11.5","0","NA","5.6","0","-34.2","0","","","NA","7.0","1","NA","","2","","","NA","913.7","0.0"
"-111.006","50.810","ATLEE AGCM","3020405","AB","-10.8","0","NA","5.4","0","-32.2","0","","","NA","5.2","1","NA","","1","","","NA","891.5","0.0"
"-113.357","51.379","BEISEKER AGCM","3020610","AB","-12.3","0","NA","7.2","0","-39.8","0","","","NA","4.6","0","NA","","2","","","NA","939.7","0.0"
"-112.803","51.998","BIG VALLEY AGCM","3020679","AB","-11.9","0","NA","8.0","0","-37.2","0","","","NA","5.1","0","NA","","2","","","NA","925.4","0.0"
"-110.686","50.798","BUFFALO AGCM","3020950","AB","-10.3","0","NA","8.2","0","-33.6","0","","","NA","7.2","0","NA","","1","","","NA","878.6","0.0"
"-110.797","51.067","CAPPON","3021200","AB","-12.5","0","NA","6.1","0","-37.0","0","","","NA","6.7","0","NA","","2","","","NA","946.9","0.0"
"-110.824","51.276","CEREAL AGCM","3021463","AB","-12.9","0","NA","5.1","0","-38.4","0","","","NA","6.5","0","NA","","1","","","NA","958.8","0.0"
"-112.252","51.775","CRAIGMYLE AGCM","3021912","AB","-12.8","0","NA","5.7","0","-39.0","0","","","NA","5.2","0","NA","","1","","","NA","956.1","0.0"
"-112.677","51.445","DRUMHELLER EAST","30221LG","AB","-12.0","1","NA","7.7","1","-36.3","1","","","NA","","","NA","","","","","NA","900.3","0.0"
"-112.097","51.053","FINNEGAN AGCM","3022650","AB","-12.6","0","NA","5.8","0","-37.6","0","","","NA","","","NA","","","","","NA","949.5","0.0"
"-112.135","51.453","HAND HILLS AGCM","3022990","AB","-11.6","0","NA","5.7","0","-36.1","0","","","NA","4.2","1","NA","","1","","","NA","918.5","0.0"
"-114.486","52.310","HESPERO AGCM","3023200","AB","-13.7","0","NA","8.0","0","-42.6","0","","","NA","4.7","0","NA","","2","","","NA","982.1","0.0"
"-112.500","51.183","HUSSAR AGDM","3023402","AB","-10.7","0","NA","5.8","0","-34.6","0","","","NA","3.5","1","NA","","0","","","NA","891.1","0.0"
"-110.359","51.913","KIRRIEMUIR AGCM","3023660","AB","-13.4","0","NA","6.4","0","-40.4","0","","","NA","5.4","13","NA","","1","","","NA","973.8","0.0"
"-113.756","52.449","LACOMBE CDA 2","3023722","AB","-13.3","0","NA","7.3","0","-42.1","0","","","NA","7.2","0","NA","24.0","3","","","NA","969.4","0.0"
"-114.473","52.553","LEEDALE AGDM","3023740","AB","-14.7","0","NA","7.7","0","-46.4","0","","","NA","6.8","0","NA","2.0","2","","","NA","1013.8","0.0"
"-113.656","51.619","LINDEN AGCM","3023850","AB","-12.9","0","NA","8.4","0","-42.3","0","","","NA","5.4","1","NA","","2","","","NA","957.5","0.0"
"-110.341","49.458","LODGE CREEK","3023900","AB","-10.4","0","NA","8.8","0","-35.1","0","","","NA","8.6","0","NA","","5","","","NA","880.8","0.0"
"-112.675","51.660","MORRIN AGDM","3024668","AB","-13.1","0","NA","5.7","0","-39.1","0","","","NA","5.2","11","NA","","3","","","NA","965.3","0.0"
"-114.085","51.759","OLDS AGDM","3024925","AB","-10.8","0","NA","6.8","0","-36.8","0","","","NA","4.8","0","NA","","1","","","NA","891.8","0.0"
"-110.350","51.383","OYEN AGDM","3024965","AB","-12.5","0","NA","4.8","0","-35.9","0","","","NA","7.7","4","NA","0.0","2","","","NA","944.6","0.0"
"-111.621","50.740","PATRICIA AGCM","3025013","AB","-10.3","0","NA","6.8","0","-34.3","0","","","NA","6.3","1","NA","","2","","","NA","878.7","0.0"
"-111.705","51.125","POLLOCKVILLE AGDM","3025243","AB","-13.9","0","NA","4.7","0","-38.8","0","","","NA","3.0","0","NA","","2","","","NA","987.7","0.0"
"-113.600","52.433","PRENTISS","3025297","AB","-14.2","8","NA","6.2","8","-36.8","8","","","NA","6.3","10","NA","","2","","","NA","740.9","0.0"
"-113.894","52.182","RED DEER REGIONAL A","3025481","AB","-13.9","0","NA","5.9","0","-43.2","0","","","NA","","","NA","","","","","NA","989.0","0.0"
"-112.106","52.182","RED DEER OVERLAP","3025483","AB","","","NA","","","","","7.0","0","NA","5.6","0","NA","12.0","2","","","NA","",""
"-113.620","53.692","ST. ALBERT RESEARCH STATION","3025750","AB","-15.0","0","NA","5.0","0","-41.7","0","","","NA","19.0","0","NA","","5","","","NA","1024.3","0.0"
"-110.091","50.307","SCHULER AGDM","3025768","AB","-9.1","0","NA","8.2","0","-33.7","0","","","NA","8.0","15","NA","","4","","","NA","839.6","0.0"
"-111.646","51.463","SHEERNESS AGCM","3025890","AB","-11.4","0","NA","13.5","0","-35.4","0","","","NA","6.1","0","NA","","1","","","NA","912.8","0.0"
"-111.388","51.301","SUNNYNOOK AGCM","3026264","AB","-13.8","0","NA","4.0","0","-37.9","0","","","NA","5.7","0","NA","","2","","","NA","986.1","0.0"
"-113.206","51.768","THREE HILLS","3026479","AB","-13.3","0","NA","7.8","0","-41.0","0","","","NA","4.4","1","NA","","1","","","NA","970.7","0.0"
"-111.955","50.895","VERGER","3026800","AB","-12.0","0","NA","5.2","0","-37.0","0","","","NA","2.8","4","NA","","1","","","NA","928.9","0.0"
"-114.683","51.778","SUNDRE A","3026KNQ","AB","-12.0","0","NA","10.8","0","-41.7","0","","","NA","9.7","0","NA","14.0","3","","","NA","931.5","0.0"
"-113.591","51.936","WIMBORNE AGCM","3027582","AB","-12.1","0","NA","7.3","0","-40.7","0","","","NA","4.8","2","NA","","0","","","NA","934.1","0.0"
"-113.434","49.528","ARDENVILLE","3030200","AB","-6.5","0","NA","11.9","0","-34.6","0","","","NA","8.4","1","NA","","3","","","NA","759.2","0.0"
"-114.013","50.512","AZURE","3030450","AB","-7.9","0","NA","11.1","0","-35.5","0","","","NA","6.0","3","NA","","2","","","NA","801.4","0.0"
"-112.300","49.800","BARNWELL AGDM","3030525","AB","-7.0","0","NA","13.0","0","-34.4","0","","","NA","6.2","1","NA","","2","","","NA","774.0","0.0"
"-113.224","50.026","BARONS AGCM","3030529","AB","-7.5","0","NA","11.7","0","-34.4","0","","","NA","5.4","2","NA","","2","","","NA","791.6","0.0"
"-112.465","50.893","BASSANO AGCM","3030540","AB","-12.1","0","NA","5.7","0","-38.8","0","","","NA","2.8","0","NA","","1","","","NA","932.6","0.0"
"-114.152","50.707","BLACK DIAMOND","3030680","AB","-10.3","0","NA","10.6","0","-38.9","0","","","NA","4.4","7","NA","","0","","","NA","877.7","0.0"
"-113.640","50.546","BLACKIE AGCM","3030690","AB","-10.1","0","NA","9.3","0","-39.8","0","","","NA","6.4","7","NA","","2","","","NA","870.2","0.0"
"-113.050","49.567","BLOOD TRIBE AGDM","3030720","AB","-7.0","0","NA","12.6","0","-36.0","0","","","NA","7.2","7","NA","","3","","","NA","773.8","0.0"
"-111.450","49.734","BOW ISLAND","3030768","AB","-7.9","0","NA","9.3","0","-31.0","0","","","NA","10.7","0","NA","","5","","","NA","803.3","0.0"
"-111.383","49.867","BOW ISLAND IRRIGATION AGDM","3030772","AB","-8.2","0","NA","7.3","0","-32.0","0","","","NA","12.6","6","NA","","6","","","NA","813.3","0.0"
"-113.817","49.617","BROCKET AGDM","3030830","AB","-6.7","0","NA","11.1","0","-35.3","0","","","NA","9.5","0","NA","","2","","","NA","766.9","0.0"
"-110.484","50.339","BULL SPRINGS AGCM","3030879","AB","-8.9","0","NA","6.7","0","-32.8","0","","","NA","10.5","0","NA","","6","","","NA","832.9","0.0"
"-111.849","50.555","BROOKS","3030QLP","AB","-8.2","5","NA","7.4","5","-34.3","5","","","NA","7.5","5","NA","1.0","2","","","NA","681.5","0.0"
"-114.013","51.123","CALGARY INTL A","3031092","AB","-8.6","1","NA","10.3","1","-32.4","1","3.9","1","NA","3.0","1","NA","1.0","1","","","NA","796.8","0.0"
"-114.000","51.109","CALGARY INT'L CS","3031094","AB","-8.7","0","NA","9.2","0","-33.2","0","","","NA","3.5","0","NA","0.0","1","","","NA","828.6","0.0"
"-114.371","51.105","CALGARY SPRINGBANK A","3031109","AB","-10.4","0","NA","10.2","0","-37.7","0","","","NA","0.8","1","NA","","0","","","NA","881.5","0.0"
"-113.286","49.201","CARDSTON","3031322","AB","-5.4","0","NA","12.7","0","-32.0","0","","","NA","14.0","30","NA","","1","","","NA","726.2","0.0"
"-113.376","49.001","CARWAY","3031402","AB","-6.2","0","NA","11.0","0","-33.3","0","","","NA","7.8","0","NA","1.0","5","","","NA","749.3","0.0"
"-113.350","50.282","CHAMPION AGDM","3031480","AB","-8.9","0","NA","10.0","0","-34.6","0","","","NA","5.1","1","NA","","2","","","NA","834.2","0.0"
"-113.639","50.004","CLARESHOLM","3031640","AB","-6.8","0","NA","13.2","0","-35.7","0","","","NA","10.2","0","NA","1.0","3","","","NA","769.0","0.0"
"-112.433","50.183","ENCHANT AGDM","3032422","AB","-8.0","0","NA","10.4","0","-34.4","0","","","NA","6.9","0","NA","","3","","","NA","805.8","0.0"
"-111.054","49.553","ETZIKOM AGCM","3032450","AB","-9.3","0","NA","8.5","0","-35.1","0","","","NA","5.6","1","NA","","1","","","NA","845.3","0.0"
"-112.033","49.800","FINCASTLE AGDM","3032550","AB","-6.7","0","NA","12.5","0","-33.2","0","","","NA","11.0","4","NA","","4","","","NA","764.6","0.0"
"-111.486","49.483","FOREMOST AGDM","3032642","AB","-7.9","0","NA","9.0","0","-34.7","0","","","NA","3.8","4","NA","","0","","","NA","803.3","0.0"
"-113.379","49.786","FORT MACLEOD AGCM","3032683","AB","-6.4","0","NA","12.6","0","-33.9","0","","","NA","5.2","1","NA","","2","","","NA","755.9","0.0"
"-112.941","50.934","GLEICHEN AGCM","3032801","AB","-10.8","0","NA","6.5","0","-36.6","0","","","NA","4.4","0","NA","","1","","","NA","892.4","0.0"
"-111.733","49.874","GRASSY LAKE","3032927","AB","-7.6","0","NA","10.9","0","-32.5","0","","","NA","10.2","1","NA","","6","","","NA","792.4","0.0"
"-112.733","49.900","IRON SPRINGS AGDM","3033498","AB","-6.6","0","NA","12.3","0","-32.8","0","","","NA","7.8","1","NA","","2","","","NA","763.5","0.0"
"-114.292","50.869","PRIDDIS OBSERVATORY","3033505","AB","-7.8","5","NA","10.3","5","-34.8","5","","","NA","18.9","5","NA","","7","","","NA","670.6","0.0"
"-110.261","49.989","IRVINE AGCM","3033550","AB","-7.2","0","NA","10.1","0","-33.7","0","","","NA","12.6","1","NA","","2","","","NA","781.7","0.0"
"-113.631","51.191","KEOMA AGCM","3033620","AB","-10.5","0","NA","9.0","0","-37.0","0","","","NA","3.0","1","NA","","0","","","NA","884.4","0.0"
"-112.299","50.600","LATHOM AGCM","3033770","AB","-9.6","0","NA","6.2","0","-34.8","0","","","NA","5.1","11","NA","","2","","","NA","856.7","0.0"
"-112.799","49.630","LETHBRIDGE","3033875","AB","-7.2","1","NA","13.8","1","-34.5","1","","","NA","5.8","1","NA","","2","","","NA","755.8","0.0"
"-112.763","49.647","LETHBRIDGE AGTECH AGCM","3033877","AB","-6.5","0","NA","13.8","0","-35.1","0","","","NA","8.6","3","NA","","5","","","NA","758.5","0.0"
"-112.768","49.695","LETHBRIDGE CDA","3033890","AB","-5.8","0","NA","13.9","0","-32.3","0","","","NA","1.3","0","NA","0.0","0","","","NA","738.4","0.0"
"-112.783","49.700","LETHBRIDGE CDA 2","3033892","AB","","","NA","","","","","4.0","0","NA","2.4","0","NA","0.0","1","","","NA","",""
"-112.750","49.683","LETHBRIDGE DEMO FARM AGDM","3033897","AB","-6.3","0","NA","13.7","0","-33.2","0","","","NA","6.0","1","NA","","1","","","NA","753.7","0.0"
"-110.721","50.019","MEDICINE HAT","3034479","AB","-8.0","0","NA","8.3","0","-30.5","0","","","NA","12.1","0","NA","","5","","","NA","805.9","0.0"
"-110.717","50.025","MEDICINE HAT RCS","3034485","AB","-7.8","0","NA","8.0","0","-29.6","0","","","NA","14.6","0","NA","","5","","","NA","800.2","0.0"
"-113.349","50.673","MOSSLEIGH AGCM","3034577","AB","-10.1","0","NA","9.4","0","-39.3","0","","","NA","5.2","2","NA","","2","","","NA","871.7","0.0"
"-114.099","51.369","NIER AGDM","3034795","AB","-9.6","0","NA","8.2","0","-36.6","0","","","NA","4.0","2","NA","","0","","","NA","856.7","0.0"
"-113.997","49.521","PINCHER CREEK","3035198","AB","-6.1","0","NA","9.5","0","-32.9","0","","","NA","6.9","0","NA","","4","","","NA","747.8","0.0"
"-114.005","49.522","PINCHER CREEK CLIMATE","3035208","AB","-6.4","1","NA","9.6","1","-33.0","1","","","NA","17.1","1","NA","","7","","","NA","730.5","0.0"
"-112.983","50.606","QUEENSTOWN","3035340","AB","-8.8","0","-1.3","9.5","0","-36.0","0","6.0","0","42.0","6.0","0","42.0","0.0","2","","","NA","829.5","0.0"
"-112.803","50.598","QUEENSTOWN","3035342","AB","-9.8","2","NA","7.2","2","-35.0","2","","","NA","6.4","2","NA","","2","","","NA","805.9","0.0"
"-112.117","50.367","RAINIER AGCM","3035355","AB","-9.4","0","NA","7.2","0","-33.8","0","","","NA","8.6","0","NA","","3","","","NA","849.1","0.0"
"-111.213","50.099","RALSTON AGCM","3035362","AB","-8.8","0","NA","6.8","0","-32.7","0","","","NA","13.2","3","NA","","4","","","NA","829.6","0.0"
"-112.683","49.483","RAYMOND AGDM","3035422","AB","-6.7","0","NA","13.6","0","-35.0","0","","","NA","10.6","7","NA","","4","","","NA","764.8","0.0"
"-111.701","50.265","ROLLING HILLS AGCM","3035530","AB","-8.9","0","NA","8.6","0","-33.5","0","","","NA","10.2","0","NA","","3","","","NA","835.2","0.0"
"-112.050","50.833","ROSEMARY AGDM","3035650","AB","-12.5","0","NA","5.4","0","-38.8","0","","","NA","7.0","4","NA","","2","","","NA","944.8","0.0"
"-110.917","49.917","SEVEN PERSONS AGDM","3035845","AB","-8.5","0","NA","7.4","0","-31.5","0","","","NA","13.5","0","NA","","4","","","NA","820.7","0.0"
"-110.215","50.732","SOCIAL PLAINS AGCM","3036040","AB","-10.2","0","NA","7.0","0","-33.7","0","","","NA","10.8","0","NA","","3","","","NA","874.9","0.0"
"-112.982","51.228","STANDARD AGCM","3036086","AB","-9.5","0","NA","8.7","0","-34.6","0","","","NA","4.1","10","NA","","2","","","NA","851.5","0.0"
"-113.883","50.183","STAVELY AAFC","3036099","AB","-7.0","2","NA","10.9","2","-33.4","2","","","NA","3.5","2","NA","","1","","","NA","724.0","0.0"
"-113.283","51.033","STRATHMORE AGDM","3036205","AB","-9.9","0","NA","7.1","0","-35.0","0","","","NA","3.9","8","NA","","1","","","NA","865.2","0.0"
"-112.124","49.792","TABER","3036360","AB","-7.7","16","NA","10.0","12","-32.0","11","10.4","12","NA","10.4","12","NA","","3","","","NA","384.9","0.0"
"-111.321","50.456","TIDE LAKE AGCM","3036485","AB","-10.4","0","NA","4.9","0","-34.0","0","","","NA","10.6","0","NA","","3","","","NA","879.7","0.0"
"-112.863","50.304","TRAVERS AGCM","3036500","AB","-7.7","0","NA","10.9","0","-34.1","0","","","NA","4.4","0","NA","","1","","","NA","797.1","0.0"
"-112.133","50.050","VAUXHALL CDA CS","3036682","AB","-7.8","0","NA","8.7","0","-32.5","0","","","NA","","","NA","","","","","NA","800.4","0.0"
"-112.117","49.500","WRENTHAM AGDM","3037675","AB","-7.2","0","NA","11.8","0","-33.0","0","","","NA","4.1","15","NA","0.0","1","","","NA","780.7","0.0"
"-113.961","50.729","OKOTOKS","303M9JM","AB","-9.2","0","-1.1","9.5","0","-36.0","0","5.8","0","40.0","5.8","0","39.0","12.0","3","","","NA","843.3","0.0"
"-112.788","49.871","PICTURE BUTTE WEST","303N1G3","AB","","","NA","","","","","21.6","21","NA","21.6","21","NA","","7","","","NA","",""
"-112.817","49.050","DEL BONITA AGDM","3042045","AB","-7.1","0","NA","9.0","0","-31.5","0","","","NA","4.1","1","NA","","0","","","NA","778.0","0.0"
"-110.678","49.364","MANYBERRIES AGCM","3044203","AB","-10.3","0","NA","8.4","0","-32.3","0","","","NA","5.3","4","NA","","4","","","NA","878.5","0.0"
"-111.652","49.137","MASINASIN AGDM","3044232","AB","-6.9","0","NA","11.1","0","-33.4","0","","","NA","8.8","1","NA","0.0","4","","","NA","772.0","0.0"
"-112.050","49.133","MILK RIVER","3044533","AB","-5.1","20","NA","6.3","20","-22.7","20","","","NA","5.0","20","NA","","2","","","NA","253.6","0.0"
"-110.467","49.117","ONEFOUR CDA","3044923","AB","-9.7","0","NA","8.2","0","-31.4","0","","","NA","2.6","0","NA","6.0","1","","","NA","857.2","0.0"
"-111.126","49.225","PAKOWKI LAKE AGCM","3045000","AB","-7.2","0","NA","10.5","0","-32.8","0","","","NA","5.1","2","NA","","2","","","NA","780.5","0.0"
"-111.025","49.029","PINHORN AGCM","3045100","AB","-6.7","0","NA","11.0","0","-31.4","0","","","NA","6.8","1","NA","","2","","","NA","764.3","0.0"
"-112.160","49.283","WARNER AGCM","3046951","AB","-6.6","0","NA","11.7","0","-34.4","0","","","NA","10.2","1","NA","","2","","","NA","761.1","0.0"
"-115.552","51.193","BANFF CS","3050519","AB","-9.3","0","NA","5.4","0","-37.9","0","","","NA","13.6","0","NA","38.0","5","","","NA","845.0","0.0"
"-114.175","49.468","BEAVER MINES","3050602","AB","-6.1","0","NA","9.2","0","-32.0","0","","","NA","13.0","0","NA","","6","","","NA","745.9","0.0"
"-115.067","51.083","BOW VALLEY","3050778","AB","-7.4","0","NA","8.1","0","-36.8","0","","","NA","","","NA","","","","","NA","786.8","0.0"
"-114.482","49.628","CROWSNEST","3051R4R","AB","-6.0","0","NA","8.1","0","-29.8","0","","","NA","0.0","29","NA","","0","","","NA","743.1","0.0"
"-118.030","52.926","JASPER WARDEN","3053536","AB","-11.0","0","NA","6.5","0","-44.8","0","","","NA","37.7","0","NA","36.0","9","","","NA","898.7","0.0"
"-115.035","51.028","KANANASKIS","3053600","AB","-7.3","0","-1.3","9.5","0","-35.5","0","8.4","0","38.0","13.2","0","62.0","2.0","3","","","NA","785.3","0.0"
"-116.040","52.492","NORDEGG CS","3054843","AB","-10.2","0","NA","10.2","0","-43.1","0","","","NA","10.5","0","NA","26.0","3","","","NA","873.1","0.0"
"-114.416","50.368","PEKISKO","3055119","AB","-8.1","2","NA","8.5","2","-36.8","2","","","NA","10.6","3","NA","56.0","3","","","NA","758.2","0.0"
"-113.809","49.131","WATERTON PARK GATE","3056214","AB","-5.6","4","NA","11.0","4","-32.6","4","","","NA","17.4","4","NA","","5","","","NA","637.6","0.0"
"-115.787","54.144","WHITECOURT A","3057376","AB","-14.5","0","NA","4.4","0","-41.3","0","","","NA","","","NA","","","","","NA","1008.1","0.0"
"-115.190","50.943","NAKISKA RIDGETOP","305MGFF","AB","-10.8","0","NA","0.2","0","-36.4","0","","","NA","","","NA","","","","","NA","892.2","0.0"
"-113.382","54.635","ATHABASCA AGCM","3060330","AB","-14.8","0","NA","3.4","0","-41.5","0","","","NA","8.5","22","NA","","3","","","NA","1017.1","0.0"
"-112.825","54.782","ATMORE AGDM","3060406","AB","-16.4","0","NA","3.0","0","-44.3","0","","","NA","13.1","0","NA","19.0","5","","","NA","1066.2","0.0"
"-114.448","54.095","BARRHEAD CS","3060535","AB","-16.5","0","NA","3.9","0","-45.3","0","","","NA","","","NA","31.0","","","","NA","1069.1","0.0"
"-117.867","53.350","BRULE BLACK CAT","3060903","AB","-11.9","11","-1.7","9.5","6","-43.0","6","26.0","2","NA","29.0","2","NA","22.0","6","","","NA","597.5","0.0"
"-114.678","54.131","CAMPSIE AUTO","3061201","AB","-16.5","0","NA","4.0","0","-45.5","0","","","NA","18.4","0","NA","27.0","6","","","NA","1069.8","0.0"
"-115.894","53.623","CARROT CREEK","3061350","AB","-14.4","0","NA","10.5","0","-42.3","0","","","NA","10.5","21","NA","","3","","","NA","1003.7","0.0"
"-113.950","54.317","DAPP AGDM","3061975","AB","-16.6","3","NA","2.7","3","-47.7","3","","","NA","14.0","3","NA","","4","","","NA","967.6","0.0"
"-116.465","53.579","EDSON","3062239","AB","-14.6","0","NA","6.0","0","-43.4","0","","","NA","7.4","0","NA","","2","","","NA","1009.4","0.0"
"-116.453","53.580","EDSON CLIMATE","3062246","AB","-14.3","0","NA","6.1","0","-41.3","0","","","NA","18.7","0","NA","37.0","5","","","NA","1000.8","0.0"
"-114.983","53.600","ENTWISTLE","3062451","AB","-11.8","4","-0.4","7.5","4","-40.0","4","25.0","4","NA","25.0","4","NA","39.0","3","","","NA","803.6","0.0"
"-115.062","53.614","EVANSBURG2 AGCM","3062476","AB","-15.9","0","NA","6.2","0","-44.3","0","","","NA","20.4","0","NA","","4","","","NA","1051.9","0.0"
"-114.769","54.410","FORT ASSINIBOINE AGCM","3062660","AB","-15.8","0","NA","4.1","0","-43.5","0","","","NA","23.7","0","NA","","6","","","NA","1049.3","0.0"
"-111.213","56.651","FORT MCMURRAY CS","3062696","AB","-16.6","0","NA","4.1","0","-40.6","0","","","NA","16.4","0","NA","16.0","8","","","NA","1072.5","0.0"
"-111.223","56.653","FORT MCMURRAY A","3062697","AB","-16.5","0","NA","4.2","0","-40.3","0","","","NA","20.8","0","NA","","8","","","NA","1069.5","0.0"
"-118.447","53.795","HENDRICKSON CREEK","3063135","AB","-14.7","0","NA","9.2","0","-48.1","0","","","NA","","","NA","57.0","","","","NA","1013.2","0.0"
"-116.479","55.396","HIGH PRAIRIE AGDM","3063165","AB","-16.4","0","NA","6.6","0","-44.7","0","","","NA","19.0","12","NA","","5","","","NA","1065.1","0.0"
"-113.543","54.821","ISLAND LAKE SOUTH","3063600","AB","-15.9","0","NA","4.4","0","-40.1","0","","","NA","16.9","0","NA","10.0","4","","","NA","1050.7","0.0"
"-112.981","54.563","KINIKINIK","3063640","AB","-14.3","0","NA","3.3","0","-38.5","0","","","NA","12.1","2","NA","","3","","","NA","999.8","0.0"
"-112.024","54.769","LAC LA BICHE CLIMATE","3063686","AB","-15.3","0","NA","4.1","0","-42.4","0","","","NA","14.7","0","NA","18.0","5","","","NA","1032.9","0.0"
"-111.559","57.041","MILDRED LAKE","3064528","AB","-15.8","0","NA","3.7","0","-34.0","0","","","NA","22.2","0","NA","25.0","11","","","NA","1048.2","0.0"
"-113.321","54.964","PLEASANT VIEW","3065200","AB","-15.0","0","NA","3.2","0","-37.0","0","","","NA","16.2","0","NA","","4","","","NA","1021.5","0.0"
"-111.700","54.500","RICH LAKE AGDM","3065475","AB","-16.8","0","NA","3.4","0","-42.0","0","","","NA","12.2","0","NA","","5","","","NA","1080.1","0.0"
"-111.835","53.851","ISPAS","3065712","AB","-14.0","3","NA","3.7","3","-39.2","3","","","NA","12.0","3","NA","","3","","","NA","895.6","0.0"
"-114.777","55.293","SLAVE LAKE","3065995","AB","-15.6","0","NA","7.3","0","-39.9","0","","","NA","10.1","0","NA","","4","","","NA","1043.0","0.0"
"-114.777","55.293","SLAVE LAKE RCS","3065997","AB","-15.7","0","NA","7.3","0","-40.4","0","","","NA","44.8","0","NA","18.0","18","","","NA","1046.0","0.0"
"-113.520","54.300","TAWATINAW AGCM","3066367","AB","-15.5","0","NA","2.2","0","-40.6","0","","","NA","15.8","0","NA","","5","","","NA","1037.2","0.0"
"-118.348","53.386","WILLOW CREEK 1","306GE70","AB","-13.8","3","NA","5.4","3","-46.0","3","","","NA","24.5","23","NA","48.0","5","","","NA","890.1","0.0"
"-117.236","55.577","BALLATER AGCM","3070495","AB","-17.2","1","NA","5.4","1","-46.8","1","","","NA","17.8","0","NA","","8","","","NA","1054.6","0.0"
"-119.396","55.197","BEAVERLODGE RCS","3070600","AB","-14.6","0","NA","4.3","0","-37.3","0","","","NA","28.5","0","NA","23.0","10","","","NA","1011.1","0.0"
"-117.886","56.118","BROWNVALE AGCM","3070800","AB","-16.8","0","NA","4.4","0","-43.5","0","","","NA","19.5","16","NA","","8","","","NA","1078.1","0.0"
"-117.933","56.529","CLEAR HILLS AGCM","3071661","AB","-15.9","0","NA","4.8","0","-40.8","0","","","NA","18.6","19","NA","","6","","","NA","1051.6","0.0"
"-117.543","56.715","DEADWOOD AGCM","3071957","AB","-15.6","0","NA","5.4","0","-40.2","0","","","NA","20.3","1","NA","","7","","","NA","1041.2","0.0"
"-117.887","55.808","EAGLESHAM AGCM","3072151","AB","-16.1","0","NA","5.0","0","-41.9","0","","","NA","24.5","1","NA","","7","","","NA","1058.2","0.0"
"-110.439","58.981","EGG ISLAND","3072246","AB","-10.6","26","NA","0.7","26","-18.8","26","","","NA","","","NA","","","","","NA","143.2","0.0"
"-118.439","56.081","FAIRVIEW AGDM","3072525","AB","-16.9","0","NA","3.1","0","-41.3","0","","","NA","14.1","15","NA","","5","","","NA","1080.7","0.0"
"-111.117","58.767","FORT CHIPEWYAN","3072655","AB","-19.5","0","NA","2.8","0","-39.5","0","","","NA","17.7","0","NA","","5","","","NA","1161.7","0.0"
"-111.117","58.767","FORT CHIPEWYAN RCS","3072659","AB","-19.2","1","NA","2.5","1","-40.4","1","","","NA","62.0","0","NA","38.0","20","","","NA","1115.8","0.0"
"-116.040","58.382","FORT VERMILION","3072723","AB","-20.1","0","NA","3.7","0","-44.5","0","","","NA","22.9","0","NA","32.0","6","","","NA","1180.0","0.0"
"-118.885","55.180","GRANDE PRAIRIE A","3072921","AB","-16.7","0","NA","5.5","0","-41.8","0","30.2","0","NA","30.6","0","NA","26.0","10","","","NA","1077.2","0.0"
"-117.298","57.265","HAWK HILLS AGCM","3073071","AB","-18.6","0","NA","4.4","0","-43.0","0","","","NA","14.9","0","NA","","6","","","NA","1135.2","0.0"
"-117.165","58.622","HIGH LEVEL","3073140","AB","-20.2","0","NA","2.6","0","-44.4","0","","","NA","10.8","0","NA","","2","","","NA","1183.5","0.0"
"-117.165","58.621","HIGH LEVEL A","3073146","AB","-20.1","0","0.3","2.5","0","-44.5","0","26.8","0","111.0","21.8","0","112.0","40.0","5","","","NA","1182.1","0.0"
"-117.120","55.913","JEAN COTE AGCM","3073535","AB","-14.9","0","NA","4.6","0","-38.1","0","","","NA","16.6","0","NA","","6","","","NA","1020.9","0.0"
"-117.677","57.788","KEG RIVER AGCM","3073644","AB","-18.9","0","NA","6.0","0","-44.1","0","","","NA","20.5","1","NA","","6","","","NA","1143.7","0.0"
"-116.343","58.172","LA CRETE AGCM","3073730","AB","-18.7","0","NA","5.6","0","-41.9","0","","","NA","14.6","1","NA","","3","","","NA","1139.1","0.0"
"-119.255","55.422","LA GLACE AGCM","3073740","AB","-17.4","0","NA","4.8","0","-44.3","0","","","NA","29.5","0","NA","","10","","","NA","1095.9","0.0"
"-117.451","56.974","MANNING AGDM","3074190","AB","-19.0","0","NA","4.6","0","-43.3","0","","","NA","","","NA","","","","","NA","1145.7","0.0"
"-119.745","56.314","CLEARDALE AGDM","3074935","AB","-16.6","0","NA","3.6","0","-39.4","0","","","NA","15.4","15","NA","","4","","","NA","1072.2","0.0"
"-117.448","56.227","PEACE RIVER A","3075041","AB","-17.3","0","NA","4.3","0","-43.1","0","15.2","0","NA","13.2","0","NA","22.0","5","","","NA","1094.5","0.0"
"-118.293","55.621","PEORIA AGDM","3075160","AB","-17.2","0","NA","4.9","0","-45.3","0","","","NA","12.5","21","NA","","3","","","NA","1090.0","0.0"
"-115.278","56.552","RED EARTH","3075488","AB","-15.9","0","NA","4.6","0","-39.6","0","","","NA","26.0","0","NA","21.0","10","","","NA","1050.5","0.0"
"-116.481","58.452","ROCKY LANE AGCM","3075550","AB","-19.8","1","NA","4.1","1","-45.6","1","","","NA","16.6","2","NA","","5","","","NA","1133.9","0.0"
"-118.668","55.777","RYCROFT AGCM","3075601","AB","-16.2","0","NA","6.0","0","-43.8","0","","","NA","26.9","0","NA","","8","","","NA","1060.7","0.0"
"-119.345","56.076","SAVANNA AGCM","3075770","AB","-15.6","0","NA","5.6","0","-38.7","0","","","NA","22.3","6","NA","","6","","","NA","1042.0","0.0"
"-117.741","54.425","SIMONETTE","3075937","AB","-8.8","25","0.7","9.0","22","-28.0","22","0.0","22","NA","0.0","22","NA","","0","","","NA","160.5","0.0"
"-118.408","55.352","TEEPEE CREEK AGCM","3076366","AB","-17.4","0","NA","4.9","0","-45.2","0","","","NA","20.1","1","NA","","6","","","NA","1098.7","0.0"
"-116.848","58.021","TOMPKINS LANDING AGCM","3076530","AB","-18.3","2","NA","5.0","2","-43.1","2","","","NA","16.6","3","NA","","5","","","NA","1052.4","0.0"
"-117.199","55.098","VALLEYVIEW AGDM","3076680","AB","-14.5","0","NA","4.1","0","-42.0","0","","","NA","23.3","2","NA","","8","","","NA","1009.0","0.0"
"-110.283","54.417","COLD LAKE A","3081680","AB","-14.9","0","0.2","4.1","0","-37.5","0","23.2","0","103.0","19.8","0","123.0","17.0","9","","","NA","1020.1","0.0"
"-110.868","54.367","DUPRE AGCM","3081690","AB","-15.6","0","NA","6.2","0","-41.0","0","","","NA","14.3","0","NA","","7","","","NA","1042.4","0.0"
