"Long","Lat","Stn_Name","Clim_ID","Prov","Tm","DwTm","D","Tx","DwTx","Tn","DwTn","S","DwS","S%N","P","DwP","P%N","S_G","Pd","BS","DwBS","BS%","HDD","CDD"
"-123.742","48.935","CHEMAINUS","1011500","BC","15.8","0","NA","26.5","0","6.0","0","0.0","0","NA","87.9","0","NA","0.0","13","","","NA","74.5","8.6"
"-124.052","48.829","LAKE COWICHAN","1012055","BC","14.8","14","-0.4","30.5","9","-0.5","10","0.0","29","NA","126.4","15","NA","0.0","13","","","NA","54.9","4.0"
"-123.226","48.425","DISCOVERY ISLAND","1012475","BC","13.6","1","NA","20.9","1","8.5","1","","","NA","","","NA","","","","","NA","128.6","0.0"
"-123.439","48.432","ESQUIMALT HARBOUR","1012710","BC","14.1","1","NA","23.2","1","7.9","1","","","NA","67.2","1","NA","","8","","","NA","113.0","0.0"
"-123.573","48.985","GALIANO NORTH","10130MN","BC","14.5","15","NA","23.0","15","6.0","15","0.0","15","NA","63.1","15","NA","0.0","9","","","NA","53.8","0.8"
"-123.530","48.575","MALAHAT","1014820","BC","14.4","1","NA","25.7","1","4.8","1","","","NA","","","NA","","","","","NA","112.2","8.0"
"-123.561","48.374","METCHOSIN","1015105","BC","","","NA","","","","","0.0","26","NA","10.2","26","NA","0.0","2","","","NA","",""
"-123.718","48.824","NORTH COWICHAN","1015628","BC","","","NA","","","","","0.0","0","0.0","98.6","0","272.0","0.0","15","","","NA","",""
"-123.719","48.824","NORTH COWICHAN","1015630","BC","15.3","0","NA","28.0","0","1.6","0","","","NA","89.3","0","NA","","11","","","NA","86.5","5.6"
"-123.287","48.764","NORTH PENDER ISLAND","1015638","BC","15.0","9","NA","25.5","9","6.5","9","0.0","9","NA","58.2","9","NA","0.0","9","","","NA","67.9","5.2"
"-124.326","48.592","PORT RENFREW","1016335","BC","14.5","20","1.0","20.0","20","7.5","20","0.0","20","NA","159.2","20","NA","","7","","","NA","35.5","0.0"
"-123.531","48.298","RACE ROCKS","1016640","BC","13.9","0","NA","23.0","0","8.7","0","","","NA","","","NA","","","","","NA","123.8","0.0"
"-123.419","48.622","SAANICHTON CDA","1016940","BC","15.1","6","0.5","25.0","3","6.0","3","0.0","3","NA","92.5","3","NA","0.0","11","","","NA","72.4","2.0"
"-123.546","48.888","SALTSPRING ST MARY'S L","1016995","BC","16.3","1","0.9","27.0","1","7.0","1","0.0","1","NA","76.6","1","NA","0.0","10","","","NA","63.3","14.4"
"-123.427","48.598","SAANICHTON MT NEWTON","1016RM0","BC","","","NA","","","","","0.0","21","NA","92.4","21","NA","","9","","","NA","",""
"-123.128","48.775","SATURNA CAPMON CS","1017099","BC","14.7","1","NA","24.0","1","6.2","1","","","NA","73.0","1","NA","","9","","","NA","103.2","6.1"
"-123.045","48.784","SATURNA ISLAND CS","1017101","BC","15.2","1","NA","24.7","1","8.5","1","","","NA","83.2","1","NA","","13","","","NA","82.3","2.3"
"-123.626","48.647","SHAWNIGAN LAKE","1017230","BC","15.2","0","0.3","27.0","0","3.0","0","0.0","0","NA","88.6","0","266.0","0.0","13","","","NA","90.9","6.4"
"-123.921","48.377","SHERINGHAM POINT","1017254","BC","13.7","0","NA","23.3","0","8.4","0","","","NA","94.8","0","NA","","10","","","NA","130.2","0.0"
"-123.305","48.457","VICTORIA UNIVERSITY CS","1018598","BC","14.7","1","NA","26.1","1","5.0","1","","","NA","63.9","1","NA","","8","","","NA","95.5","0.8"
"-123.325","48.413","VICTORIA GONZALES CS","1018611","BC","14.5","0","NA","25.1","0","7.5","0","","","NA","54.4","0","NA","","8","","","NA","106.8","0.8"
"-123.426","48.647","VICTORIA INTL A","1018621","BC","14.6","1","NA","25.1","1","3.9","1","0.0","0","NA","69.6","0","NA","","12","","","NA","99.6","0.8"
"-123.388","48.423","VICTORIA HARBOUR A","1018633","BC","14.4","1","NA","20.6","1","8.9","1","","","NA","","","NA","","","","","NA","105.0","0.0"
"-124.160","49.350","BALLENAS ISLAND","1020590","BC","15.2","0","NA","21.3","0","9.1","0","","","NA","98.2","0","NA","","12","","","NA","87.7","4.0"
"-125.273","49.952","CAMPBELL RIVER A","1021261","BC","13.7","0","-0.1","26.5","0","-2.5","0","0.0","0","NA","77.4","0","140.0","0.0","12","","","NA","130.5","0.5"
"-125.273","49.952","CAMPBELL RIVER A","1021270","BC","13.3","1","NA","25.5","1","-2.6","1","","","NA","","","NA","","","","","NA","136.0","0.0"
"-125.195","49.998","CAPE MUDGE","1021330","BC","15.2","0","1.0","27.0","0","5.0","0","0.0","0","NA","114.4","0","195.0","0.0","16","","","NA","87.3","4.6"
"-124.683","49.472","CHROME ISLAND","1021500","BC","15.7","1","NA","27.0","1","7.0","1","0.0","1","NA","80.4","1","NA","0.0","11","","","NA","76.0","8.9"
"-124.900","49.717","COMOX A","1021830","BC","15.1","0","0.6","24.7","0","4.7","0","0.0","0","NA","68.2","0","163.0","","10","","","NA","90.4","2.8"
"-125.033","49.686","COURTENAY PUNTLEDGE","1021989","BC","14.2","7","NA","29.0","4","1.0","5","0.0","4","NA","61.8","4","NA","0.0","13","","","NA","92.4","4.0"
"-123.811","49.209","ENTRANCE ISLAND","1022689","BC","15.6","1","NA","21.9","1","11.0","1","","","NA","76.2","1","NA","","12","","","NA","74.1","5.2"
"-125.993","50.454","FANNY ISLAND","1022795","BC","12.5","12","NA","17.6","12","5.0","12","","","NA","146.8","12","NA","","11","","","NA","99.2","0.0"
"-125.203","50.099","HERIOT BAY SE","1023462","BC","14.8","0","NA","23.5","0","4.0","0","0.0","0","NA","212.0","0","NA","0.0","17","","","NA","95.3","0.0"
"-124.512","49.353","LITTLE QUALICUM HATCHERY","1024638","BC","13.7","5","0.5","25.5","5","-1.0","5","0.0","5","NA","87.4","5","NA","0.0","13","","","NA","106.6","0.0"
"-123.870","49.054","NANAIMO A","1025365","BC","15.0","0","NA","27.1","0","2.2","0","","","NA","","","NA","","","","","NA","94.3","4.3"
"-123.870","49.054","NANAIMO A","1025369","BC","15.2","0","NA","27.0","0","2.0","0","0.0","0","NA","71.8","0","NA","0.0","11","","","NA","90.2","5.0"
"-123.988","49.199","NANAIMO CITY YARD","10253G0","BC","","","NA","","","","","0.0","1","NA","102.6","1","NA","0.0","12","","","NA","",""
"-127.367","50.681","PORT HARDY A","1026271","BC","12.4","3","NA","20.3","3","-1.2","3","0.0","0","NA","131.4","1","NA","","14","","","NA","150.8","0.0"
"-124.394","49.337","QUALICUM BEACH AIRPORT","1026562","BC","14.6","1","NA","25.0","1","1.6","1","","","NA","71.6","1","NA","","11","","","NA","100.6","1.0"
"-124.617","49.394","QUALICUM R FISH RESEARCH","1026565","BC","14.7","0","1.1","27.0","0","1.5","0","0.0","0","NA","95.0","0","205.0","0.0","13","","","NA","102.2","2.0"
"-124.435","49.487","SISTERS ISLAND","1027403","BC","15.8","1","NA","22.5","1","9.0","1","","","NA","","","NA","","","","","NA","71.0","6.6"
"-123.809","49.209","ENTRANCE ISLAND","102BFHH","BC","15.4","2","NA","22.0","2","9.5","2","0.0","2","NA","104.3","2","NA","0.0","11","","","NA","78.1","3.9"
"-124.982","49.337","ALBERNI ROBERTSON CREEK","1030230","BC","16.3","2","1.0","33.0","2","-1.0","2","0.0","2","NA","114.3","2","NA","0.0","15","","","NA","64.7","16.3"
"-125.216","48.786","CAPE BEALE LIGHT","1031316","BC","14.5","2","1.2","20.5","2","7.5","2","0.0","2","NA","247.1","2","NA","0.0","14","","","NA","98.5","0.0"
"-126.543","49.383","ESTEVAN POINT","1032730","BC","15.0","0","1.7","20.5","0","4.5","0","0.0","0","NA","298.5","0","224.0","0.0","14","","","NA","89.5","0.3"
"-126.543","49.383","ESTEVAN POINT CS","1032731","BC","14.4","2","NA","19.7","2","4.3","2","","","NA","240.7","2","NA","","12","","","NA","100.8","0.0"
"-125.923","49.111","LENNARD ISLAND","1034600","BC","12.0","0","NA","19.5","0","2.5","0","0.0","0","NA","218.4","0","174.0","0.0","14","","","NA","180.3","0.0"
"-124.655","48.859","NITINAT RIVER HATCHERY","1035612","BC","14.8","5","0.2","27.5","5","1.0","5","0.0","5","NA","226.3","5","NA","0.0","13","","","NA","84.2","4.1"
"-126.617","49.600","NOOTKA LIGHTSTATION","1035614","BC","15.3","0","0.6","22.0","0","7.0","0","0.0","0","NA","265.0","0","182.0","0.0","16","","","NA","81.7","0.5"
"-125.097","48.723","PACHENA POINT","1035940","BC","13.8","0","0.9","23.0","0","4.0","0","0.0","0","NA","313.8","0","266.0","0.0","16","","","NA","125.0","0.0"
"-127.653","50.534","QUATSINO","1036570","BC","14.3","0","0.5","22.0","0","3.5","0","0.0","0","NA","159.6","0","131.0","0.0","12","","","NA","110.1","0.0"
"-128.033","50.441","QUATSINO LIGHTSTATION","1036572","BC","15.5","1","1.3","22.5","1","7.0","1","0.0","1","NA","153.2","1","NA","0.0","11","","","NA","73.5","0.0"
"-124.927","49.317","PORT ALBERNI (AUT)","1036B06","BC","15.1","1","NA","28.7","1","-1.8","1","","","NA","79.0","1","NA","","12","","","NA","91.7","6.8"
"-128.908","50.821","SARTINE ISLAND (AUT)","1037090","BC","14.3","11","NA","18.7","11","11.3","11","","","NA","59.6","11","NA","","10","","","NA","70.4","0.0"
"-127.940","50.112","SOLANDER ISLAND (AUT)","1037553","BC","14.8","11","NA","19.3","11","11.6","11","","","NA","106.8","11","NA","","8","","","NA","60.5","0.0"
"-126.654","49.932","TAHSIS VILLAGE NORTH","1037899","BC","13.5","16","NA","26.5","16","0.0","16","","","NA","238.6","23","NA","","7","","","NA","64.0","0.8"
"-125.773","49.082","TOFINO A","1038205","BC","14.4","0","1.0","24.0","0","3.0","0","0.0","0","NA","250.6","0","189.0","0.0","12","","","NA","107.2","0.0"
"-125.773","49.082","TOFINO A","1038210","BC","14.2","0","NA","24.2","0","3.0","0","","","NA","","","NA","","","","","NA","112.9","0.0"
"-125.527","48.945","UCLUELET KENNEDY CAMP","1038332","BC","14.4","0","0.7","24.0","0","1.5","0","0.0","0","NA","278.0","0","199.0","0.0","13","","","NA","107.5","0.0"
"-126.779","50.053","ZEBALLOS MURAUDE CREEK","1039035","BC","14.7","4","NA","27.0","4","1.0","4","0.0","4","NA","250.5","4","NA","0.0","14","","","NA","89.8","4.1"
"-123.402","49.360","BOWEN ISLAND SUNSET PARK","104091B","BC","","","NA","","","","","0.0","20","NA","99.5","20","NA","","9","","","NA","",""
"-123.541","49.386","GIBSONS GOWER POINT","1043152","BC","15.6","0","0.4","24.5","0","6.5","0","0.0","0","NA","127.9","0","221.0","0.0","12","","","NA","80.1","7.2"
"-123.913","49.468","MERRY ISLAND LIGHTSTATION","1045100","BC","15.9","0","0.7","23.5","0","7.0","0","0.0","0","NA","122.2","0","251.0","0.0","12","","","NA","72.7","10.2"
"-123.299","49.488","HOWE SOUND - PAM ROCKS","10459NN","BC","16.1","1","NA","24.7","1","8.9","1","","","NA","94.6","1","NA","","13","","","NA","65.3","10.0"
"-124.032","49.634","PENDER HARBOUR","1046115","BC","","","NA","","","","","0.0","1","NA","135.3","1","NA","0.0","14","","","NA","",""
"-123.496","49.526","PORT MELLON","1046332","BC","15.6","2","NA","27.4","2","4.5","2","","","NA","19.1","24","NA","","2","","","NA","77.5","11.1"
"-124.500","49.834","POWELL RIVER A","1046391","BC","14.2","0","0.1","25.5","0","0.0","0","0.0","0","NA","130.6","0","239.0","0.0","14","","","NA","113.7","0.0"
"-124.497","49.835","POWELL RIVER","1046392","BC","14.0","0","NA","25.4","0","0.5","0","","","NA","116.6","0","NA","","14","","","NA","119.2","0.2"
"-124.500","49.834","POWELL RIVER A","1046396","BC","14.0","0","NA","25.7","0","-0.2","0","","","NA","","","NA","","","","","NA","121.0","0.0"
"-123.715","49.458","SECHELT AUT","1047172","BC","15.1","3","NA","25.1","3","3.0","3","","","NA","5.0","25","NA","","1","","","NA","81.7","4.2"
"-123.161","49.783","SQUAMISH AIRPORT","10476F0","BC","15.2","0","NA","30.2","0","0.8","0","","","NA","219.4","0","NA","","12","","","NA","92.9","8.9"
"-122.955","50.129","WHISTLER","1048898","BC","12.4","0","-0.3","28.0","0","-1.5","0","0.0","0","NA","149.0","0","271.0","0.0","16","","","NA","169.5","0.0"
"-131.016","51.936","CAPE ST JAMES","1051351","BC","13.3","3","NA","17.0","3","9.8","3","","","NA","79.5","3","NA","","10","","","NA","125.8","0.0"
"-132.772","53.316","KINDAKUN ROCKS (AUT)","1054222","BC","13.9","5","NA","18.0","5","8.6","5","","","NA","85.0","5","NA","","13","","","NA","103.6","0.0"
"-133.058","54.255","LANGARA","1054500","BC","13.3","0","1.0","18.5","0","7.5","0","0.0","0","0.0","130.4","0","68.0","0.0","16","","","NA","141.6","0.0"
"-133.058","54.255","LANGARA ISLAND RCS","1054503","BC","12.8","0","NA","17.9","0","7.5","0","","","NA","128.1","0","NA","","16","","","NA","155.2","0.0"
"-132.125","54.027","MASSET A","1054929","BC","12.4","2","NA","19.3","2","1.3","2","","","NA","","","NA","","","","","NA","157.3","0.0"
"-131.661","54.159","ROSE SPIT (AUT)","1056869","BC","13.3","1","NA","19.1","1","7.8","1","","","NA","85.6","1","NA","","14","","","NA","136.5","0.0"
"-131.813","53.249","SANDSPIT AIRPORT AUTO","1057051","BC","13.7","0","NA","19.7","0","5.6","0","","","NA","46.6","0","NA","","13","","","NA","129.6","0.0"
"-131.814","53.254","SANDSPIT","1057052","BC","13.9","0","NA","20.0","0","6.6","0","","","NA","49.1","0","NA","","13","","","NA","123.1","0.0"
"-127.864","51.604","ADDENBROKE ISLAND","1060080","BC","14.2","0","1.1","21.0","0","6.5","0","0.0","0","NA","216.4","0","95.0","0.0","14","","","NA","115.3","0.0"
"-128.157","52.185","BELLA BELLA","1060815","BC","13.5","2","NA","22.0","2","-0.6","2","","","NA","161.4","2","NA","","14","","","NA","126.5","0.0"
"-126.587","52.389","BELLA COOLA AIRPORT","1060844","BC","14.3","1","NA","25.4","1","-1.2","1","","","NA","79.1","1","NA","","11","","","NA","111.1","2.5"
"-126.596","52.388","BELLA COOLA A","1060848","BC","14.4","2","NA","24.9","2","-0.7","2","","","NA","","","NA","","","","","NA","103.4","2.1"
"-128.524","52.643","BOAT BLUFF","1060901","BC","14.4","0","1.6","21.0","0","6.0","0","0.0","0","NA","326.4","0","89.0","0.0","15","","","NA","106.8","0.0"
"-130.638","53.493","BONILLA ISLAND","1060902","BC","13.3","0","0.6","20.0","0","7.5","0","0.0","0","NA","167.4","0","101.0","0.0","15","","","NA","140.3","0.0"
"-130.639","53.493","BONILLA ISLAND (AUT)","1060R0K","BC","13.2","6","NA","18.6","6","8.6","6","","","NA","108.8","6","NA","","12","","","NA","116.1","0.0"
"-127.471","52.187","CATHEDRAL POINT (AUT)","1061458","BC","15.7","14","NA","22.1","14","9.3","14","","","NA","39.6","14","NA","","6","","","NA","38.5","1.3"
"-131.602","53.030","CUMSHEWA ISLAND","1062251","BC","13.9","6","NA","18.4","6","9.9","6","","","NA","14.4","6","NA","","6","","","NA","99.3","0.0"
"-128.112","52.185","DRYAD POINT","1062544","BC","15.1","0","1.5","22.5","0","7.0","0","0.0","0","NA","145.4","0","70.0","0.0","14","","","NA","88.2","0.0"
"-127.835","51.247","EGG ISLAND","1062646","BC","13.1","5","0.9","18.0","5","5.0","5","0.0","5","NA","135.2","5","NA","0.0","13","","","NA","123.1","0.0"
"-130.708","54.569","GREEN ISLAND","1063298","BC","13.6","0","1.3","21.0","0","7.0","0","0.0","0","NA","178.5","0","71.0","0.0","15","","","NA","131.9","0.0"
"-130.698","54.580","GREY ISLET (AUT)","1063303","BC","14.0","5","NA","21.2","5","8.0","5","","","NA","0.2","7","NA","","0","","","NA","99.4","0.0"
"-127.632","50.940","HERBERT ISLAND (AUT)","1063461","BC","12.7","2","NA","18.4","2","8.1","2","","","NA","92.4","2","NA","","13","","","NA","147.4","0.0"
"-130.361","54.172","HOLLAND ROCK","1063496","BC","12.8","1","NA","18.3","1","6.4","1","","","NA","81.6","1","NA","","11","","","NA","149.5","0.0"
"-128.407","52.270","IVORY ISLAND","1063690","BC","14.3","0","1.1","20.0","0","6.5","0","0.0","0","NA","154.6","0","72.0","0.0","15","","","NA","110.9","0.0"
"-127.943","53.563","KEMANO","1064020","BC","13.6","0","0.9","27.5","0","1.0","0","0.0","0","NA","105.9","0","65.0","0.0","15","","","NA","136.1","2.6"
"-128.634","54.054","KITIMAT TOWNSITE","1064320","BC","13.2","9","0.7","25.0","9","1.0","9","0.0","9","NA","65.2","9","NA","0.0","10","","","NA","100.5","0.5"
"-128.705","54.010","KITIMAT 2","1064321","BC","13.4","7","0.2","25.5","7","0.0","7","0.0","7","NA","87.6","7","NA","0.0","12","","","NA","106.7","1.0"
"-130.609","54.296","LUCY ISLAND LIGHTSTATION","1064728","BC","13.3","0","NA","21.0","0","7.8","0","","","NA","","","NA","","","","","NA","140.6","0.0"
"-128.719","52.262","MCINNES ISLAND","1065010","BC","14.7","0","1.6","21.0","0","8.0","0","0.0","0","0.0","169.4","0","79.0","0.0","13","","","NA","99.0","0.0"
"-130.445","54.286","PRINCE RUPERT","1066482","BC","12.8","0","NA","21.2","0","2.7","0","","","NA","177.0","0","NA","","14","","","NA","156.1","0.0"
"-130.290","54.320","PRINCE RUPERT MONT CIRC","1066488","BC","","","NA","","","","","0.0","29","NA","0.0","29","NA","","0","","","NA","",""
"-129.983","55.933","STEWART A","1067748","BC","12.3","3","NA","25.5","3","0.5","3","","","NA","","","NA","","","","","NA","153.4","0.8"
"-128.625","54.502","TERRACE PCC","1068131","BC","13.5","2","0.9","24.0","2","0.0","2","0.0","2","NA","58.4","2","NA","0.0","12","","","NA","125.5","0.0"
"-128.578","54.469","TERRACE A","1068134","BC","12.8","0","NA","25.5","0","-1.8","0","0.0","0","NA","99.4","0","NA","","15","","","NA","156.1","0.0"
"-130.880","54.295","TRIPLE ISLAND","1068250","BC","13.8","0","NA","21.0","0","8.0","0","0.0","0","NA","81.4","0","NA","0.0","16","","","NA","126.5","0.0"
"-126.277","54.199","EQUITY SILVER","1072692","BC","6.7","7","-0.6","21.0","6","-7.0","7","1.6","6","NA","40.5","6","NA","0.0","9","","","NA","260.3","0.0"
"-126.668","54.396","HOUSTON","1073615","BC","10.8","0","NA","27.0","0","-6.0","0","0.0","0","NA","47.2","0","NA","0.0","9","","","NA","214.6","0.0"
"-127.183","54.825","SMITHERS","1077499","BC","10.5","0","NA","24.8","0","-5.7","0","","","NA","26.0","0","NA","","8","","","NA","225.8","0.0"
"-127.189","54.824","SMITHERS AIRPORT AUTO","1077501","BC","10.6","1","NA","23.4","1","-4.7","1","","","NA","22.6","0","NA","","7","","","NA","215.6","0.0"
"-127.171","55.289","SUSKWA VALLEY","107G879","BC","8.8","1","-0.8","22.5","1","-6.0","1","0.0","1","NA","51.0","1","NA","0.0","12","","","NA","265.4","0.0"
"-125.997","53.772","OOTSA LAKESKINS LAKE CLIMATE","1085836","BC","10.7","0","NA","23.6","0","-3.5","0","","","NA","28.2","0","NA","","6","","","NA","218.9","0.0"
"-122.738","50.302","PEMBERTON AIRPORT (WIND)","1086081","BC","15.1","1","NA","32.9","1","0.8","1","","","NA","","","NA","","","","","NA","94.7","11.9"
"-122.734","50.306","PEMBERTON AIRPORT CS","1086082","BC","15.1","0","NA","32.1","0","1.5","0","","","NA","","","NA","","","","","NA","99.0","11.5"
"-124.136","52.114","PUNTZI MOUNTAIN (AUT)","1086558","BC","9.7","0","NA","28.3","0","-8.0","0","","","NA","85.1","0","NA","","10","","","NA","248.1","0.0"
"-124.403","51.675","TATLAYOKO LAKE RCS","1088015","BC","10.3","0","NA","28.2","0","-9.0","0","","","NA","48.4","0","NA","","8","","","NA","229.9","0.0"
"-125.959","54.383","BURNS LAKE DECKER LAKE","1091174","BC","8.9","0","NA","24.7","0","-8.5","0","","","NA","26.2","0","NA","","6","","","NA","272.2","0.0"
"-124.286","54.455","FORT ST JAMES AUTO","1092975","BC","11.5","1","NA","27.0","1","-3.5","1","","","NA","32.4","1","NA","","5","","","NA","187.5","0.3"
"-122.286","52.531","MCLEESE LAKE GRANITE MT","1095018","BC","9.1","14","NA","25.0","9","-5.5","10","0.0","9","NA","86.7","9","NA","0.0","6","","","NA","141.9","0.0"
"-122.678","53.884","PRINCE GEORGE","1096439","BC","10.1","0","NA","25.6","0","-8.1","0","","","NA","55.9","0","NA","","9","","","NA","236.0","0.0"
"-122.672","53.889","PRINCE GEORGE AIRPORT AUTO","1096453","BC","10.3","1","NA","25.6","1","-8.2","1","","","NA","50.3","5","NA","","9","","","NA","224.7","0.0"
"-122.791","53.900","PRINCE GEORGE MASSEY AUTO","1096454","BC","12.0","8","NA","27.1","8","-4.1","8","","","NA","42.3","8","NA","","9","","","NA","133.7","1.0"
"-122.768","53.880","PRINCE GEORGE STP","1096468","BC","12.3","1","1.1","27.0","0","-4.0","1","0.0","0","0.0","56.4","0","105.0","0.0","11","","","NA","165.0","0.5"
"-122.510","53.026","QUESNEL","1096629","BC","11.8","1","NA","28.3","1","-5.4","1","","","NA","64.2","1","NA","","14","","","NA","180.7","0.4"
"-122.506","53.027","QUESNEL AIRPORT AUTO","1096631","BC","11.9","1","NA","28.3","1","-5.7","1","","","NA","52.4","1","NA","","11","","","NA","176.3","0.5"
"-121.686","52.184","SPOKIN LAKE 4E","1097646","BC","8.1","1","-0.3","26.0","1","-10.5","1","0.0","1","NA","100.8","1","NA","0.0","13","","","NA","285.8","0.0"
"-122.054","52.183","WILLIAMS LAKE A","1098941","BC","10.4","5","NA","26.1","5","-4.7","5","0.0","0","NA","84.8","2","NA","","12","","","NA","190.7","0.0"
"-124.017","54.033","VANDERHOOF","1098D90","BC","11.7","0","0.7","29.5","0","-5.5","0","0.0","0","0.0","49.9","0","113.0","0.0","15","","","NA","189.3","1.3"
"-121.263","51.623","108 MILE HOUSE ABEL LAKE","109E7R6","BC","10.8","2","NA","28.0","2","-4.5","2","0.0","2","NA","53.0","2","NA","0.0","8","","","NA","202.4","0.0"
"-122.360","49.025","ABBOTSFORD A","1100031","BC","15.6","1","NA","29.4","1","5.1","1","0.0","4","NA","159.7","0","NA","","15","","","NA","77.8","9.4"
"-122.360","49.025","ABBOTSFORD A","1100032","BC","15.7","0","NA","29.4","0","5.1","0","","","NA","","","NA","","","","","NA","77.8","9.4"
"-121.760","49.243","AGASSIZ RCS","1100119","BC","16.0","0","-0.3","29.4","0","5.0","0","","","NA","172.2","0","NA","","15","","","NA","71.5","11.6"
"-121.760","49.243","AGASSIZ CDA","1100120","BC","","","","","","8.0","1","0.0","1","NA","182.1","1","NA","","16","","","NA","",""
"-122.955","50.129","WHISTLER - NESTERS","1100875","BC","12.7","1","NA","29.1","1","-0.9","1","","","NA","","","NA","","","","","NA","155.0","0.8"
"-122.918","49.278","BURNABY SIMON FRASER U","1101158","BC","13.5","26","-1.1","18.0","26","7.0","26","0.0","26","NA","14.6","26","NA","","2","","","NA","18.0","0.0"
"-123.111","50.144","CALLAGHAN VALLEY","1101300","BC","11.0","0","NA","27.5","0","-1.1","0","","","NA","","","NA","","","","","NA","210.4","0.2"
"-122.698","49.109","CLOVERDALE EAST","1101708","BC","16.4","0","NA","28.0","0","6.5","0","0.0","0","NA","152.6","0","NA","0.0","12","","","NA","65.2","16.0"
"-121.979","49.079","CULTUS LAKE","1102221","BC","15.8","0","NA","30.2","0","4.1","0","","","NA","152.4","0","NA","","14","","","NA","81.6","14.6"
"-123.002","49.126","DELTA BURNS BOG","1102415","BC","15.1","1","NA","27.1","1","1.2","1","","","NA","","","NA","","","","","NA","87.1","1.9"
"-123.093","49.011","DELTA TSAWWASSEN BEACH","1102425","BC","16.1","6","0.8","26.0","4","8.0","6","0.0","0","NA","114.8","0","288.0","0.0","10","","","NA","51.3","6.6"
"-122.551","49.145","FORT LANGLEY TELEGRAPH TRAIL","1102912","BC","15.8","0","NA","29.0","0","4.0","0","0.0","0","NA","189.8","0","NA","0.0","15","","","NA","76.4","11.5"
"-122.573","49.264","HANEY UBC RF ADMIN","1103332","BC","15.2","1","0.3","28.0","1","4.0","1","0.0","1","NA","197.6","1","NA","0.0","15","","","NA","90.0","10.2"
"-122.271","49.153","MISSION WEST ABBEY","1105192","BC","15.6","0","0.0","28.0","0","6.0","0","0.0","0","NA","223.6","0","252.0","0.0","16","","","NA","89.0","16.2"
"-123.078","49.381","N VANC GROUSE MTN RESORT","1105658","BC","9.8","3","-1.6","24.5","3","0.0","3","0.0","3","NA","506.5","3","NA","0.0","15","","","NA","223.6","1.5"
"-123.115","49.315","N VANCOUVER WHARVES","1105669","BC","","","NA","","","","","0.0","3","NA","188.2","3","NA","0.0","15","","","NA","",""
"-122.690","49.208","PITT MEADOWS CS","1106178","BC","16.2","1","NA","29.1","1","3.6","1","","","NA","161.7","1","NA","","13","","","NA","66.9","13.5"
"-123.265","49.330","POINT ATKINSON","1106200","BC","15.7","1","NA","23.6","1","8.3","1","","","NA","88.2","1","NA","","13","","","NA","74.7","6.7"
"-123.087","49.179","RICHMOND DALLYN 2","1106764","BC","","","NA","","","","","0.0","0","NA","143.4","0","NA","0.0","13","","","NA","",""
"-122.881","49.279","PORT MOODY GLENAYRE","1106CL2","BC","15.9","0","0.9","28.0","0","6.0","0","0.0","0","NA","213.8","0","245.0","0.0","16","","","NA","77.2","13.0"
"-123.093","49.171","RICHMOND NATURE PARK","1106PF7","BC","16.1","0","1.1","29.0","0","3.5","0","0.0","0","NA","131.3","0","231.0","0.0","13","","","NA","63.1","5.6"
"-123.303","49.106","SANDHEADS CS","1107010","BC","15.8","0","NA","22.0","0","9.0","0","","","NA","","","NA","","","","","NA","71.1","4.5"
"-122.110","49.113","SUMAS CANAL","1107785","BC","17.3","16","NA","30.0","10","7.5","11","0.0","10","NA","153.0","10","NA","0.0","9","","","NA","21.3","11.1"
"-123.187","49.183","VANCOUVER SEA ISLAND CCG","1108380","BC","16.0","1","NA","27.7","1","6.0","1","","","NA","112.9","1","NA","","12","","","NA","67.6","8.5"
"-123.184","49.195","VANCOUVER INTL A","1108395","BC","15.6","0","NA","27.6","0","3.6","0","0.0","0","NA","122.2","0","NA","","13","","","NA","79.3","6.0"
"-123.122","49.295","VANCOUVER HARBOUR CS","1108446","BC","16.2","1","NA","28.0","1","7.0","1","","","NA","169.9","1","NA","","14","","","NA","62.8","10.7"
"-123.193","49.347","WEST VANCOUVER AUT","1108824","BC","15.7","1","NA","27.5","1","5.9","1","","","NA","206.3","1","NA","","15","","","NA","79.7","13.5"
"-122.947","50.068","WHISTLER ROUNDHOUSE","1108906","BC","8.4","14","NA","19.5","14","-5.0","14","0.0","14","NA","113.5","14","NA","","9","","","NA","154.1","0.0"
"-122.784","49.018","WHITE ROCK CAMPBELL SCIENTIFIC","1108910","BC","15.8","0","NA","25.9","0","5.2","0","","","NA","132.0","0","NA","","13","","","NA","70.5","4.6"
"-121.498","49.368","HOPE A","1113542","BC","16.3","0","NA","30.5","0","5.1","0","","","NA","137.3","0","NA","","15","","","NA","70.2","18.2"
"-121.493","49.370","HOPE AIRPORT","1113543","BC","16.2","2","NA","30.8","2","5.2","2","","","NA","138.3","2","NA","","13","","","NA","67.7","16.8"
"-121.233","49.267","HOPE SLIDE","1113581","BC","12.4","0","0.6","28.5","0","0.0","0","0.0","0","NA","120.8","0","196.0","0.0","20","","","NA","169.8","0.3"
"-121.934","50.684","LILLOOET","1114619","BC","16.9","0","NA","33.6","0","5.0","0","","","NA","35.4","0","NA","","8","","","NA","63.3","30.6"
"-121.582","50.224","LYTTON A","1114738","BC","16.9","0","NA","33.6","0","5.1","0","","","NA","60.0","1","NA","","9","","","NA","70.6","38.9"
"-121.582","50.224","LYTTON RCS","1114746","BC","17.3","1","NA","34.5","1","5.2","1","","","NA","59.2","1","NA","","7","","","NA","62.1","42.3"
"-120.333","49.673","JELLICOE","1123721","BC","11.7","4","NA","29.5","4","-1.5","4","1.0","4","NA","57.9","4","NA","0.0","15","","","NA","165.2","1.3"
"-119.378","49.957","KELOWNA","1123939","BC","14.8","0","NA","30.1","0","1.7","0","","","NA","40.8","0","NA","","14","","","NA","106.6","12.0"
"-119.400","49.941","KELOWNA UBCO","1123996","BC","15.9","1","NA","30.5","1","3.1","1","","","NA","","","NA","0.0","","","","NA","85.5","23.2"
"-120.778","50.113","MERRITT","1125073","BC","13.7","0","NA","31.1","0","-0.4","0","","","NA","59.0","1","NA","","10","","","NA","134.4","4.2"
"-120.801","50.114","MERRITT STP","1125079","BC","13.8","0","-0.1","31.0","0","-0.5","0","0.0","0","NA","60.6","0","246.0","0.0","10","","","NA","133.9","8.1"
"-119.445","50.056","OKANAGAN CENTRE","1125700","BC","16.5","0","1.2","29.0","0","6.0","0","0.0","0","NA","47.6","0","151.0","0.0","14","","","NA","71.0","27.0"
"-119.545","49.179","OLIVER STP","1125766","BC","17.3","12","0.9","33.5","12","5.0","12","0.0","12","NA","56.3","12","NA","0.0","7","","","NA","34.3","22.2"
"-119.441","49.028","OSOYOOS CS","1125852","BC","16.8","1","-0.4","32.2","1","4.5","1","","","NA","","","NA","","","","","NA","71.5","37.7"
"-119.717","49.783","PEACHLAND","1126070","BC","16.6","0","0.8","29.0","0","5.0","0","0.0","0","NA","73.4","0","313.0","0.0","15","","","NA","70.5","28.7"
"-119.602","49.463","PENTICTON A","1126146","BC","15.8","0","NA","30.4","0","4.2","0","0.0","0","NA","61.0","0","NA","","14","","","NA","84.7","19.7"
"-120.513","49.468","PRINCETON A","1126510","BC","13.7","0","0.5","31.5","0","0.5","0","0.0","0","0.0","68.7","0","289.0","0.0","11","","","NA","135.9","6.7"
"-120.513","49.468","PRINCETON A","1126518","BC","13.3","0","NA","31.8","0","0.3","0","","","NA","","","NA","","","","","NA","146.1","5.7"
"-119.194","50.223","VERNON AUTO","1128582","BC","15.2","0","NA","30.4","0","3.4","0","","","NA","47.8","0","NA","","11","","","NA","105.8","20.7"
"-119.056","50.359","VERNON SILVER STAR LODGE","1128584","BC","12.8","25","NA","21.5","25","2.5","25","0.0","25","NA","22.3","25","NA","","3","","","NA","26.2","0.0"
"-120.510","49.465","PRINCETON CS","112FN0M","BC","13.3","0","NA","30.7","0","0.6","0","","","NA","60.9","0","NA","","9","","","NA","147.0","4.5"
"-119.649","49.563","SUMMERLAND CS","112G8L1","BC","15.7","1","-0.3","30.0","1","4.3","1","","","NA","85.3","1","NA","","14","","","NA","87.8","22.3"
"-118.772","49.004","MIDWAY","1135126","BC","13.5","2","-0.9","32.5","2","0.0","2","0.0","2","NA","75.8","2","NA","0.0","13","","","NA","133.3","6.3"
"-118.228","49.017","BILLINGS","1140876","BC","15.4","1","-0.4","32.5","1","2.0","1","0.0","1","NA","89.6","1","NA","","14","","","NA","96.5","20.2"
"-117.633","49.296","CASTLEGAR A","1141455","BC","15.2","0","0.6","32.0","0","0.0","0","0.0","0","NA","57.4","0","135.0","0.0","14","","","NA","101.6","19.0"
"-117.774","49.343","CASTLEGAR BCHPA DAM","1141457","BC","15.9","10","1.1","29.5","8","5.0","8","0.0","8","NA","51.1","8","NA","","12","","","NA","49.9","7.1"
"-117.633","49.296","CASTLEGAR A","1141460","BC","14.6","0","NA","32.1","0","-0.5","0","","","NA","","","NA","","","","","NA","118.3","15.8"
"-116.972","50.239","DUNCAN LAKE DAM","1142574","BC","13.5","0","1.4","28.0","0","1.5","0","0.0","0","NA","92.6","0","174.0","0.0","16","","","NA","138.8","3.8"
"-117.817","50.269","NAKUSP CS","1145297","BC","14.1","0","NA","26.7","0","2.5","0","","","NA","117.8","0","NA","","16","","","NA","119.2","3.4"
"-117.206","49.586","NELSON NE","1145442","BC","14.7","8","NA","29.5","8","2.5","8","0.0","2","NA","42.6","2","NA","0.0","9","","","NA","86.4","12.9"
"-117.370","49.996","NEW DENVER","1145460","BC","14.8","0","0.9","29.0","0","3.0","0","0.0","0","NA","98.4","0","179.0","0.0","17","","","NA","107.1","9.6"
"-117.305","49.491","NELSON CS","1145M29","BC","14.9","0","NA","32.2","0","0.6","0","","","NA","","","NA","","","","","NA","109.5","17.3"
"-117.739","49.112","WARFIELD RCS","1148705","BC","14.9","0","NA","32.9","0","1.1","0","","","NA","71.3","0","NA","","12","","","NA","117.4","23.9"
"-116.501","49.082","CRESTON CAMPBELL SCIENTIFIC","114B1F0","BC","14.8","0","NA","31.3","0","0.8","0","","","NA","51.3","0","NA","","10","","","NA","114.8","18.9"
"-117.399","49.512","NELSON RIXEN CREEK","114EMDM","BC","13.6","0","NA","30.5","0","-0.5","0","0.0","0","NA","94.2","0","NA","0.0","15","","","NA","143.9","11.8"
"-115.782","49.612","CRANBROOK A","1152105","BC","12.7","2","NA","29.3","2","-1.3","2","0.0","11","NA","55.4","0","NA","","8","","","NA","149.9","2.7"
"-115.789","49.618","CRANBROOK AIRPORT AUTO","1152106","BC","12.8","0","NA","29.1","0","-1.9","0","","","NA","63.2","0","NA","","7","","","NA","159.4","3.1"
"-115.073","49.489","FERNIE","1152850","BC","12.2","4","0.9","29.5","4","-2.0","4","0.0","4","NA","123.5","4","NA","2.0","13","","","NA","150.8","0.0"
"-115.461","49.524","FT STEELE DANDY CRK","1153034","BC","13.8","21","NA","30.0","12","-1.0","12","0.0","12","NA","51.4","12","NA","0.0","5","","","NA","39.2","1.0"
"-115.962","49.632","KIMBERLEY PCC","1154203","BC","13.4","12","0.7","29.5","12","-1.5","12","0.0","12","NA","31.6","12","NA","0.0","4","","","NA","85.4","1.8"
"-116.061","50.631","KOOTENAY NP WEST GATE","1154410","BC","11.9","2","-0.1","26.0","2","-1.0","2","1.6","2","NA","60.6","2","NA","1.0","13","","","NA","171.1","0.0"
"-114.883","49.745","SPARWOOD","1157630","BC","10.7","0","0.2","26.5","0","-3.0","0","3.8","0","90.0","53.0","0","112.0","0.0","11","","","NA","218.6","0.5"
"-114.884","49.745","SPARWOOD CS","1157631","BC","10.6","0","NA","26.5","0","-2.8","0","","","NA","","","NA","1.0","","","","NA","223.1","0.4"
"-114.883","49.833","SPARWOOD A","1157635","BC","10.6","0","NA","26.8","0","-2.8","0","","","NA","","","NA","","","","","NA","223.6","0.3"
"-115.460","49.473","WARDNER KTNY HATCHERY","1158692","BC","14.8","12","2.1","32.0","12","0.0","12","0.0","12","NA","1.0","12","NA","","1","","","NA","60.4","2.8"
"-121.281","50.708","ASHCROFT","1160515","BC","17.1","0","NA","33.5","0","3.8","0","","","NA","27.2","0","NA","","7","","","NA","64.6","37.4"
"-119.290","52.129","BLUE RIVER A","1160899","BC","12.3","0","1.3","27.5","0","-3.5","0","0.0","0","0.0","108.9","0","153.0","0.0","15","","","NA","172.3","1.0"
"-119.293","52.125","BLUE RIVER A","1160902","BC","11.6","3","NA","27.6","3","-3.3","3","","","NA","","","NA","","","","","NA","172.9","0.1"
"-119.290","52.129","BLUE RIVER CS","1160H99","BC","11.8","0","NA","27.6","0","-3.5","0","","","NA","100.5","0","NA","","17","","","NA","185.2","0.2"
"-120.082","51.653","CLEARWATER AUTO","1161650","BC","13.6","0","NA","30.3","0","-0.8","0","","","NA","","","NA","","","","","NA","140.4","8.3"
"-121.685","51.266","CLINTON A","1161662","BC","8.8","0","NA","26.6","0","-3.4","0","","","NA","43.2","0","NA","","9","","","NA","276.7","0.0"
"-121.505","51.144","CLINTON RCS","1161663","BC","10.6","3","NA","27.2","3","-3.1","3","","","NA","37.8","3","NA","","6","","","NA","200.9","0.0"
"-120.728","51.030","CRISS CREEK","1162177","BC","9.2","8","-0.2","27.0","8","-3.0","8","0.0","8","NA","34.2","8","NA","0.0","8","","","NA","193.2","0.0"
"-120.449","50.703","KAMLOOPS A","1163781","BC","16.1","0","NA","32.3","0","3.6","0","0.0","0","NA","39.1","0","NA","","10","","","NA","83.7","26.0"
"-120.442","50.702","KAMLOOPS AUT","1163842","BC","16.1","0","NA","32.2","0","3.7","0","","","NA","34.1","0","NA","","8","","","NA","83.2","25.1"
"-121.217","51.681","100 MILE HOUSE 6NE","1165793","BC","10.0","0","NA","28.0","0","-3.0","0","0.0","0","NA","77.0","0","NA","0.0","9","","","NA","240.2","0.0"
"-120.800","50.935","RED LAKE","1166658","BC","10.7","1","0.1","27.0","1","-2.5","1","0.0","1","NA","95.8","1","NA","0.0","7","","","NA","212.5","1.0"
"-119.350","50.545","SILVER CREEK","1167337","BC","14.3","0","0.9","29.0","0","3.0","0","0.0","0","NA","79.8","0","234.0","0.0","15","","","NA","120.4","10.2"
"-119.778","51.576","VAVENBY","1168520","BC","13.2","0","1.1","28.0","0","-0.5","0","0.0","0","NA","78.8","0","212.0","0.0","14","","","NA","147.5","2.5"
"-120.172","50.630","KAMLOOPS PRATT ROAD","116C8P0","BC","13.6","11","NA","27.0","11","2.5","11","0.0","11","NA","33.8","11","NA","0.0","9","","","NA","87.6","3.3"
"-119.291","50.703","SALMON ARM CS","116FRMN","BC","15.0","1","0.6","29.3","1","3.9","1","","","NA","","","NA","","","","","NA","101.5","14.5"
"-116.982","51.299","GOLDEN A","1173210","BC","12.4","0","0.9","25.0","0","0.0","0","1.2","0","NA","61.0","0","161.0","1.0","12","","","NA","168.7","0.3"
"-116.982","51.299","GOLDEN A","1173214","BC","12.1","1","NA","25.1","1","0.0","1","","","NA","","","NA","","","","","NA","170.1","0.0"
"-116.984","51.300","GOLDEN AIRPORT","1173220","BC","12.2","0","NA","24.9","0","0.0","0","","","NA","52.6","0","NA","","10","","","NA","174.1","0.0"
"-118.585","52.053","MICA DAM","1175122","BC","12.7","5","1.3","23.0","3","1.5","3","0.0","0","0.0","91.9","0","136.0","0.0","19","","","NA","132.5","0.0"
"-118.183","50.967","REVELSTOKE A","1176745","BC","13.9","0","NA","27.9","0","2.0","0","","","NA","143.8","0","NA","","16","","","NA","126.0","3.7"
"-118.176","50.958","REVELSTOKE AIRPORT AUTO","1176755","BC","13.9","0","NA","27.8","0","2.2","0","","","NA","139.3","0","NA","","14","","","NA","126.4","4.6"
"-116.345","51.443","YOHO PARK","11790J1","BC","8.2","1","NA","23.6","1","-5.4","1","","","NA","","","NA","","","","","NA","284.6","0.0"
"-116.337","51.356","YOHO NP OHARA LAKE","117R00H","BC","5.5","2","NA","20.0","2","-8.5","2","23.0","2","NA","143.8","2","NA","","22","","","NA","348.8","0.0"
"-121.627","55.687","CHETWYND A","1181508","BC","10.5","0","0.6","24.5","0","-6.0","0","0.0","0","0.0","42.4","0","103.0","0.0","7","","","NA","223.9","0.0"
"-121.627","55.687","CHETWYND A","1181513","BC","10.3","1","NA","24.6","1","-6.1","1","","","NA","","","NA","","","","","NA","224.4","0.0"
"-120.183","55.742","DAWSON CREEK A","1182289","BC","9.9","1","NA","25.6","1","-7.4","1","","","NA","18.2","3","NA","","4","","","NA","236.2","0.0"
"-120.740","56.238","FORT ST. JOHN A","1183001","BC","10.1","0","NA","24.1","0","-6.0","0","0.0","0","NA","42.8","0","NA","","7","","","NA","237.6","0.0"
"-123.133","55.299","MACKENZIE","1184791","BC","10.1","0","NA","23.0","0","-5.1","0","","","NA","31.7","3","NA","","10","","","NA","235.9","0.0"
"-123.138","55.305","MACKENZIE AIRPORT AUTO","1184793","BC","10.5","0","NA","23.9","0","-5.0","0","","","NA","35.4","0","NA","","9","","","NA","224.6","0.0"
"-130.031","58.422","DEASE LAKE A","1192341","BC","8.3","0","NA","21.5","0","-5.0","0","","","NA","51.8","0","NA","","11","","","NA","291.2","0.0"
"-122.597","58.836","FORT NELSON A","1192946","BC","10.1","1","NA","21.7","1","-2.9","1","0.0","6","NA","37.7","0","NA","","7","","","NA","227.7","0.0"
"-122.574","58.841","FORT NELSON","1192948","BC","10.5","5","NA","21.7","5","-3.1","5","","","NA","36.5","5","NA","","7","","","NA","188.1","0.0"
"-130.025","58.426","DEASE LAKE (AUT)","119BLM0","BC","8.3","0","NA","21.5","0","-5.0","0","","","NA","47.9","0","NA","0.0","11","","","NA","292.0","0.0"
"-133.700","59.567","ATLIN","1200560","BC","10.2","0","2.1","20.0","0","-2.0","0","0.0","0","0.0","10.0","0","24.0","0.0","3","","","NA","234.1","0.0"
"-136.367","59.450","PLEASANT CAMP","1206197","BC","10.6","0","2.0","25.0","0","-5.0","0","0.0","0","0.0","90.7","0","61.0","0.0","14","","","NA","221.2","0.0"
"-140.869","62.410","BEAVER CREEK A","2100155","YT","6.6","2","NA","22.4","2","-10.2","2","","","NA","","","NA","","","","","NA","319.0","0.0"
"-139.040","61.371","BURWASH A","2100181","YT","6.7","0","NA","20.9","0","-7.3","0","","","NA","6.2","0","NA","","3","","","NA","340.5","0.0"
"-139.017","61.367","BURWASH AIRPORT AUTO","2100184","YT","6.6","0","NA","20.6","0","-7.9","0","","","NA","3.6","0","NA","","1","","","NA","341.9","0.0"
"-136.192","62.115","CARMACKS CS","2100301","YT","8.9","0","NA","24.3","0","-4.9","0","","","NA","","","NA","","","","","NA","273.2","0.0"
"-139.130","64.042","DAWSON CITY A","2100407","YT","7.8","0","NA","23.1","0","-7.4","0","","","NA","","","NA","","","","","NA","306.0","0.0"
"-133.376","62.208","FARO (AUT)","2100518","YT","8.3","0","NA","22.9","0","-5.4","0","","","NA","18.6","9","NA","","5","","","NA","291.3","0.0"
"-133.373","62.207","FARO A","2100527","YT","8.3","1","NA","22.4","1","-5.7","1","","","NA","","","NA","","","","","NA","281.3","0.0"
"-137.580","60.773","HAINES JUNCTION","2100630","YT","7.9","0","NA","23.0","0","-6.9","0","","","NA","","","NA","","","","","NA","304.5","0.0"
"-138.913","69.568","HERSCHEL ISLAND","2100636","YT","5.4","8","NA","14.9","8","-0.9","8","","","NA","17.3","8","NA","","7","","","NA","277.3","0.0"
"-140.150","69.164","IVVAVIK NAT. PARK","2100660","YT","5.1","4","NA","20.6","4","-7.1","4","","","NA","","","NA","2.0","","","","NA","335.2","0.0"
"-130.037","63.244","MACMILLAN PASS","2100693","YT","4.8","2","NA","18.7","2","-8.0","2","","","NA","52.5","2","NA","0.0","8","","","NA","370.2","0.0"
"-140.848","68.801","MARGARET LAKE","2100697","YT","3.3","2","NA","17.7","2","-8.9","2","","","NA","15.0","23","NA","","3","","","NA","411.1","0.0"
"-135.868","63.616","MAYO A","2100701","YT","8.9","1","NA","24.5","1","-5.9","1","0.0","0","NA","26.5","0","NA","","7","","","NA","262.6","0.0"
"-135.869","63.617","MAYO A","2100702","YT","8.6","0","NA","24.5","0","-7.3","0","","","NA","","","NA","","","","","NA","280.6","0.0"
"-139.839","67.571","OLD CROW RCS","2100805","YT","6.3","1","NA","21.0","1","-4.1","1","","","NA","23.9","1","NA","","4","","","NA","339.1","0.0"
"-139.840","67.570","OLD CROW A","2100807","YT","6.2","0","NA","21.2","0","-4.2","0","","","NA","","","NA","","","","","NA","355.3","0.0"
"-137.050","61.033","OTTER FALLS NCPC","2100840","YT","8.3","7","2.6","22.0","7","-6.0","7","0.0","7","NA","23.9","7","NA","0.0","6","","","NA","222.3","0.0"
"-136.218","66.981","ROCK RIVER","2100935","YT","4.4","3","NA","18.5","3","-4.3","3","","","NA","45.6","16","NA","","7","","","NA","366.2","0.0"
"-137.217","68.950","SHINGLE POINT A","2100950","YT","5.9","2","NA","21.5","2","-3.4","2","","","NA","","","NA","","","","","NA","340.0","0.0"
"-139.127","64.061","DAWSON","2100LRP","YT","7.9","1","NA","23.6","1","-7.3","1","","","NA","23.3","1","NA","","6","","","NA","292.1","0.0"
"-135.573","60.946","TAKHINI RIVER RANCH","2101095","YT","8.6","0","2.0","23.5","0","-7.0","0","0.0","0","0.0","16.0","0","60.0","0.0","3","","","NA","281.8","0.0"
"-132.733","60.167","TESLIN (AUT)","2101102","YT","9.2","1","NA","21.0","1","-4.7","1","","","NA","","","NA","","","","","NA","256.2","0.0"
"-132.742","60.173","TESLIN A","2101106","YT","9.0","0","NA","20.9","0","-4.7","0","","","NA","","","NA","","","","","NA","268.8","0.0"
"-128.823","60.116","WATSON LAKE A","2101201","YT","8.6","1","NA","19.4","1","-4.2","1","0.1","0","NA","25.0","0","NA","","6","","","NA","271.7","0.0"
"-128.823","60.116","WATSON LAKE A","2101202","YT","8.6","0","NA","19.4","0","-4.2","0","","","NA","","","NA","","","","","NA","281.6","0.0"
"-128.832","60.116","WATSON LAKE (AUT)","2101204","YT","8.9","1","NA","19.9","1","-3.8","1","","","NA","12.2","1","NA","","4","","","NA","264.5","0.0"
"-135.067","60.709","WHITEHORSE A","2101303","YT","10.0","0","NA","21.9","0","-5.2","0","","","NA","","","NA","","","","","NA","239.3","0.0"
"-135.098","60.733","WHITEHORSE AUTO","2101310","YT","9.8","0","NA","21.9","0","-5.5","0","","","NA","5.9","0","NA","","2","","","NA","247.4","0.0"
"-135.006","68.223","AKLAVIK A","2200105","NT","7.1","0","NA","21.9","0","-3.0","0","","","NA","","","NA","","","","","NA","328.2","0.0"
"-124.717","70.167","CAPE PARRY A","2200675","NT","2.5","2","NA","13.9","2","-2.3","2","","","NA","","","NA","","","","","NA","434.6","0.0"
"-126.123","67.021","COLVILLE LAKE","2200824","NT","6.3","0","NA","20.5","0","-3.1","0","","","NA","27.5","0","NA","","8","","","NA","351.7","0.0"
"-126.129","67.021","COLVILLE LAKE A","2200827","NT","6.0","0","NA","19.6","0","-3.0","0","","","NA","17.7","2","NA","","5","","","NA","359.4","0.0"
"-123.433","65.209","DELINE CS","2201022","NT","6.6","0","NA","21.8","0","-8.1","0","","","NA","6.2","0","NA","","3","","","NA","340.7","0.0"
"-123.436","65.211","DELINE A","2201023","NT","6.8","0","NA","21.9","0","-7.8","0","","","NA","","","NA","","","","","NA","337.2","0.0"
"-124.468","61.257","DEADMEN VALLEY","22010H0","NT","9.2","6","NA","23.2","6","-4.5","6","","","NA","21.7","15","NA","","4","","","NA","212.3","0.0"
"-128.648","66.241","FORT GOOD HOPE A","2201406","NT","7.9","0","NA","25.1","0","-6.1","0","","","NA","","","NA","","","","","NA","303.8","0.0"
"-128.644","66.242","FORT GOOD HOPE CS","2201450","NT","7.3","8","NA","25.1","8","-5.8","8","","","NA","13.3","5","NA","","2","","","NA","235.3","0.0"
"-123.467","60.233","FORT LIARD","2201579","NT","10.3","0","NA","24.9","0","-3.6","0","","","NA","8.2","0","NA","16.0","3","","","NA","230.8","0.0"
"-123.470","60.236","FORT LIARD A","2201581","NT","10.0","0","NA","24.6","0","-4.0","0","","","NA","","","NA","","","","","NA","238.8","0.0"
"-134.860","67.407","FORT MCPHERSON A","2201606","NT","7.2","1","NA","24.9","1","-3.9","1","","","NA","","","NA","","","","","NA","312.7","0.0"
"-125.569","64.910","TULITA A","2201705","NT","8.9","0","NA","23.2","0","-3.7","0","","","NA","","","NA","","","","","NA","274.5","0.0"
"-117.602","61.317","FORT PROVIDENCE","2201799","NT","9.2","0","NA","22.7","0","-2.0","0","","","NA","","","NA","","","","","NA","264.7","0.0"
"-109.168","62.711","FORT RELIANCE (AUT)","2201903","NT","8.6","2","NA","19.4","2","0.0","2","","","NA","14.8","2","NA","","3","","","NA","263.2","0.0"
"-113.690","61.181","FORT RESOLUTION A","2202010","NT","7.9","0","NA","19.1","0","-2.7","0","","","NA","","","NA","","","","","NA","301.6","0.0"
"-121.237","61.760","FORT SIMPSON CLIMATE","2202102","NT","9.4","0","NA","23.4","0","-6.0","0","","","NA","17.1","0","NA","","5","","","NA","257.1","0.0"
"-121.237","61.760","FORT SIMPSON A","2202103","NT","9.6","2","NA","23.1","2","-5.8","2","0.0","1","NA","18.3","1","NA","","6","","","NA","235.3","0.0"
"-121.237","61.760","FORT SIMPSON A","2202104","NT","9.5","0","NA","23.1","0","-5.8","0","","","NA","","","NA","","","","","NA","255.2","0.0"
"-111.962","60.020","FORT SMITH A","2202201","NT","8.9","0","NA","21.3","0","-3.1","0","0.0","0","NA","44.3","0","NA","","6","","","NA","272.8","0.0"
"-111.929","60.026","FORT SMITH CLIMATE","2202202","NT","9.3","0","NA","22.3","0","-3.3","0","","","NA","40.4","0","NA","","5","","","NA","262.4","0.0"
"-111.962","60.020","FORT SMITH A","2202203","NT","8.9","0","NA","21.3","0","-3.1","0","","","NA","","","NA","","","","","NA","272.8","0.0"
"-105.133","63.600","HANBURY RIVER","2202351","NT","2.8","29","NA","6.4","29","-0.7","29","","","NA","0.2","29","NA","","0","","","NA","15.2","0.0"
"-115.783","60.840","HAY RIVER A","2202401","NT","9.0","1","NA","21.5","1","-2.0","1","0.0","5","NA","50.5","0","NA","","8","","","NA","262.1","0.0"
"-115.777","60.839","HAY RIVER CLIMATE","2202402","NT","9.4","0","NA","21.3","0","-1.0","0","","","NA","46.2","0","NA","","7","","","NA","257.5","0.0"
"-115.783","60.840","HAY RIVER A","2202403","NT","9.2","0","NA","21.5","0","-2.0","0","","","NA","","","NA","","","","","NA","265.0","0.0"
"-113.726","61.920","INNER WHALEBACKS","2202560","NT","","","NA","","","","","","","NA","27.4","3","NA","","7","","","NA","",""
"-133.483","68.304","INUVIK A","2202571","NT","7.3","0","NA","22.2","0","-4.4","0","","","NA","","","NA","","","","","NA","322.4","0.0"
"-133.517","68.317","INUVIK CLIMATE","2202578","NT","7.2","0","NA","22.0","0","-2.5","0","","","NA","32.1","0","NA","","7","","","NA","324.3","0.0"
"-117.245","63.134","LAC LA MARTRE","2202678","NT","6.3","0","NA","20.2","0","-5.1","0","","","NA","30.7","0","NA","","6","","","NA","349.7","0.0"
"-110.682","62.418","LUTSELK'E A","2202690","NT","9.1","13","NA","18.7","13","1.4","13","","","NA","","","NA","","","","","NA","150.6","0.0"
"-126.799","65.281","NORMAN WELLS A","2202801","NT","8.2","0","NA","23.9","0","-7.2","0","0.0","0","NA","20.0","0","NA","","4","","","NA","295.5","0.0"
"-126.753","65.288","NORMAN WELLS CLIMATE","2202810","NT","7.8","0","NA","24.7","0","-7.4","0","","","NA","26.8","0","NA","","6","","","NA","306.3","0.0"
"-124.076","69.361","PAULATUK A","2203055","NT","4.9","0","NA","20.3","0","-1.3","0","","","NA","","","NA","","","","","NA","393.5","0.0"
"-124.083","69.358","PAULATUK","2203058","NT","4.9","0","NA","20.2","0","-1.1","0","","","NA","3.1","0","NA","","1","","","NA","392.8","0.0"
"-135.444","69.633","PELLY ISLAND","2203095","NT","5.7","3","NA","17.3","3","-0.6","3","","","NA","","","NA","","","","","NA","331.2","0.0"
"-117.328","64.112","RAE LAKES","2203359","NT","7.8","0","NA","19.4","0","-2.1","0","","","NA","22.1","0","NA","","3","","","NA","306.5","0.0"
"-117.310","64.116","GAMETI A","2203365","NT","7.9","0","NA","19.6","0","-2.3","0","","","NA","","","NA","","","","","NA","304.5","0.0"
"-133.026","69.433","TUKTOYAKTUK A","2203911","NT","6.2","1","NA","19.9","1","-2.2","1","","","NA","","","NA","","","","","NA","341.1","0.0"
"-133.017","69.433","TUKTOYAKTUK","2203914","NT","6.1","3","NA","20.2","1","-2.1","3","","","NA","","","NA","","","","","NA","322.5","0.0"
"-122.359","69.199","TUKTUT NOGAIT","2203918","NT","3.3","8","NA","16.0","8","-5.7","8","","","NA","7.9","8","NA","12.0","2","","","NA","322.4","0.0"
"-114.077","64.191","WEKWEETI A","2203980","NT","6.3","0","NA","17.5","0","-5.0","0","","","NA","23.1","0","NA","","4","","","NA","349.7","0.0"
"-123.437","63.210","WRIGLEY A","2204005","NT","9.3","0","NA","23.2","0","-6.3","0","","","NA","","","NA","","","","","NA","261.5","0.0"
"-114.440","62.463","YELLOWKNIFE A","2204101","NT","7.6","1","NA","17.9","1","-1.6","1","0.0","0","NA","41.5","0","NA","","8","","","NA","302.0","0.0"
"-114.383","62.450","YELLOWKNIFE-HENDERSON","2204110","NT","13.8","0","NA","25.5","0","1.0","0","0.0","0","NA","102.7","0","NA","0.0","8","","","NA","127.2","1.5"
"-123.742","61.242","YOHIN","2204300","NT","8.9","5","NA","25.1","5","-6.3","5","","","NA","18.7","12","NA","","4","","","NA","228.0","0.0"
"-130.911","69.604","LIVERPOOL BAY","220B68C","NT","5.1","2","NA","20.3","2","-1.7","2","","","NA","","","NA","","","","","NA","360.5","0.0"
"-130.228","67.179","LITTLE CHICAGO","220B6Q3","NT","8.5","4","NA","24.4","4","-3.4","4","","","NA","","","NA","","","","","NA","247.7","0.0"
"-121.239","60.441","TROUT LAKE","220CQHR","NT","4.7","21","NA","17.8","21","-9.0","21","","","NA","7.7","21","NA","","2","","","NA","119.3","0.0"
"-133.502","68.746","TRAIL VALLEY","220N005","NT","6.6","2","NA","21.8","2","-2.6","2","","","NA","38.6","2","NA","","5","","","NA","319.5","0.0"
"-94.072","61.094","ARVIAT A","2300427","NU","6.0","0","NA","18.4","0","-3.6","0","","","NA","24.7","2","NA","","10","","","NA","359.7","0.0"
"-96.000","64.317","BAKER LAKE CLIMATE","2300501","NU","4.5","0","NA","17.9","0","-5.7","0","","","NA","64.9","0","NA","","8","","","NA","404.1","0.0"
"-96.078","64.299","BAKER LAKE A","2300503","NU","4.2","4","NA","17.0","4","-5.8","4","1.0","11","NA","60.4","2","NA","","8","","","NA","357.7","0.0"
"-96.078","64.299","BAKER LAKE A","2300504","NU","4.3","0","NA","17.0","0","-5.8","0","","","NA","","","NA","","","","","NA","409.7","0.0"
"-108.015","66.838","BATHURST INLET","2300551","NU","4.1","2","NA","19.6","2","-3.2","2","","","NA","21.7","2","NA","","5","","","NA","388.8","0.0"
"-90.731","63.347","CHESTERFIELD INLET A","2300710","NU","5.5","1","NA","17.8","1","-4.9","1","","","NA","","","NA","","","","","NA","361.8","0.0"
"-115.144","67.817","KUGLUKTUK A","2300903","NU","3.6","0","NA","20.1","0","-4.5","0","4.4","0","NA","21.1","0","NA","","5","","","NA","431.4","0.0"
"-115.135","67.817","KUGLUKTUK CLIMATE","2300904","NU","3.7","0","NA","20.0","0","-4.3","0","","","NA","29.1","0","NA","","6","","","NA","428.8","0.0"
"-115.144","67.817","KUGLUKTUK A","2300905","NU","3.6","0","NA","20.1","0","-4.5","0","","","NA","","","NA","","","","","NA","431.4","0.0"
"-83.359","64.193","CORAL HARBOUR A","2301002","NU","4.3","12","NA","12.0","12","-2.6","12","0.6","6","NA","55.0","6","NA","","10","","","NA","247.3","0.0"
"-83.359","64.193","CORAL HARBOUR A","2301004","NU","4.2","0","NA","12.0","0","-2.6","0","","","NA","","","NA","","","","","NA","414.9","0.0"
"-83.350","64.183","CORAL HARBOUR RCS","2301010","NU","4.7","4","NA","12.4","4","-2.2","4","","","NA","69.4","15","NA","","9","","","NA","346.9","0.0"
"-100.884","61.132","ENNADAI LAKE (AUT)","2301102","NU","6.2","1","NA","17.0","1","-4.7","1","","","NA","82.2","1","NA","","5","","","NA","341.0","0.0"
"-94.067","61.100","ARVIAT CLIMATE","2301153","NU","6.1","0","NA","18.5","0","-3.6","0","","","NA","26.3","0","NA","","8","","","NA","358.1","0.0"
"-95.850","68.636","GJOA HAVEN A","2302337","NU","1.2","0","NA","7.6","0","-7.3","0","","","NA","9.5","0","NA","","2","","","NA","504.6","0.0"
"-95.850","68.636","GJOA HAVEN CLIMATE","2302340","NU","1.0","2","NA","7.8","2","-7.3","2","","","NA","9.6","2","NA","24.0","3","","","NA","476.4","0.0"
"-89.726","68.437","PELLY BAY","2303093","NU","2.6","27","NA","7.4","27","-2.1","27","","","NA","","","NA","","","","","NA","46.2","0.0"
"-89.796","68.538","KUGAARUK CLIMATE","2303094","NU","2.2","1","NA","10.1","1","-6.8","1","","","NA","22.3","1","NA","1.0","8","","","NA","457.7","0.0"
"-89.805","68.536","KUGAARUK A","2303095","NU","2.2","0","NA","10.2","0","-6.8","0","","","NA","","","NA","","","","","NA","475.5","0.0"
"-92.115","62.811","RANKIN INLET A","2303405","NU","5.1","2","NA","16.2","2","-5.2","2","0.9","0","NA","79.4","0","NA","","12","","","NA","361.7","0.0"
"-102.429","65.100","ROBERTSON LAKE (AUT)","2303610","NU","3.3","2","NA","17.6","2","-6.1","2","","","NA","38.9","11","NA","1.0","7","","","NA","412.7","0.0"
"-79.250","56.537","SANIKILUAQ A","2303660","NU","6.6","1","NA","19.0","1","0.6","1","","","NA","","","NA","","","","","NA","329.8","0.0"
"-79.260","56.537","SANIKILUAQ","2303668","NU","6.8","4","NA","19.1","4","1.0","4","","","NA","58.4","4","NA","","9","","","NA","291.3","0.0"
"-93.433","68.817","SHEPHERD BAY A","2303685","NU","1.2","2","NA","9.1","2","-9.1","2","","","NA","","","NA","","","","","NA","471.7","0.0"
"-92.598","62.240","WHALE COVE A","2303990","NU","6.6","6","NA","13.3","6","1.4","6","","","NA","","","NA","","","","","NA","274.6","0.0"
"-111.246","65.755","LUPIN CS","230N002","NU","3.3","5","NA","16.7","5","-7.1","5","","","NA","11.4","3","NA","1.0","4","","","NA","367.3","0.0"
"-62.333","82.500","ALERT CLIMATE","2400305","NU","-6.7","3","NA","6.0","3","-19.4","3","","","NA","19.7","3","NA","0.0","6","","","NA","667.4","0.0"
"-62.333","82.500","ALERT UA","2400306","NU","","","NA","","","","","25.6","0","NA","22.4","0","NA","1.0","6","","","NA","",""
"-85.047","73.006","ARCTIC BAY","2400399","NU","1.9","0","NA","12.1","0","-7.2","0","","","NA","","","NA","","","","","NA","483.3","0.0"
"-85.012","72.993","ARCTIC BAY CS","2400404","NU","2.1","2","NA","12.4","2","-7.1","2","","","NA","10.1","2","NA","","2","","","NA","446.0","0.0"
"-64.146","63.340","BREVOORT ISLAND","2400565","NU","2.7","2","NA","6.6","2","-0.2","2","","","NA","","","NA","","","","","NA","427.4","0.0"
"-64.033","67.547","QIKIQTARJUAQ CLIMATE","2400573","NU","3.4","3","NA","8.2","3","-0.1","3","","","NA","43.0","3","NA","","10","","","NA","395.1","0.0"
"-64.032","67.547","QIKIQTARJUAQ A","2400577","NU","3.4","0","NA","8.0","0","-0.1","0","","","NA","70.3","0","NA","","10","","","NA","437.0","0.0"
"-105.137","69.108","CAMBRIDGE BAY A","2400601","NU","0.5","0","NA","9.8","0","-7.6","0","0.0","11","NA","0.0","11","NA","","0","","","NA","524.7","0.0"
"-105.138","69.108","CAMBRIDGE BAY GSN","2400602","NU","0.7","0","NA","10.3","0","-7.4","0","","","NA","13.5","0","NA","0.0","3","","","NA","518.5","0.0"
"-105.137","69.108","CAMBRIDGE BAY A","2400603","NU","0.4","1","NA","9.8","1","-7.6","1","","","NA","","","NA","","","","","NA","510.6","0.0"
"-76.530","64.231","CAPE DORSET CLIMATE","2400636","NU","3.7","0","NA","9.2","0","-0.9","0","","","NA","45.3","0","NA","","9","","","NA","427.8","0.0"
"-76.525","64.230","CAPE DORSET A","2400637","NU","3.8","0","NA","9.3","0","-0.8","0","","","NA","39.0","1","NA","","7","","","NA","426.7","0.0"
"-61.383","66.650","CAPE DYER","2400650","NU","-0.2","2","NA","8.2","2","-4.1","2","","","NA","","","NA","","","","","NA","508.6","0.0"
"-78.293","73.668","CAPE LIVERPOOL","2400675","NU","0.1","6","NA","6.1","6","-8.1","6","","","NA","16.8","5","NA","","5","","","NA","429.5","0.0"
"-107.823","69.036","CAPE PEEL WEST","2400697","NU","-0.3","2","NA","12.7","2","-8.7","2","","","NA","","","NA","","","","","NA","513.4","0.0"
"-68.517","70.483","CLYDE RIVER CLIMATE","2400802","NU","2.5","0","NA","8.4","0","-3.2","0","","","NA","57.5","0","NA","","6","","","NA","464.0","0.0"
"-68.517","70.486","CLYDE RIVER A","2400804","NU","2.5","0","NA","8.4","0","-2.8","0","","","NA","57.1","0","NA","","5","","","NA","465.2","0.0"
"-71.167","68.650","DEWAR LAKES","2401030","NU","0.8","2","NA","8.0","2","-4.4","2","","","NA","","","NA","","","","","NA","481.6","0.0"
"-85.934","79.989","EUREKA CLIMATE","2401199","NU","-2.9","0","NA","3.3","0","-11.3","0","","","NA","10.1","0","NA","3.0","4","","","NA","626.0","0.0"
"-85.812","79.994","EUREKA A","2401208","NU","-3.5","0","NA","3.6","0","-12.8","0","","","NA","","","NA","","","","","NA","644.0","0.0"
"-94.198","72.018","FORT ROSS","2402051","NU","-0.1","2","NA","6.5","2","-6.6","2","","","NA","34.7","2","NA","","4","","","NA","506.0","0.0"
"-100.267","70.633","GATESHEAD ISLAND","2402332","NU","-1.6","2","NA","3.7","2","-7.3","2","","","NA","12.9","2","NA","","2","","","NA","548.1","0.0"
"-82.902","76.423","GRISE FIORD CLIMATE","2402351","NU","-1.6","19","NA","5.5","19","-7.3","19","","","NA","22.2","19","NA","1.0","4","","","NA","215.6","0.0"
"-81.244","68.776","HALL BEACH CLIMATE","2402353","NU","3.0","0","NA","9.6","0","-3.2","0","","","NA","55.9","0","NA","","8","","","NA","449.4","0.0"
"-81.243","68.776","HALL BEACH A","2402354","NU","3.1","0","NA","9.3","0","-3.1","0","","","NA","52.7","0","NA","","6","","","NA","446.9","0.0"
"-82.908","76.426","GRISE FIORD A","2402360","NU","0.2","1","NA","9.5","1","-7.6","1","","","NA","","","NA","","","","","NA","516.0","0.0"
"-81.816","69.365","IGLOOLIK A","2402546","NU","2.5","0","NA","11.6","0","-3.7","0","","","NA","","","NA","","","","","NA","463.9","0.0"
"-68.544","63.747","IQALUIT CLIMATE","2402592","NU","4.1","0","NA","10.7","0","-2.8","0","","","NA","61.5","0","NA","","10","","","NA","417.7","0.0"
"-68.556","63.757","IQALUIT A","2402596","NU","4.0","0","NA","10.4","0","-1.9","0","","","NA","","","NA","","","","","NA","419.0","0.0"
"-103.554","78.792","ISACHSEN (AUT)","2402604","NU","-6.8","3","NA","1.7","3","-16.7","3","","","NA","9.9","3","NA","4.0","2","","","NA","669.8","0.0"
"-69.877","62.848","KIMMIRUT A","2402673","NU","4.5","0","NA","14.2","0","-0.6","0","","","NA","","","NA","","","","","NA","405.6","0.0"
"-65.711","66.143","PANGNIRTUNG","2403049","NU","4.9","3","NA","13.3","3","-0.9","3","","","NA","48.8","3","NA","","10","","","NA","353.6","0.0"
"-65.714","66.145","PANGNIRTUNG A","2403054","NU","5.0","0","NA","15.9","0","-0.7","0","","","NA","","","NA","","","","","NA","391.2","0.0"
"-77.958","72.693","POND INLET CLIMATE","2403204","NU","1.4","2","NA","14.3","2","-9.8","2","","","NA","20.4","2","NA","","5","","","NA","465.1","0.0"
"-77.969","72.689","POND INLET A","2403206","NU","1.4","0","NA","13.8","0","-8.4","0","","","NA","14.4","0","NA","","3","","","NA","498.1","0.0"
"-105.715","75.377","REA POINT","2403450","NU","-3.7","2","NA","4.9","2","-11.7","2","","","NA","33.6","2","NA","","4","","","NA","606.9","0.0"
"-86.225","66.521","NAUJAAT A","2403495","NU","3.4","0","NA","9.8","0","-3.8","0","","","NA","","","NA","","","","","NA","436.7","0.0"
"-94.969","74.717","RESOLUTE BAY A","2403497","NU","-2.3","0","NA","5.8","0","-10.6","0","","","NA","","","NA","","","","","NA","608.6","0.0"
"-94.969","74.717","RESOLUTE BAY A","2403498","NU","-2.0","5","NA","5.8","5","-10.6","5","11.4","1","NA","14.6","1","NA","5.0","6","","","NA","499.9","0.0"
"-94.983","74.716","RESOLUTE CS","2403505","NU","-2.0","1","NA","5.5","1","-9.9","1","","","NA","12.2","1","NA","4.0","4","","","NA","581.3","0.0"
"-79.033","69.083","ROWLEY ISLAND","2403625","NU","3.1","2","NA","11.2","2","-2.3","2","","","NA","","","NA","","","","","NA","418.5","0.0"
"-105.296","73.766","STEFANSSON ISLAND","2403756","NU","-3.5","4","NA","6.1","4","-12.5","4","","","NA","3.6","4","NA","3.0","2","","","NA","558.7","0.0"
"-91.816","81.161","SVARTEVAEG","2403833","NU","-4.8","0","NA","1.6","0","-15.5","0","","","NA","13.8","0","NA","","5","","","NA","685.4","0.0"
"-93.577","69.547","TALOYOAK A","2403855","NU","3.1","15","NA","8.8","15","-1.2","15","0.4","12","NA","7.8","12","NA","","3","","","NA","222.8","0.0"
"-93.577","69.547","TALOYOAK A","2403856","NU","1.6","0","NA","12.7","0","-6.9","0","","","NA","","","NA","","","","","NA","493.1","0.0"
"-89.446","65.879","WAGER BAY (AUT)","2403945","NU","5.0","2","NA","15.4","2","-5.9","2","","","NA","68.7","2","NA","","11","","","NA","364.2","0.0"
"-112.161","74.457","CAPE PROVIDENCE","2501419","NT","-2.9","6","NA","5.4","6","-11.8","6","","","NA","5.5","8","NA","","1","","","NA","500.8","0.0"
"-117.806","70.763","ULUKHAKTOK A","2502503","NT","1.9","0","NA","11.4","0","-6.7","0","","","NA","","","NA","","","","","NA","483.1","0.0"
"-117.800","70.761","HOLMAN CS","2502505","NT","1.9","0","NA","10.9","0","-6.4","0","","","NA","10.4","0","NA","0.0","3","","","NA","482.2","0.0"
"-125.254","71.993","SACHS HARBOUR CLIMATE","2503648","NT","1.1","0","NA","10.1","0","-5.7","0","","","NA","3.0","0","NA","1.0","0","","","NA","505.6","0.0"
"-125.241","71.994","SACHS HARBOUR A","2503649","NT","1.4","24","NA","7.8","24","-4.5","24","","","NA","","","NA","","","","","NA","99.9","0.0"
"-119.538","73.231","THOMSEN RIVER","2503886","NT","-1.0","3","NA","10.3","3","-19.1","3","","","NA","11.7","4","NA","4.0","5","","","NA","514.0","0.0"
"-119.347","76.238","MOULD BAY CS","250M001","NT","-4.0","2","NA","3.3","2","-17.9","2","","","NA","5.9","2","NA","1.0","1","","","NA","615.7","0.0"
"-112.967","54.283","ABEE AGDM","3010010","AB","9.9","0","NA","23.9","0","-7.1","0","","","NA","53.9","5","NA","","6","","","NA","243.3","0.0"
"-111.181","53.113","ALBERT HALL AGCM","3010060","AB","10.7","0","NA","25.8","0","-2.9","0","","","NA","38.9","0","NA","","5","","","NA","219.0","0.0"
"-111.779","52.315","ALLIANCE AGCM","3010162","AB","11.1","0","NA","25.8","0","-3.0","0","","","NA","42.9","0","NA","","10","","","NA","206.3","0.0"
"-112.279","53.917","ANDREW AGDM","3010237","AB","8.1","14","NA","23.3","14","-3.9","14","","","NA","35.7","14","NA","","3","","","NA","158.2","0.0"
"-111.465","52.582","BELLSHILL AGCM","3010650","AB","10.6","9","NA","24.4","9","-2.2","9","","","NA","44.1","8","NA","","6","","","NA","156.1","0.0"
"-110.101","52.124","BODO AGDM","3010730","AB","12.5","0","NA","28.2","0","-1.0","0","","","NA","42.6","1","NA","","9","","","NA","164.5","0.7"
"-114.441","53.089","BRETON PLOTS","3010816","AB","10.4","0","NA","23.8","0","-2.4","0","","","NA","41.0","1","NA","","10","","","NA","227.8","0.0"
"-113.922","53.931","BUSBY AGCM","3010979","AB","10.3","0","NA","24.2","0","-4.8","0","","","NA","43.6","0","NA","","7","","","NA","230.8","0.0"
"-110.510","52.334","CADOGAN AGCM","3010992","AB","11.5","0","NA","25.9","0","-0.7","0","","","NA","52.9","4","NA","","9","","","NA","196.2","0.0"
"-112.817","53.050","CAMROSE","3011240","AB","10.6","0","0.2","24.1","0","-1.8","0","","","NA","58.8","0","147.0","","8","","","NA","223.4","0.0"
"-110.713","51.937","CONSORT AGDM","3011815","AB","11.5","0","NA","26.4","0","-1.5","0","","","NA","38.3","1","NA","","10","","","NA","195.5","0.0"
"-111.449","52.074","CORONATION CLIMATE","3011887","AB","10.5","0","NA","26.0","0","-3.5","0","","","NA","42.5","0","NA","","7","","","NA","224.8","0.0"
"-113.903","52.733","CRESTOMERE AGCM","3011892","AB","10.6","0","NA","24.9","0","-4.0","0","","","NA","47.5","17","NA","","8","","","NA","222.1","0.0"
"-113.176","52.183","DELBURNE AGCM","3012050","AB","10.9","0","NA","25.1","0","-3.2","0","","","NA","37.3","0","NA","","9","","","NA","212.4","0.0"
"-110.588","53.659","DEWBERRY AGCM","3012073","AB","10.7","0","NA","24.4","0","-1.4","0","","","NA","62.5","0","NA","","7","","","NA","218.7","0.0"
"-110.433","52.778","EDGERTON AGCM","3012192","AB","11.2","0","NA","25.7","0","-1.8","0","","","NA","42.3","0","NA","","5","","","NA","202.7","0.0"
"-113.606","53.307","EDMONTON INTERNATIONAL CS","3012206","AB","10.6","0","NA","24.8","0","-1.9","0","","","NA","21.2","0","NA","","5","","","NA","222.2","0.0"
"-113.517","53.573","EDMONTON BLATCHFORD","3012209","AB","12.1","0","NA","24.9","0","-1.8","0","","","NA","24.2","0","NA","","4","","","NA","176.7","0.8"
"-113.467","53.667","EDMONTON NAMAO AWOS A","3012212","AB","11.0","0","NA","24.0","0","-3.6","0","","","NA","","","NA","","","","","NA","210.4","0.0"
"-113.579","53.310","EDMONTON INTL A","3012216","AB","10.5","1","NA","24.8","1","-2.3","1","0.0","7","NA","25.5","0","NA","","6","","","NA","216.5","0.0"
"-113.538","53.490","EDMONTON SOUTH CAMPUS","3012220","AB","11.9","0","NA","25.2","0","-1.2","0","","","NA","32.1","0","NA","","6","","","NA","184.0","0.3"
"-113.856","53.668","EDMONTON VILLENEUVE A","3012229","AB","10.6","1","NA","23.3","1","-2.8","1","","","NA","22.4","0","NA","","4","","","NA","213.3","0.0"
"-114.108","53.548","EDMONTON STONY PLAIN","301222F","AB","11.3","0","0.3","23.5","0","-2.0","0","1.0","0","71.0","36.4","0","82.0","0.0","10","","","NA","199.9","0.0"
"-112.868","53.683","ELK ISLAND NAT PARK","3012275","AB","10.7","0","0.6","23.1","0","-1.5","0","","","NA","43.7","0","81.0","","8","","","NA","219.5","0.0"
"-111.000","52.967","FABYAN","3012515","AB","10.3","0","-0.1","24.5","0","-2.0","0","3.0","0","411.0","48.6","0","128.0","0.0","12","","","NA","230.0","0.0"
"-112.858","52.744","FERINTOSH AGCM","3012590","AB","10.3","0","NA","26.0","0","-3.1","0","","","NA","78.9","0","NA","","9","","","NA","229.7","0.0"
"-111.813","52.041","FLEET AGCM","3012635","AB","10.6","0","NA","26.6","0","-4.1","0","","","NA","44.2","4","NA","","10","","","NA","223.4","0.0"
"-112.120","52.467","FORESTBURG PLANT SITE","3012652","AB","11.9","0","0.1","25.0","0","-1.0","0","4.8","0","######","45.4","0","117.0","0.0","9","","","NA","181.8","0.0"
"-112.123","52.548","FORESTBURG AGCM","3012653","AB","11.0","0","NA","25.7","0","-2.9","0","","","NA","31.2","0","NA","","7","","","NA","208.9","0.0"
"-113.183","53.717","FORT SASKATCHEWAN","3012710","AB","10.8","5","-0.1","25.0","5","-4.0","5","0.0","5","NA","25.2","5","NA","0.0","8","","","NA","181.0","0.3"
"-110.621","53.071","GILT EDGE NORTH AGCM","3012790","AB","11.9","9","NA","23.9","9","-1.3","9","","","NA","21.9","9","NA","","5","","","NA","128.4","0.0"
"-114.320","53.295","ST. FRANCIS","3012799","AB","11.2","0","NA","24.3","0","-2.3","0","","","NA","27.1","0","NA","","6","","","NA","204.8","0.0"
"-112.278","52.987","GLADSTONE AGCM","3012810","AB","10.3","0","NA","24.6","0","-2.3","0","","","NA","57.5","1","NA","","9","","","NA","230.4","0.0"
"-114.539","53.833","GLENEVIS AGCM","3012818","AB","10.8","0","NA","24.2","0","-3.4","0","","","NA","","","NA","","","","","NA","216.0","0.0"
"-110.803","52.113","GOOSEBERRY LAKE AGCM","3012871","AB","10.4","0","NA","26.3","0","-3.1","0","","","NA","31.2","6","NA","","9","","","NA","226.6","0.0"
"-112.164","52.116","HALKIRK AGCM","3012999","AB","10.3","0","NA","25.6","0","-5.0","0","","","NA","20.6","21","NA","","6","","","NA","230.8","0.0"
"-111.212","51.780","HEMARUKA AGCM","3013140","AB","11.1","0","NA","27.0","0","-1.4","0","","","NA","57.4","11","NA","","9","","","NA","207.9","0.0"
"-112.246","53.185","HOLDEN AGDM","3013340","AB","10.5","0","NA","24.4","0","-2.1","0","","","NA","32.3","22","NA","","3","","","NA","223.6","0.0"
"-110.784","52.578","HUGHENDEN AGCM","3013362","AB","11.2","0","NA","25.6","0","-1.0","0","","","NA","43.5","1","NA","","9","","","NA","204.8","0.0"
"-111.872","52.848","KILLAM AGDM","3013640","AB","10.8","0","NA","26.7","0","-3.9","0","","","NA","","","NA","","","","","NA","215.1","0.0"
"-111.113","52.290","KESSLER AGCM","3013644","AB","10.9","0","NA","25.8","0","-4.1","0","","","NA","28.0","18","NA","","7","","","NA","214.1","0.0"
"-111.548","53.047","KINSELLA RESEARC STATION","3013647","AB","10.3","0","NA","24.4","0","-2.9","0","","","NA","50.2","1","NA","","8","","","NA","231.6","0.0"
"-110.416","53.353","KITSCOTY AGCM","3013660","AB","10.9","0","NA","23.8","0","-1.5","0","","","NA","42.0","0","NA","","7","","","NA","213.4","0.0"
"-113.474","54.003","LEGAL AGCM","3013790","AB","10.9","0","NA","24.9","0","-4.5","0","","","NA","25.7","0","NA","","7","","","NA","212.7","0.0"
"-110.579","53.943","LINDBERGH AGDM","3013921","AB","9.8","1","NA","23.7","0","-2.9","1","","","NA","32.5","0","NA","","6","","","NA","238.9","0.0"
"-110.073","53.309","LLOYDMINSTER","3013959","AB","10.7","0","NA","24.3","0","-1.4","0","","","NA","36.6","0","NA","","7","","","NA","218.0","0.0"
"-110.073","53.309","LLOYDMINSTER A","3013961","AB","10.8","0","0.6","24.0","0","-1.5","0","1.4","0","77.0","41.4","0","98.0","1.0","10","","","NA","215.9","0.0"
"-111.255","53.456","MANNVILLE AGCM","3014195","AB","10.6","1","NA","23.8","0","-1.9","1","","","NA","63.9","1","NA","","6","","","NA","213.8","0.0"
"-110.550","52.017","MONITOR","3014600","AB","","","NA","","","","","11.4","1","NA","45.1","1","NA","0.0","9","","","NA","",""
"-112.300","53.567","MUNDARE AGDM","3014665","AB","10.4","5","NA","24.4","5","-3.0","5","","","NA","29.5","6","NA","","6","","","NA","190.9","0.0"
"-111.114","53.720","MYRNAM AGCM","3014690","AB","10.2","2","NA","25.3","2","-2.8","2","","","NA","34.1","2","NA","","4","","","NA","219.8","0.0"
"-113.165","53.262","NEW SAREPTA AGCM","3014795","AB","10.0","7","NA","24.1","7","-2.2","7","","","NA","30.3","7","NA","","6","","","NA","184.6","0.0"
"-113.350","53.650","OLIVER AGDM","3014921","AB","10.8","0","NA","24.5","0","-3.1","0","","","NA","","","NA","","","","","NA","214.7","0.0"
"-112.879","53.995","RADWAY AGCM","3015346","AB","10.4","1","NA","24.9","0","-5.3","1","","","NA","","","NA","","","","","NA","221.2","0.0"
"-111.726","53.425","RANFURLY AUTO","3015401","AB","11.1","0","NA","25.0","0","-1.4","0","","","NA","57.3","0","NA","","7","","","NA","206.4","0.0"
"-110.343","52.587","RIBSTONE SOUTH AGCM","3015480","AB","11.0","0","NA","25.4","0","-1.2","0","","","NA","38.1","0","NA","","8","","","NA","208.8","0.0"
"-110.102","53.019","RIVERCOURSE AGCM","3015501","AB","10.6","7","NA","25.6","7","-1.4","7","","","NA","20.0","7","NA","","4","","","NA","170.2","0.0"
"-114.912","52.421","ROCKY MTN HOUSE (AUT)","3015523","AB","9.7","0","NA","24.6","0","-4.0","0","","","NA","34.5","0","NA","0.0","9","","","NA","250.3","0.0"
"-112.428","52.780","ROSALIND AGCM","3015600","AB","10.9","1","NA","24.8","1","-2.6","1","","","NA","36.8","0","NA","","6","","","NA","206.9","0.0"
"-111.453","54.282","ST. LINA AGCM","3015673","AB","10.1","5","NA","23.7","5","-5.4","5","","","NA","27.9","5","NA","","5","","","NA","197.9","0.0"
"-111.272","54.011","ST. PAUL AGCM","3015676","AB","11.0","0","NA","24.0","0","-3.5","0","","","NA","13.2","13","NA","","5","","","NA","209.1","0.4"
"-110.755","51.590","SEDALIA AGCM","3015797","AB","11.5","0","NA","27.5","0","-1.5","0","","","NA","43.6","1","NA","","8","","","NA","196.1","0.0"
"-112.539","53.333","SHONTS AGCM","3015900","AB","10.3","0","NA","25.1","0","-2.5","0","","","NA","30.5","0","NA","","7","","","NA","232.5","0.0"
"-112.499","54.278","SMOKY LAKE AGDM","3016022","AB","10.4","0","NA","23.3","0","-3.5","0","","","NA","61.7","0","NA","","9","","","NA","228.3","0.0"
"-111.683","51.816","SPONDIN AGCM","3016070","AB","10.7","0","NA","26.7","0","-4.5","0","","","NA","32.3","19","NA","","5","","","NA","220.5","0.0"
"-112.596","52.347","STETTLER AGDM","3016124","AB","11.1","0","NA","25.4","0","-3.9","0","","","NA","33.7","2","NA","","7","","","NA","208.1","0.0"
"-113.895","53.217","THORSBY AGCM","3016441","AB","9.9","9","NA","24.8","9","-3.3","9","","","NA","19.2","9","NA","","6","","","NA","171.0","0.0"
"-114.718","53.439","TOMAHAWK AGDM","3016505","AB","10.4","0","NA","23.6","0","-2.3","0","","","NA","34.7","0","NA","","9","","","NA","228.1","0.0"
"-110.081","53.664","TULLIBY LAKE AGCM","3016593","AB","5.2","22","NA","16.4","22","-1.8","22","","","NA","9.7","22","NA","","2","","","NA","102.5","0.0"
"-113.033","53.500","UNCAS","3016650","AB","","","NA","","","","","0.6","0","NA","30.6","0","NA","0.0","7","","","NA","",""
"-111.678","53.625","TWO HILLS AGDM","3016655","AB","11.1","0","NA","25.0","0","-2.8","0","","","NA","37.1","1","NA","","6","","","NA","206.8","0.0"
"-110.882","53.344","VERMILION AGDM","3016802","AB","10.9","0","NA","25.1","0","-1.7","0","","","NA","50.4","1","NA","","6","","","NA","214.6","0.1"
"-111.732","53.182","VIKING AGCM","3016841","AB","11.8","4","NA","24.4","4","-1.3","4","","","NA","59.5","4","NA","","5","","","NA","160.0","0.0"
"-111.921","54.130","VILNA AGCM","3016852","AB","9.9","3","NA","23.4","3","-4.1","3","","","NA","21.5","3","NA","","5","","","NA","218.6","0.0"
"-115.126","53.144","VIOLET GROVE CS","3016860","AB","10.4","0","NA","23.7","0","-2.9","0","","","NA","35.6","0","NA","","7","","","NA","228.5","0.0"
"-112.098","53.505","VEGREVILLE","3016GF0","AB","10.7","0","0.5","25.0","0","-2.8","0","","","NA","30.5","0","75.0","","5","","","NA","220.4","0.0"
"-113.444","52.980","WETASKIWIN AGCM","3017282","AB","9.6","5","NA","23.6","5","-3.7","5","","","NA","35.9","5","NA","","8","","","NA","209.2","0.0"
"-111.224","51.491","YOUNGSTOWN AGCM","3017705","AB","11.4","0","NA","27.0","0","-2.4","0","","","NA","43.1","0","NA","","7","","","NA","198.1","0.8"
"-114.108","53.547","EDMONTON STONY PLAIN CS","301A001","AB","11.2","1","NA","23.4","1","-2.0","1","","","NA","23.4","1","NA","","5","","","NA","195.8","0.0"
"-110.206","51.670","ESTHER 1","301B460","AB","11.6","2","NA","27.6","2","-1.0","2","","","NA","44.6","1","NA","","9","","","NA","179.9","0.1"
"-111.096","52.829","WAINWRIGHT CFB AIRFIELD 21","301S001","AB","11.4","0","NA","26.0","0","-1.8","0","","","NA","","","NA","","","","","NA","197.2","0.4"
"-110.317","51.066","ACADIA VALLEY","3020035","AB","12.4","0","NA","28.5","0","-1.0","0","","","NA","40.0","0","NA","","6","","","NA","170.0","2.3"
"-111.006","50.810","ATLEE AGCM","3020405","AB","12.2","0","NA","28.4","0","-3.6","0","","","NA","46.5","0","NA","","6","","","NA","177.0","3.1"
"-113.357","51.379","BEISEKER AGCM","3020610","AB","10.3","0","NA","26.7","0","-5.7","0","","","NA","39.8","0","NA","","8","","","NA","232.4","0.0"
"-112.803","51.998","BIG VALLEY AGCM","3020679","AB","11.2","0","NA","25.9","0","-2.9","0","","","NA","30.1","0","NA","","9","","","NA","202.8","0.0"
"-110.686","50.798","BUFFALO AGCM","3020950","AB","12.3","0","NA","29.1","0","-3.5","0","","","NA","39.2","0","NA","","6","","","NA","175.1","4.5"
"-110.797","51.067","CAPPON","3021200","AB","11.4","0","NA","28.6","0","-1.5","0","","","NA","34.1","3","NA","","5","","","NA","197.0","0.0"
"-110.824","51.276","CEREAL AGCM","3021463","AB","11.6","0","NA","27.9","0","-1.3","0","","","NA","29.0","0","NA","","7","","","NA","192.3","0.0"
"-112.252","51.775","CRAIGMYLE AGCM","3021912","AB","11.0","0","NA","27.0","0","-4.0","0","","","NA","38.3","0","NA","","7","","","NA","211.1","0.0"
"-112.677","51.445","DRUMHELLER EAST","30221LG","AB","11.9","14","NA","28.3","14","-2.3","14","","","NA","14.9","16","NA","","2","","","NA","99.3","0.9"
"-112.097","51.053","FINNEGAN AGCM","3022650","AB","11.6","0","NA","27.7","0","-5.5","0","","","NA","","","NA","","","","","NA","191.2","0.0"
"-112.135","51.453","HAND HILLS AGCM","3022990","AB","10.6","0","NA","25.3","0","-5.3","0","","","NA","38.6","0","NA","","8","","","NA","221.4","0.4"
"-114.486","52.310","HESPERO AGCM","3023200","AB","9.8","0","NA","24.7","0","-5.4","0","","","NA","52.9","0","NA","","12","","","NA","245.1","0.0"
"-112.500","51.183","HUSSAR AGDM","3023402","AB","10.9","0","NA","26.3","0","-6.0","0","","","NA","45.3","2","NA","","9","","","NA","211.8","0.0"
"-110.359","51.913","KIRRIEMUIR AGCM","3023660","AB","11.4","0","NA","26.7","0","-1.0","0","","","NA","44.4","7","NA","","10","","","NA","198.9","0.0"
"-113.756","52.449","LACOMBE CDA 2","3023722","AB","10.5","0","NA","24.5","0","-2.6","0","","","NA","34.2","0","NA","1.0","10","","","NA","224.4","0.0"
"-114.473","52.553","LEEDALE AGDM","3023740","AB","9.5","0","NA","24.4","0","-4.4","0","","","NA","49.3","2","NA","","11","","","NA","254.2","0.0"
"-113.656","51.619","LINDEN AGCM","3023850","AB","10.2","0","NA","26.3","0","-4.6","0","","","NA","42.1","0","NA","","11","","","NA","235.4","0.0"
"-110.341","49.458","LODGE CREEK","3023900","AB","10.7","0","NA","29.3","0","-2.4","0","","","NA","29.1","1","NA","","6","","","NA","219.8","1.1"
"-112.675","51.660","MORRIN AGDM","3024668","AB","11.1","0","NA","26.8","0","-2.7","0","","","NA","15.7","21","NA","","4","","","NA","208.1","0.0"
"-114.085","51.759","OLDS AGDM","3024925","AB","10.3","0","NA","25.2","0","-5.7","0","","","NA","44.9","0","NA","","10","","","NA","230.4","0.0"
"-110.350","51.383","OYEN AGDM","3024965","AB","11.8","0","NA","28.0","0","-1.4","0","","","NA","50.6","6","NA","","8","","","NA","186.0","1.1"
"-111.621","50.740","PATRICIA AGCM","3025013","AB","12.1","0","NA","27.9","0","-5.0","0","","","NA","36.2","0","NA","","6","","","NA","179.4","2.3"
"-111.705","51.125","POLLOCKVILLE AGDM","3025243","AB","11.6","0","NA","28.1","0","-5.4","0","","","NA","29.4","0","NA","","5","","","NA","191.3","0.6"
"-113.600","52.433","PRENTISS","3025297","AB","10.2","3","NA","24.1","3","-3.5","3","","","NA","36.0","8","NA","","7","","","NA","209.6","0.0"
"-113.894","52.182","RED DEER REGIONAL A","3025481","AB","10.3","0","NA","25.3","0","-4.7","0","","","NA","","","NA","","","","","NA","230.5","0.0"
"-112.106","52.182","RED DEER OVERLAP","3025483","AB","","","NA","","","","","7.2","0","NA","36.5","0","NA","9.0","7","","","NA","",""
"-113.620","53.692","ST. ALBERT RESEARCH STATION","3025750","AB","10.7","1","NA","24.3","1","-3.1","1","","","NA","27.4","2","NA","","5","","","NA","211.5","0.0"
"-110.091","50.307","SCHULER AGDM","3025768","AB","12.3","0","NA","28.6","0","-1.3","0","","","NA","38.5","7","NA","","6","","","NA","174.0","3.2"
"-111.646","51.463","SHEERNESS AGCM","3025890","AB","11.6","0","NA","26.8","0","-3.1","0","","","NA","47.3","0","NA","","7","","","NA","192.8","0.1"
"-111.388","51.301","SUNNYNOOK AGCM","3026264","AB","10.9","0","NA","27.8","0","-2.1","0","","","NA","31.1","0","NA","","5","","","NA","212.4","0.0"
"-113.206","51.768","THREE HILLS","3026479","AB","10.4","0","NA","27.0","0","-3.9","0","","","NA","39.0","2","NA","","9","","","NA","226.9","0.0"
"-111.955","50.895","VERGER","3026800","AB","11.6","0","NA","30.3","0","-5.7","0","","","NA","35.5","3","NA","","5","","","NA","192.5","0.0"
"-114.683","51.778","SUNDRE A","3026KNQ","AB","8.4","3","NA","24.0","3","-5.2","3","","","NA","58.2","3","NA","","19","","","NA","260.1","0.0"
"-113.591","51.936","WIMBORNE AGCM","3027582","AB","10.4","0","NA","25.3","0","-4.9","0","","","NA","45.1","2","NA","","10","","","NA","227.1","0.0"
"-113.434","49.528","ARDENVILLE","3030200","AB","11.7","0","NA","29.2","0","-6.1","0","","","NA","72.8","2","NA","","10","","","NA","189.7","2.0"
"-114.013","50.512","AZURE","3030450","AB","10.4","0","NA","25.7","0","-10.7","0","","","NA","68.3","3","NA","","9","","","NA","228.6","0.0"
"-112.300","49.800","BARNWELL AGDM","3030525","AB","12.2","0","NA","28.6","0","-11.0","0","","","NA","44.0","1","NA","","8","","","NA","179.9","4.4"
"-113.224","50.026","BARONS AGCM","3030529","AB","11.4","0","NA","27.4","0","-11.7","0","","","NA","47.1","0","NA","","8","","","NA","198.6","0.5"
"-112.465","50.893","BASSANO AGCM","3030540","AB","11.3","0","NA","27.3","0","-9.2","0","","","NA","31.2","0","NA","","8","","","NA","201.8","1.0"
"-114.152","50.707","BLACK DIAMOND","3030680","AB","9.9","0","NA","26.4","0","-11.8","0","","","NA","50.3","8","NA","","8","","","NA","243.0","0.0"
"-113.640","50.546","BLACKIE AGCM","3030690","AB","10.5","0","NA","27.2","0","-9.1","0","","","NA","57.3","0","NA","","8","","","NA","226.5","0.4"
"-113.050","49.567","BLOOD TRIBE AGDM","3030720","AB","11.6","1","NA","28.6","1","-13.3","1","","","NA","62.6","2","NA","","7","","","NA","188.3","1.3"
"-111.450","49.734","BOW ISLAND","3030768","AB","12.6","0","NA","31.0","0","-8.5","0","","","NA","43.7","0","NA","","8","","","NA","169.5","6.0"
"-111.383","49.867","BOW ISLAND IRRIGATION AGDM","3030772","AB","12.7","0","NA","30.2","0","-5.0","0","","","NA","41.0","0","NA","","8","","","NA","164.4","5.1"
"-113.817","49.617","BROCKET AGDM","3030830","AB","11.6","0","NA","29.0","0","-9.4","0","","","NA","49.0","0","NA","","9","","","NA","192.9","0.0"
"-110.484","50.339","BULL SPRINGS AGCM","3030879","AB","12.6","0","NA","30.1","0","-2.2","0","","","NA","45.9","1","NA","","7","","","NA","166.8","6.1"
"-111.849","50.555","BROOKS","3030QLP","AB","12.1","0","NA","27.9","0","-6.2","0","","","NA","42.0","0","NA","","6","","","NA","180.8","2.6"
"-114.013","51.123","CALGARY INTL A","3031092","AB","11.2","0","NA","25.6","0","-4.6","0","34.4","11","NA","67.7","0","NA","26.0","11","","","NA","202.6","0.0"
"-114.000","51.109","CALGARY INT'L CS","3031094","AB","10.6","1","NA","25.2","1","-4.0","1","","","NA","50.9","1","NA","11.0","9","","","NA","213.4","0.0"
"-114.371","51.105","CALGARY SPRINGBANK A","3031109","AB","9.2","1","NA","23.7","1","-8.7","1","","","NA","50.6","1","NA","","10","","","NA","254.9","0.0"
"-113.286","49.201","CARDSTON","3031322","AB","11.5","0","NA","29.2","0","-6.6","0","","","NA","71.9","0","NA","","10","","","NA","196.1","1.1"
"-113.376","49.001","CARWAY","3031402","AB","10.0","0","NA","26.9","0","-7.9","0","","","NA","51.5","0","NA","68.0","9","","","NA","238.7","0.0"
"-113.350","50.282","CHAMPION AGDM","3031480","AB","11.0","0","NA","27.1","0","-11.1","0","","","NA","48.5","0","NA","","9","","","NA","210.1","0.0"
"-113.639","50.004","CLARESHOLM","3031640","AB","11.4","0","NA","27.9","0","-13.7","0","","","NA","74.6","0","NA","34.0","9","","","NA","197.7","0.1"
"-114.222","51.076","COP UPPER","3031875","AB","10.4","0","NA","24.2","0","-5.1","0","","","NA","","","NA","","","","","NA","229.4","0.0"
"-112.433","50.183","ENCHANT AGDM","3032422","AB","12.3","1","NA","27.4","1","-8.8","1","","","NA","59.7","1","NA","","10","","","NA","168.6","3.4"
"-111.054","49.553","ETZIKOM AGCM","3032450","AB","12.3","0","NA","31.0","0","-2.5","0","","","NA","36.9","4","NA","","8","","","NA","176.4","5.2"
"-112.033","49.800","FINCASTLE AGDM","3032550","AB","12.7","0","NA","29.6","0","-11.4","0","","","NA","52.2","0","NA","","8","","","NA","164.5","6.6"
"-111.486","49.483","FOREMOST AGDM","3032642","AB","12.5","0","NA","30.7","0","-8.9","0","","","NA","53.5","5","NA","","8","","","NA","171.6","5.4"
"-113.379","49.786","FORT MACLEOD AGCM","3032683","AB","11.8","0","NA","28.7","0","-10.9","0","","","NA","40.8","0","NA","","7","","","NA","188.6","1.8"
"-112.941","50.934","GLEICHEN AGCM","3032801","AB","11.4","0","NA","26.6","0","-6.6","0","","","NA","39.7","0","NA","","8","","","NA","199.4","0.1"
"-111.733","49.874","GRASSY LAKE","3032927","AB","12.6","0","NA","29.9","0","-8.5","0","","","NA","47.1","0","NA","","8","","","NA","168.0","6.2"
"-112.733","49.900","IRON SPRINGS AGDM","3033498","AB","12.3","0","NA","27.9","0","-9.4","0","","","NA","55.6","3","NA","","8","","","NA","175.4","3.7"
"-114.292","50.869","PRIDDIS OBSERVATORY","3033505","AB","12.4","15","NA","23.7","15","3.3","15","","","NA","29.5","13","NA","","3","","","NA","84.7","0.0"
"-110.261","49.989","IRVINE AGCM","3033550","AB","12.8","0","NA","30.8","0","-1.1","0","","","NA","35.0","1","NA","","8","","","NA","161.6","6.6"
"-113.631","51.191","KEOMA AGCM","3033620","AB","10.3","0","NA","27.5","0","-7.9","0","","","NA","39.2","1","NA","","9","","","NA","231.2","0.0"
"-112.299","50.600","LATHOM AGCM","3033770","AB","11.7","0","NA","28.0","0","-9.1","0","","","NA","42.8","4","NA","","8","","","NA","189.6","1.0"
"-112.799","49.630","LETHBRIDGE","3033875","AB","12.6","1","NA","29.0","1","-2.1","1","","","NA","32.8","1","NA","","4","","","NA","158.1","2.9"
"-112.763","49.647","LETHBRIDGE AGTECH AGCM","3033877","AB","12.0","0","NA","29.0","0","-11.4","0","","","NA","55.4","4","NA","","6","","","NA","183.2","3.1"
"-112.768","49.695","LETHBRIDGE CDA","3033890","AB","12.8","0","NA","28.7","0","-9.3","0","","","NA","54.9","0","NA","","8","","","NA","160.5","4.5"
"-112.783","49.700","LETHBRIDGE CDA 2","3033892","AB","","","NA","","","","","26.0","1","NA","60.9","1","NA","29.0","6","","","NA","",""
"-112.750","49.683","LETHBRIDGE DEMO FARM AGDM","3033897","AB","11.8","7","NA","28.0","6","-10.6","7","","","NA","39.0","7","NA","","6","","","NA","145.3","2.4"
"-110.721","50.019","MEDICINE HAT","3034479","AB","13.0","0","NA","30.8","0","-0.8","0","","","NA","45.2","0","NA","","7","","","NA","156.1","6.4"
"-110.717","50.025","MEDICINE HAT RCS","3034485","AB","13.1","0","NA","30.7","0","-0.8","0","","","NA","52.4","0","NA","11.0","6","","","NA","152.4","6.5"
"-113.349","50.673","MOSSLEIGH AGCM","3034577","AB","11.0","0","NA","27.3","0","-11.2","0","","","NA","43.4","2","NA","","8","","","NA","211.4","0.0"
"-114.099","51.369","NIER AGDM","3034795","AB","9.6","0","NA","24.3","0","-5.6","0","","","NA","54.2","0","NA","","8","","","NA","253.5","0.0"
"-113.997","49.521","PINCHER CREEK","3035198","AB","10.7","0","NA","27.8","0","-7.2","0","","","NA","65.7","0","NA","","6","","","NA","219.7","0.2"
"-114.005","49.522","PINCHER CREEK CLIMATE","3035208","AB","10.2","5","NA","28.0","5","-7.5","5","","","NA","70.5","5","NA","20.0","7","","","NA","196.0","0.1"
"-112.983","50.606","QUEENSTOWN","3035340","AB","11.9","0","0.3","27.0","0","-3.0","0","33.0","0","######","60.2","0","140.0","0.0","8","","","NA","184.0","1.0"
"-112.803","50.598","QUEENSTOWN","3035342","AB","12.5","3","NA","27.8","3","-2.3","3","","","NA","54.7","3","NA","","8","","","NA","150.9","2.7"
"-112.117","50.367","RAINIER AGCM","3035355","AB","12.1","0","NA","27.8","0","-8.6","0","","","NA","68.5","1","NA","","8","","","NA","179.1","2.9"
"-111.213","50.099","RALSTON AGCM","3035362","AB","12.7","0","NA","30.4","0","-3.1","0","","","NA","37.5","2","NA","","7","","","NA","165.6","5.8"
"-112.683","49.483","RAYMOND AGDM","3035422","AB","12.2","0","NA","29.1","0","-8.0","0","","","NA","58.7","5","NA","","6","","","NA","176.0","2.1"
"-111.701","50.265","ROLLING HILLS AGCM","3035530","AB","12.4","0","NA","28.5","0","-5.0","0","","","NA","40.3","2","NA","","7","","","NA","171.1","3.7"
"-112.050","50.833","ROSEMARY AGDM","3035650","AB","11.3","0","NA","27.8","0","-8.6","0","","","NA","40.0","1","NA","","6","","","NA","201.0","0.4"
"-110.917","49.917","SEVEN PERSONS AGDM","3035845","AB","12.5","0","NA","30.1","0","-1.3","0","","","NA","57.0","0","NA","","8","","","NA","168.9","3.9"
"-110.215","50.732","SOCIAL PLAINS AGCM","3036040","AB","12.4","0","NA","29.2","0","-1.6","0","","","NA","41.7","0","NA","","6","","","NA","173.3","5.9"
"-112.982","51.228","STANDARD AGCM","3036086","AB","11.7","0","NA","26.8","0","-4.6","0","","","NA","35.8","4","NA","","7","","","NA","190.3","0.4"
"-113.883","50.183","STAVELY AAFC","3036099","AB","10.3","0","NA","23.2","0","-6.6","0","","","NA","51.0","0","NA","","9","","","NA","232.0","0.0"
"-113.283","51.033","STRATHMORE AGDM","3036205","AB","11.2","0","NA","25.5","0","-6.3","0","","","NA","39.8","8","NA","","7","","","NA","203.4","0.2"
"-112.124","49.792","TABER","3036360","AB","14.3","17","NA","29.0","12","4.0","13","0.0","12","NA","22.8","12","NA","","2","","","NA","50.9","2.3"
"-111.321","50.456","TIDE LAKE AGCM","3036485","AB","12.2","0","NA","28.2","0","-4.4","0","","","NA","29.2","0","NA","","6","","","NA","177.6","4.0"
"-112.863","50.304","TRAVERS AGCM","3036500","AB","11.9","0","NA","26.8","0","-7.3","0","","","NA","40.0","0","NA","","8","","","NA","186.6","2.6"
"-112.133","50.050","VAUXHALL CDA CS","3036682","AB","12.3","0","NA","28.5","0","-10.4","0","","","NA","47.3","0","NA","","9","","","NA","174.3","4.2"
"-112.117","49.500","WRENTHAM AGDM","3037675","AB","12.3","0","NA","29.8","0","-10.5","0","","","NA","51.1","8","NA","","5","","","NA","175.0","4.2"
"-113.961","50.729","OKOTOKS","303M9JM","AB","11.5","0","0.0","27.0","0","-3.5","0","39.8","0","######","89.2","0","195.0","28.0","10","","","NA","197.9","1.8"
"-112.788","49.871","PICTURE BUTTE WEST","303N1G3","AB","11.7","0","NA","28.0","0","-3.5","0","32.0","0","NA","67.4","0","NA","41.0","9","","","NA","190.5","0.3"
"-112.817","49.050","DEL BONITA AGDM","3042045","AB","9.8","3","NA","27.9","3","-11.0","3","","","NA","47.3","3","NA","","8","","","NA","220.6","0.0"
"-110.678","49.364","MANYBERRIES AGCM","3044203","AB","11.5","0","NA","30.7","0","-1.6","0","","","NA","30.6","4","NA","","8","","","NA","198.9","3.9"
"-111.652","49.137","MASINASIN AGDM","3044232","AB","12.6","0","NA","30.3","0","-10.1","0","","","NA","43.7","0","NA","","9","","","NA","165.6","4.9"
"-112.050","49.133","MILK RIVER","3044533","AB","11.5","0","NA","30.3","0","-13.4","0","","","NA","50.6","0","NA","39.0","8","","","NA","197.5","1.7"
"-110.467","49.117","ONEFOUR CDA","3044923","AB","12.6","0","NA","31.2","0","-2.2","0","","","NA","55.6","0","NA","8.0","7","","","NA","169.9","6.6"
"-111.126","49.225","PAKOWKI LAKE AGCM","3045000","AB","12.6","0","NA","31.0","0","-4.2","0","","","NA","54.6","6","NA","","7","","","NA","168.0","5.7"
"-111.025","49.029","PINHORN AGCM","3045100","AB","12.1","0","NA","29.8","0","-9.1","0","","","NA","54.8","1","NA","","9","","","NA","180.8","3.4"
"-112.160","49.283","WARNER AGCM","3046951","AB","12.4","0","NA","29.5","0","-11.5","0","","","NA","62.7","1","NA","","8","","","NA","171.5","3.7"
"-115.552","51.193","BANFF CS","3050519","AB","9.0","0","NA","24.4","0","-4.9","0","","","NA","25.9","0","NA","","9","","","NA","270.6","0.0"
"-114.175","49.468","BEAVER MINES","3050602","AB","9.8","0","NA","26.9","0","-6.4","0","","","NA","91.7","0","NA","61.0","10","","","NA","245.3","0.0"
"-115.067","51.083","BOW VALLEY","3050778","AB","9.5","3","NA","26.8","3","-7.7","3","","","NA","1.2","28","NA","","1","","","NA","228.5","0.0"
"-114.482","49.628","CROWSNEST","3051R4R","AB","9.3","0","NA","26.1","0","-5.4","0","","","NA","50.8","5","NA","","8","","","NA","261.7","0.0"
"-118.030","52.926","JASPER WARDEN","3053536","AB","10.2","1","NA","26.7","1","-9.0","1","","","NA","39.5","1","NA","","9","","","NA","224.9","0.0"
"-115.035","51.028","KANANASKIS","3053600","AB","9.4","0","0.0","25.0","0","-6.0","0","53.0","0","326.0","82.8","0","114.0","49.0","11","","","NA","257.6","0.0"
"-116.040","52.492","NORDEGG CS","3054843","AB","8.4","0","NA","24.1","0","-6.8","0","","","NA","65.9","0","NA","11.0","8","","","NA","289.2","0.0"
"-114.416","50.368","PEKISKO","3055119","AB","8.5","4","NA","24.0","4","-12.0","4","","","NA","83.3","5","NA","71.0","7","","","NA","247.0","0.0"
"-113.809","49.131","WATERTON PARK GATE","3056214","AB","10.6","0","NA","28.0","0","-9.2","0","","","NA","0.0","27","NA","","0","","","NA","221.8","0.0"
"-115.787","54.144","WHITECOURT A","3057376","AB","10.0","3","NA","24.1","3","-4.4","3","","","NA","","","NA","","","","","NA","216.5","0.0"
"-115.190","50.943","NAKISKA RIDGETOP","305MGFF","AB","3.1","0","NA","16.1","0","-13.0","0","","","NA","","","NA","","","","","NA","447.0","0.0"
"-113.382","54.635","ATHABASCA AGCM","3060330","AB","10.4","0","NA","23.6","0","-6.6","0","","","NA","41.3","3","NA","","8","","","NA","229.5","0.0"
"-112.825","54.782","ATMORE AGDM","3060406","AB","10.0","0","NA","23.6","0","-7.7","0","","","NA","48.4","0","NA","","8","","","NA","240.7","0.0"
"-114.448","54.095","BARRHEAD CS","3060535","AB","11.0","0","NA","24.9","0","-4.8","0","","","NA","","","NA","5.0","","","","NA","211.2","0.0"
"-117.867","53.350","BRULE BLACK CAT","3060903","AB","9.8","3","0.8","25.5","2","-4.5","2","6.0","1","NA","109.1","1","NA","3.0","9","","","NA","220.4","0.0"
"-114.678","54.131","CAMPSIE AUTO","3061201","AB","11.0","1","NA","24.3","1","-3.9","1","","","NA","58.6","1","NA","","7","","","NA","204.4","0.0"
"-115.894","53.623","CARROT CREEK","3061350","AB","9.9","0","NA","26.3","0","-5.0","0","","","NA","47.0","21","NA","","6","","","NA","242.0","0.0"
"-113.950","54.317","DAPP AGDM","3061975","AB","11.9","9","NA","24.6","9","-0.7","9","","","NA","25.8","9","NA","","7","","","NA","128.3","0.0"
"-116.465","53.579","EDSON","3062239","AB","9.9","0","NA","23.8","0","-4.7","0","","","NA","57.0","0","NA","","8","","","NA","242.9","0.0"
"-116.453","53.580","EDSON CLIMATE","3062246","AB","10.2","0","NA","24.7","0","-4.2","0","","","NA","63.5","0","NA","2.0","9","","","NA","234.5","0.0"
"-114.983","53.600","ENTWISTLE","3062451","AB","11.1","0","0.3","26.0","0","-3.5","0","0.0","0","0.0","60.2","0","134.0","0.0","12","","","NA","207.6","0.3"
"-115.062","53.614","EVANSBURG2 AGCM","3062476","AB","9.8","0","NA","25.1","0","-4.7","0","","","NA","48.7","0","NA","","7","","","NA","246.9","0.0"
"-114.769","54.410","FORT ASSINIBOINE AGCM","3062660","AB","10.4","0","NA","24.1","0","-5.8","0","","","NA","85.1","0","NA","","11","","","NA","227.1","0.0"
"-111.213","56.651","FORT MCMURRAY CS","3062696","AB","10.1","0","NA","22.2","0","-6.2","0","","","NA","21.6","0","NA","","5","","","NA","235.8","0.0"
"-111.223","56.653","FORT MCMURRAY A","3062697","AB","10.5","1","NA","22.5","1","-6.3","1","","","NA","21.0","1","NA","","4","","","NA","217.4","0.0"
"-118.447","53.795","HENDRICKSON CREEK","3063135","AB","6.3","0","NA","23.3","0","-16.1","0","","","NA","","","NA","4.0","","","","NA","351.1","0.0"
"-116.479","55.396","HIGH PRAIRIE AGDM","3063165","AB","10.3","0","NA","24.5","0","-6.9","0","","","NA","44.1","0","NA","","9","","","NA","230.7","0.0"
"-113.543","54.821","ISLAND LAKE SOUTH","3063600","AB","10.6","0","NA","23.8","0","-6.0","0","","","NA","49.9","0","NA","","8","","","NA","221.7","0.0"
"-112.981","54.563","KINIKINIK","3063640","AB","10.7","0","NA","23.4","0","-5.1","0","","","NA","42.5","1","NA","","8","","","NA","219.1","0.0"
"-112.024","54.769","LAC LA BICHE CLIMATE","3063686","AB","11.0","0","NA","23.2","0","-4.0","0","","","NA","41.7","0","NA","2.0","5","","","NA","211.4","0.0"
"-111.559","57.041","MILDRED LAKE","3064528","AB","11.2","0","NA","22.8","0","-2.2","0","","","NA","18.0","0","NA","","4","","","NA","204.8","0.0"
"-113.321","54.964","PLEASANT VIEW","3065200","AB","10.1","0","NA","23.0","0","-7.8","0","","","NA","43.6","0","NA","","7","","","NA","237.3","0.0"
"-111.700","54.500","RICH LAKE AGDM","3065475","AB","9.1","0","NA","22.6","0","-6.0","0","","","NA","32.1","0","NA","","7","","","NA","268.4","0.0"
"-111.835","53.851","ISPAS","3065712","AB","11.5","4","NA","24.3","4","-1.5","4","","","NA","25.5","4","NA","","5","","","NA","168.6","0.0"
"-114.777","55.293","SLAVE LAKE","3065995","AB","10.4","0","NA","21.4","0","-6.9","0","","","NA","47.2","0","NA","","9","","","NA","228.1","0.0"
"-114.777","55.293","SLAVE LAKE RCS","3065997","AB","10.5","1","NA","21.3","1","-7.2","1","","","NA","37.1","1","NA","","9","","","NA","218.2","0.0"
"-113.520","54.300","TAWATINAW AGCM","3066367","AB","10.8","0","NA","24.0","0","-5.4","0","","","NA","25.1","1","NA","","7","","","NA","216.2","0.0"
"-118.348","53.386","WILLOW CREEK 1","306GE70","AB","7.3","0","NA","24.3","0","-9.9","0","","","NA","70.2","0","NA","5.0","14","","","NA","320.6","0.0"
"-117.236","55.577","BALLATER AGCM","3070495","AB","10.4","0","NA","25.3","0","-8.2","0","","","NA","35.6","0","NA","","6","","","NA","227.0","0.0"
"-119.396","55.197","BEAVERLODGE RCS","3070600","AB","10.0","0","NA","26.0","0","-5.7","0","","","NA","26.9","0","NA","","6","","","NA","240.9","0.0"
"-117.886","56.118","BROWNVALE AGCM","3070800","AB","9.7","0","NA","23.8","0","-8.4","0","","","NA","36.2","13","NA","","5","","","NA","247.9","0.0"
"-117.933","56.529","CLEAR HILLS AGCM","3071661","AB","9.1","0","NA","23.0","0","-7.4","0","","","NA","24.8","2","NA","","5","","","NA","265.9","0.0"
"-117.543","56.715","DEADWOOD AGCM","3071957","AB","10.1","0","NA","23.6","0","-6.3","0","","","NA","47.6","0","NA","","6","","","NA","237.1","0.0"
"-117.887","55.808","EAGLESHAM AGCM","3072151","AB","10.5","0","NA","25.3","0","-6.4","0","","","NA","27.6","0","NA","","7","","","NA","225.5","0.0"
"-110.439","58.981","EGG ISLAND","3072246","AB","10.9","15","NA","18.3","15","1.8","15","","","NA","","","NA","","","","","NA","106.0","0.0"
"-118.439","56.081","FAIRVIEW AGDM","3072525","AB","9.9","0","NA","24.4","0","-6.1","0","","","NA","23.7","1","NA","","4","","","NA","244.4","0.0"
"-111.117","58.767","FORT CHIPEWYAN","3072655","AB","8.5","9","NA","20.8","9","-4.2","9","","","NA","10.8","10","NA","","4","","","NA","199.9","0.0"
"-111.117","58.767","FORT CHIPEWYAN RCS","3072659","AB","9.1","0","NA","21.8","0","-4.6","0","","","NA","49.7","0","NA","","7","","","NA","265.7","0.0"
"-116.040","58.382","FORT VERMILION","3072723","AB","9.9","0","NA","22.5","0","-6.9","0","","","NA","50.2","0","NA","","5","","","NA","243.8","0.0"
"-118.885","55.180","GRANDE PRAIRIE A","3072921","AB","10.2","0","NA","25.8","0","-6.7","0","0.0","10","NA","31.9","0","NA","","7","","","NA","235.0","0.0"
"-117.298","57.265","HAWK HILLS AGCM","3073071","AB","10.1","0","NA","23.6","0","-6.8","0","","","NA","40.5","0","NA","","8","","","NA","237.2","0.0"
"-117.165","58.622","HIGH LEVEL","3073140","AB","9.1","0","NA","23.7","0","-9.0","0","","","NA","0.2","12","NA","","0","","","NA","267.5","0.0"
"-117.165","58.621","HIGH LEVEL A","3073146","AB","9.9","3","1.5","23.5","3","-5.0","3","0.0","3","NA","59.2","3","NA","","11","","","NA","219.6","0.0"
"-117.120","55.913","JEAN COTE AGCM","3073535","AB","10.3","0","NA","23.6","0","-4.5","0","","","NA","30.4","0","NA","","6","","","NA","231.9","0.0"
"-117.677","57.788","KEG RIVER AGCM","3073644","AB","9.7","0","NA","24.9","0","-7.3","0","","","NA","48.8","2","NA","","6","","","NA","247.8","0.0"
"-116.343","58.172","LA CRETE AGCM","3073730","AB","9.9","0","NA","23.8","0","-6.9","0","","","NA","38.3","0","NA","","5","","","NA","242.3","0.0"
"-119.255","55.422","LA GLACE AGCM","3073740","AB","9.0","0","NA","25.6","0","-7.9","0","","","NA","23.3","1","NA","","5","","","NA","270.7","0.0"
"-117.451","56.974","MANNING AGDM","3074190","AB","9.7","3","NA","22.7","3","-6.5","3","","","NA","","","NA","","","","","NA","224.2","0.0"
"-119.745","56.314","CLEARDALE AGDM","3074935","AB","9.9","0","NA","23.9","0","-5.2","0","","","NA","48.2","1","NA","","4","","","NA","243.6","0.0"
"-117.448","56.227","PEACE RIVER A","3075041","AB","9.8","0","NA","23.6","0","-8.8","0","0.0","0","NA","31.7","2","NA","","6","","","NA","244.6","0.0"
"-118.293","55.621","PEORIA AGDM","3075160","AB","9.7","0","NA","25.7","0","-8.6","0","","","NA","15.4","2","NA","","5","","","NA","249.9","0.0"
"-115.278","56.552","RED EARTH","3075488","AB","10.0","0","NA","24.3","0","-6.6","0","","","NA","36.2","0","NA","","12","","","NA","239.7","0.0"
"-116.481","58.452","ROCKY LANE AGCM","3075550","AB","9.4","0","NA","23.9","0","-9.6","0","","","NA","40.4","0","NA","","4","","","NA","258.3","0.0"
"-118.668","55.777","RYCROFT AGCM","3075601","AB","10.2","0","NA","25.9","0","-9.1","0","","","NA","16.3","1","NA","","3","","","NA","235.2","0.0"
"-119.345","56.076","SAVANNA AGCM","3075770","AB","9.8","0","NA","25.0","0","-7.6","0","","","NA","15.5","7","NA","","4","","","NA","246.2","0.0"
"-111.997","58.853","SWEETGRASS LANDING","3076330","AB","","","NA","","","","","","","NA","51.2","13","NA","","7","","","NA","",""
"-118.408","55.352","TEEPEE CREEK AGCM","3076366","AB","9.9","0","NA","25.6","0","-6.9","0","","","NA","38.3","1","NA","","5","","","NA","241.9","0.0"
"-116.848","58.021","TOMPKINS LANDING AGCM","3076530","AB","10.3","0","NA","24.0","0","-7.2","0","","","NA","48.3","0","NA","","4","","","NA","232.5","0.0"
"-117.199","55.098","VALLEYVIEW AGDM","3076680","AB","10.4","0","NA","24.9","0","-7.5","0","","","NA","41.9","0","NA","","9","","","NA","228.3","0.0"
"-113.866","58.711","GARDEN RIVER","307KPFP","AB","9.5","0","NA","22.1","0","-5.9","0","","","NA","49.2","10","NA","","5","","","NA","256.0","0.0"
"-110.283","54.417","COLD LAKE A","3081680","AB","11.2","0","0.7","23.6","0","-1.2","0","0.0","0","0.0","30.2","0","78.0","","6","","","NA","204.3","0.0"
"-110.868","54.367","DUPRE AGCM","3081690","AB","10.1","1","NA","24.3","0","-5.1","1","","","NA","31.2","0","NA","","7","","","NA","230.3","0.0"
"-104.710","50.201","BRATT'S LAKE CLIMATE","4010811","SK","12.1","0","NA","32.7","0","-4.5","0","","","NA","95.9","0","NA","","8","","","NA","182.0","4.6"
"-102.571","50.368","BROADVIEW","4010879","SK","11.7","0","0.7","30.3","0","-3.0","0","","","NA","98.8","0","238.0","","10","","","NA","196.0","7.1"
"-105.383","50.550","BUFFALO POUND LAKE","4010984","SK","12.6","0","NA","32.0","0","-1.0","0","0.0","0","NA","100.4","0","NA","0.0","12","","","NA","165.0","4.0"
"-104.867","51.183","DUVAL","4012300","SK","12.7","0","0.5","31.0","0","0.0","0","6.0","0","541.0","101.0","0","273.0","0.0","12","","","NA","167.0","7.0"
"-102.966","49.210","ESTEVAN A","4012403","SK","12.6","1","NA","30.3","1","-0.4","1","","","NA","152.7","1","NA","","16","","","NA","163.5","7.5"
"-102.967","49.217","ESTEVAN","4012410","SK","12.7","0","NA","30.3","0","-0.2","0","","","NA","160.1","0","NA","","16","","","NA","165.5","7.5"
"-103.650","50.550","INDIAN HEAD CDA","4013480","SK","11.9","1","0.5","31.6","1","-2.1","1","","","NA","120.8","1","NA","","11","","","NA","182.4","5.6"
"-103.753","51.257","KELLIHER","4013660","SK","11.9","0","1.0","30.0","0","-1.0","0","11.0","0","564.0","122.4","0","284.0","6.0","15","","","NA","188.3","5.3"
"-102.733","50.200","KIPLING","4014040","SK","12.1","0","0.9","30.0","0","-3.0","0","0.0","0","0.0","112.6","0","302.0","0.0","13","","","NA","184.1","7.0"
