"Long","Lat","Stn_Name","Clim_ID","Prov","Tm","DwTm","D","Tx","DwTx","Tn","DwTn","S","DwS","S%N","P","DwP","P%N","S_G","Pd","BS","DwBS","BS%","HDD","CDD"
"-123.742","48.935","CHEMAINUS","1011500","BC","19.7","0","NA","33.0","0","11.0","0","0.0","0","NA","4.6","0","NA","0.0","2","","","NA","10.7","60.3"
"-124.052","48.829","LAKE COWICHAN","1012055","BC","17.4","13","2.4","37.0","9","6.0","8","0.0","9","NA","6.0","9","NA","0.0","2","","","NA","20.4","10.4"
"-123.226","48.425","DISCOVERY ISLAND","1012475","BC","","","NA","26.1","2","","","","","NA","","","NA","","","","","NA","",""
"-123.728","48.735","DUNCAN KELVIN CREEK","1012573","BC","18.3","0","3.0","33.0","0","7.0","0","0.0","0","NA","4.2","0","11.0","0.0","3","","","NA","29.4","37.1"
"-123.439","48.432","ESQUIMALT HARBOUR","1012710","BC","16.6","1","NA","28.2","1","9.8","0","","","NA","4.0","1","NA","","1","","","NA","49.3","9.8"
"-123.573","48.985","GALIANO NORTH","10130MN","BC","19.2","9","NA","34.5","9","12.0","9","0.0","8","NA","9.4","8","NA","0.0","3","","","NA","9.4","34.7"
"-123.530","48.575","MALAHAT","1014820","BC","18.6","0","NA","32.6","0","7.9","0","","","NA","6.0","0","NA","","2","","","NA","32.5","50.8"
"-123.561","48.374","METCHOSIN","1015105","BC","","","NA","","","","","0.0","0","NA","6.0","0","21.0","0.0","2","","","NA","",""
"-123.718","48.824","NORTH COWICHAN","1015628","BC","","","NA","","","","","0.0","0","NA","4.6","0","12.0","0.0","2","","","NA","",""
"-123.719","48.824","NORTH COWICHAN","1015630","BC","18.5","1","NA","33.1","1","6.5","0","","","NA","4.4","1","NA","","1","","","NA","25.2","39.7"
"-123.287","48.764","NORTH PENDER ISLAND","1015638","BC","18.8","2","NA","31.0","2","8.0","2","0.0","2","NA","4.2","2","NA","0.0","2","","","NA","17.3","38.6"
"-123.531","48.298","RACE ROCKS","1016640","BC","14.1","1","NA","25.1","1","9.0","0","","","NA","","","NA","","","","","NA","114.0","2.3"
"-123.419","48.622","SAANICHTON CDA","1016940","BC","18.1","0","3.1","29.0","0","9.0","0","0.0","0","NA","3.6","0","10.0","0.0","1","","","NA","30.0","32.0"
"-123.546","48.888","SALTSPRING ST MARY'S L","1016995","BC","19.3","2","3.5","30.0","2","12.0","2","0.0","2","NA","5.2","2","NA","","2","","","NA","9.7","46.3"
"-123.427","48.598","SAANICHTON MT NEWTON","1016RM0","BC","","","NA","","","","","0.0","29","NA","3.4","29","NA","","1","","","NA","",""
"-123.128","48.775","SATURNA CAPMON","1017098","BC","18.1","0","3.6","29.4","0","9.3","0","0.0","0","NA","6.0","0","16.0","0.0","2","","","NA","40.7","44.2"
"-123.128","48.775","SATURNA CAPMON CS","1017099","BC","18.1","1","NA","29.1","1","9.3","0","","","NA","4.8","1","NA","","2","","","NA","39.9","42.6"
"-123.045","48.784","SATURNA ISLAND CS","1017101","BC","17.7","1","NA","27.4","1","10.7","0","","","NA","5.0","1","NA","","2","","","NA","31.2","21.1"
"-123.626","48.647","SHAWNIGAN LAKE","1017230","BC","18.5","0","3.4","33.5","0","7.5","0","0.0","0","NA","5.4","0","13.0","0.0","3","","","NA","26.0","41.5"
"-123.921","48.377","SHERINGHAM POINT","1017254","BC","12.9","0","NA","24.1","0","8.8","0","","","NA","4.2","0","NA","","1","","","NA","154.3","0.7"
"-123.305","48.457","VICTORIA UNIVERSITY CS","1018598","BC","17.5","0","NA","31.4","0","7.2","0","","","NA","4.4","0","NA","","2","","","NA","37.8","23.4"
"-123.443","48.476","VICTORIA FRANCIS PARK","1018605","BC","","","NA","","","","","0.0","28","NA","4.6","28","NA","","2","","","NA","",""
"-123.325","48.413","VICTORIA GONZALES CS","1018611","BC","16.1","1","NA","27.3","1","9.7","0","","","NA","3.8","4","NA","","1","","","NA","62.9","8.8"
"-123.426","48.647","VICTORIA INTL A","1018621","BC","17.6","0","NA","29.0","0","7.0","0","0.0","1","NA","4.6","2","NA","","1","","","NA","34.3","20.8"
"-124.160","49.350","BALLENAS ISLAND","1020590","BC","18.3","3","NA","29.3","3","12.5","1","","","NA","12.6","3","NA","","1","","","NA","19.9","27.6"
"-125.273","49.952","CAMPBELL RIVER A","1021261","BC","17.8","0","3.1","34.3","0","6.2","0","0.0","0","NA","26.8","0","43.0","0.0","5","","","NA","43.0","37.2"
"-125.208","49.945","CAMPBELL RIVER SURFSIDE","1021266","BC","","","","","","","","0.0","0","NA","31.2","0","61.0","0.0","5","","","NA","",""
"-125.195","49.998","CAPE MUDGE","1021330","BC","18.2","0","3.4","32.0","0","9.5","0","0.0","0","NA","25.8","0","42.0","0.0","5","","","NA","29.1","36.5"
"-125.446","50.333","CHATHAM POINT","1021480","BC","16.2","1","2.0","27.0","1","9.5","1","0.0","1","NA","23.0","1","NA","","6","","","NA","59.0","6.4"
"-124.683","49.472","CHROME ISLAND","1021500","BC","18.2","0","NA","30.5","0","10.0","0","0.0","0","NA","21.0","0","NA","0.0","3","","","NA","25.5","32.6"
"-124.900","49.717","COMOX A","1021830","BC","18.6","0","3.1","31.2","0","10.7","0","0.0","0","NA","17.3","0","40.0","0.0","2","","","NA","22.4","40.2"
"-124.949","50.071","CORTES ISLAND TIBER BAY","1021960","BC","19.3","4","NA","34.4","4","9.0","4","0.0","4","NA","21.6","4","NA","0.0","2","","","NA","14.3","48.3"
"-124.999","49.763","COURTENAY GRANTHAM","1021988","BC","17.2","9","NA","29.5","9","9.0","9","0.0","9","NA","17.2","9","NA","","3","","","NA","28.1","10.9"
"-125.033","49.686","COURTENAY PUNTLEDGE","1021989","BC","18.2","2","NA","33.5","1","6.0","1","0.0","0","NA","16.9","0","NA","0.0","4","","","NA","28.2","33.8"
"-123.811","49.209","ENTRANCE ISLAND","1022689","BC","18.4","1","NA","26.4","1","12.5","0","","","NA","5.0","1","NA","","1","","","NA","19.6","31.6"
"-125.993","50.454","FANNY ISLAND","1022795","BC","13.5","4","NA","20.7","4","9.3","2","","","NA","8.8","4","NA","","2","","","NA","115.9","0.0"
"-125.203","50.099","HERIOT BAY SE","1023462","BC","17.2","6","NA","29.0","6","9.0","6","0.0","6","NA","37.0","6","NA","","5","","","NA","26.4","7.7"
"-124.512","49.353","LITTLE QUALICUM HATCHERY","1024638","BC","15.8","11","1.5","32.0","7","5.0","11","0.0","3","NA","17.1","3","NA","0.0","2","","","NA","45.6","4.3"
"-123.870","49.054","NANAIMO A","1025370","BC","18.7","0","3.1","34.6","0","8.0","0","0.0","0","NA","7.6","0","18.0","0.0","2","","","NA","25.4","45.9"
"-123.988","49.199","NANAIMO CITY YARD","10253G0","BC","","","NA","","","","","0.0","0","NA","14.1","0","30.0","0.0","3","","","NA","",""
"-127.367","50.681","PORT HARDY A","1026271","BC","13.5","0","NA","23.8","0","4.6","0","0.0","0","NA","16.4","2","NA","","6","","","NA","137.3","0.9"
"-124.394","49.337","QUALICUM BEACH AIRPORT","1026562","BC","18.2","1","NA","31.6","1","8.3","0","","","NA","16.6","1","NA","","1","","","NA","29.7","35.9"
"-124.617","49.394","QUALICUM R FISH RESEARCH","1026565","BC","17.8","0","2.9","31.0","0","5.5","0","0.0","0","NA","15.2","0","34.0","0.0","2","","","NA","38.0","31.7"
"-125.304","50.016","QUINSAM RIVER HATCHERY","1026639","BC","17.6","0","2.7","34.5","0","7.0","0","0.0","0","NA","30.4","0","48.0","0.0","5","","","NA","39.1","27.6"
"-124.435","49.487","SISTERS ISLAND","1027403","BC","18.4","1","NA","28.4","1","11.6","0","","","NA","","","NA","","","","","NA","24.4","35.3"
"-123.809","49.209","ENTRANCE ISLAND","102BFHH","BC","17.8","1","NA","26.0","1","11.5","1","0.0","1","NA","7.6","1","NA","0.0","2","","","NA","26.6","20.3"
"-124.982","49.337","ALBERNI ROBERTSON CREEK","1030230","BC","18.9","6","3.4","37.0","6","7.0","6","0.0","6","NA","17.4","6","NA","","3","","","NA","25.0","46.6"
"-125.216","48.786","CAPE BEALE LIGHT","1031316","BC","13.4","2","0.7","19.5","2","9.0","2","0.0","2","NA","10.4","2","NA","0.0","3","","","NA","129.9","0.0"
"-124.751","48.612","CARMANAH POINT","1031402","BC","","","NA","","","","","0.0","0","NA","9.4","0","9.0","0.0","4","","","NA","",""
"-126.418","49.800","CONUMA RIVER HATCHERY","1031844","BC","","","NA","","","","","0.0","11","NA","27.4","11","NA","","4","","","NA","",""
"-126.543","49.383","ESTEVAN POINT","1032730","BC","14.1","0","1.3","23.5","0","8.0","0","0.0","0","NA","38.2","0","27.0","0.0","6","","","NA","117.6","1.0"
"-126.543","49.383","ESTEVAN POINT CS","1032731","BC","13.8","1","NA","22.5","1","8.3","0","","","NA","33.2","1","NA","","5","","","NA","122.2","0.5"
"-126.055","49.779","GOLD RIVER TOWNSITE","1033232","BC","18.1","5","3.0","37.0","5","7.0","5","0.0","5","NA","24.2","5","NA","","4","","","NA","26.6","28.5"
"-125.923","49.111","LENNARD ISLAND","1034600","BC","12.9","6","NA","21.0","6","8.0","6","0.0","6","NA","12.8","6","NA","","4","","","NA","121.4","0.0"
"-124.655","48.859","NITINAT RIVER HATCHERY","1035612","BC","16.4","0","2.3","33.0","0","6.0","0","0.0","0","NA","6.3","0","5.0","0.0","3","","","NA","63.0","15.7"
"-126.617","49.600","NOOTKA LIGHTSTATION","1035614","BC","15.8","0","2.1","29.5","0","9.0","0","0.0","0","NA","36.0","0","24.0","0.0","6","","","NA","75.0","10.2"
"-125.097","48.723","PACHENA POINT","1035940","BC","13.5","0","0.9","26.5","0","7.0","0","0.0","0","NA","11.0","0","9.0","0.0","4","","","NA","137.5","2.1"
"-124.752","49.202","PORT ALBERNI COX LAKE","1036208","BC","17.8","0","3.2","35.5","0","6.5","0","0.0","0","NA","12.4","0","18.0","0.0","2","","","NA","40.3","35.6"
"-127.455","50.386","PORT ALICE","1036240","BC","16.1","0","2.3","31.5","0","6.5","0","0.0","0","NA","15.0","0","15.0","0.0","5","","","NA","69.8","12.7"
"-127.653","50.534","QUATSINO","1036570","BC","14.0","6","0.7","26.5","6","6.0","6","0.0","6","NA","20.2","6","NA","0.0","6","","","NA","97.9","1.8"
"-128.033","50.441","QUATSINO LIGHTSTATION","1036572","BC","15.2","0","2.3","27.0","0","8.0","0","0.0","0","NA","32.2","0","28.0","0.0","5","","","NA","92.7","7.8"
"-124.927","49.317","PORT ALBERNI (AUT)","1036B06","BC","18.0","0","NA","36.6","0","4.8","0","","","NA","14.2","0","NA","","1","","","NA","37.7","39.0"
"-128.908","50.821","SARTINE ISLAND (AUT)","1037090","BC","12.6","1","NA","17.2","1","8.9","0","","","NA","13.4","5","NA","","5","","","NA","157.4","0.0"
"-127.940","50.112","SOLANDER ISLAND (AUT)","1037553","BC","12.5","1","NA","19.7","1","9.4","0","","","NA","7.8","3","NA","","4","","","NA","158.7","0.0"
"-126.654","49.932","TAHSIS VILLAGE NORTH","1037899","BC","16.3","9","NA","27.5","9","8.0","9","0.0","9","NA","55.6","9","NA","","7","","","NA","44.0","8.8"
"-125.773","49.082","TOFINO A","1038205","BC","14.7","0","1.8","29.8","0","6.9","0","0.0","0","NA","17.4","0","13.0","0.0","6","","","NA","104.7","5.0"
"-125.527","48.945","UCLUELET KENNEDY CAMP","1038332","BC","14.5","0","1.3","28.5","0","5.5","0","0.0","0","NA","15.0","0","10.0","0.0","5","","","NA","110.0","3.8"
"-126.779","50.053","ZEBALLOS MURAUDE CREEK","1039035","BC","17.3","1","NA","36.0","1","8.0","1","0.0","1","NA","41.8","1","NA","0.0","8","","","NA","49.0","27.9"
"-123.541","49.386","GIBSONS GOWER POINT","1043152","BC","18.2","0","2.8","26.5","0","11.0","0","0.0","0","NA","13.0","0","19.0","0.0","3","","","NA","27.8","32.5"
"-123.913","49.468","MERRY ISLAND LIGHTSTATION","1045100","BC","19.0","0","3.1","28.5","0","11.5","0","0.0","0","NA","28.0","0","52.0","0.0","4","","","NA","13.0","44.3"
"-123.299","49.488","HOWE SOUND - PAM ROCKS","10459NN","BC","19.5","0","NA","29.2","0","12.8","0","","","NA","11.4","0","NA","","3","","","NA","11.2","57.5"
"-124.032","49.634","PENDER HARBOUR","1046115","BC","","","NA","","","","","0.0","0","NA","9.8","0","NA","0.0","2","","","NA","",""
"-123.496","49.526","PORT MELLON","1046332","BC","19.1","1","NA","30.9","1","9.9","0","","","NA","25.6","1","NA","","5","","","NA","21.1","51.9"
"-124.500","49.834","POWELL RIVER A","1046391","BC","17.8","0","2.9","30.5","0","6.5","0","0.0","0","NA","17.0","0","25.0","0.0","3","","","NA","35.0","28.3"
"-124.497","49.835","POWELL RIVER","1046392","BC","17.6","1","NA","30.4","1","6.9","0","","","NA","18.7","2","NA","","4","","","NA","37.8","26.4"
"-123.715","49.458","SECHELT AUT","1047172","BC","17.8","1","NA","30.6","1","7.5","0","","","NA","18.3","1","NA","","3","","","NA","36.4","31.2"
"-123.161","49.783","SQUAMISH AIRPORT","10476F0","BC","19.0","1","NA","34.3","1","7.5","0","","","NA","11.0","1","NA","","3","","","NA","17.6","46.7"
"-122.955","50.129","WHISTLER","1048898","BC","16.9","7","3.3","35.5","7","4.1","7","0.0","7","NA","8.0","7","NA","","3","","","NA","40.9","14.8"
"-131.016","51.936","CAPE ST JAMES","1051351","BC","12.4","1","NA","18.7","1","8.6","0","","","NA","","","NA","","","","","NA","163.6","0.0"
"-132.772","53.316","KINDAKUN ROCKS (AUT)","1054222","BC","12.6","1","NA","17.6","1","8.5","0","","","NA","28.6","2","NA","","8","","","NA","157.1","0.0"
"-133.058","54.255","LANGARA","1054500","BC","12.5","0","1.7","17.2","0","7.8","0","0.0","0","NA","61.1","0","65.0","0.0","12","","","NA","165.7","0.0"
"-133.058","54.255","LANGARA ISLAND RCS","1054503","BC","12.3","1","NA","17.2","1","7.7","0","","","NA","59.5","2","NA","","12","","","NA","164.4","0.0"
"-132.167","54.000","MASSET A","1054925","BC","12.9","0","NA","22.5","0","3.4","0","0.0","0","NA","36.7","0","NA","0.0","12","","","NA","152.6","0.3"
"-131.661","54.159","ROSE SPIT (AUT)","1056869","BC","13.2","1","NA","20.0","1","4.0","0","","","NA","","","NA","","","","","NA","138.3","0.0"
"-131.813","53.254","SANDSPIT A","1057050","BC","14.1","0","1.9","21.0","0","6.5","0","0.0","0","NA","31.2","0","60.0","0.0","7","","","NA","116.3","0.0"
"-131.813","53.249","SANDSPIT AIRPORT AUTO","1057051","BC","14.1","0","NA","21.0","0","7.0","0","","","NA","27.4","0","NA","","6","","","NA","118.1","0.0"
"-131.814","53.254","SANDSPIT","1057052","BC","14.3","0","NA","20.5","0","8.0","0","","","NA","25.2","0","NA","","5","","","NA","112.5","0.0"
"-132.299","53.764","SEWALL MASSET INLET","105PA91","BC","14.2","3","NA","24.0","3","5.0","3","0.0","3","NA","51.2","3","NA","0.0","10","","","NA","104.3","0.8"
"-127.864","51.604","ADDENBROKE ISLAND","1060080","BC","15.1","0","2.1","25.0","0","1.0","0","0.0","0","NA","58.8","0","37.0","0.0","9","","","NA","90.7","4.3"
"-128.157","52.185","BELLA BELLA","1060815","BC","14.6","0","NA","29.6","0","4.5","0","","","NA","29.8","0","NA","","8","","","NA","105.0","2.4"
"-126.596","52.388","BELLA COOLA A","1060841","BC","18.1","2","3.0","33.2","2","5.8","2","0.0","2","NA","12.8","2","NA","0.0","6","","","NA","27.1","28.5"
"-128.524","52.643","BOAT BLUFF","1060901","BC","14.9","0","2.1","29.0","0","8.0","0","0.0","0","NA","46.4","0","21.0","0.0","9","","","NA","99.3","6.8"
"-130.638","53.493","BONILLA ISLAND","1060902","BC","13.3","0","1.5","20.0","0","8.5","0","0.0","0","NA","42.8","0","44.0","0.0","7","","","NA","141.4","0.0"
"-130.639","53.493","BONILLA ISLAND (AUT)","1060R0K","BC","12.4","1","NA","18.3","1","8.3","0","","","NA","36.8","2","NA","","5","","","NA","162.2","0.0"
"-127.471","52.187","CATHEDRAL POINT (AUT)","1061458","BC","16.4","1","NA","28.0","1","9.4","0","","","NA","54.4","4","NA","","7","","","NA","55.5","9.9"
"-131.602","53.030","CUMSHEWA ISLAND","1062251","BC","13.6","1","NA","18.4","1","9.7","0","","","NA","","","NA","","","","","NA","127.9","0.0"
"-128.112","52.185","DRYAD POINT","1062544","BC","15.7","0","2.2","27.5","0","8.0","0","0.0","0","NA","35.0","0","24.0","0.0","4","","","NA","75.3","5.3"
"-127.835","51.247","EGG ISLAND","1062646","BC","13.5","0","1.3","20.0","0","8.5","0","0.0","0","NA","32.6","0","27.0","0.0","5","","","NA","136.4","0.0"
"-130.708","54.569","GREEN ISLAND","1063298","BC","14.6","0","1.8","21.0","0","8.5","0","0.0","0","NA","52.8","0","50.0","0.0","11","","","NA","100.7","0.0"
"-130.698","54.580","GREY ISLET (AUT)","1063303","BC","14.7","9","NA","20.5","8","9.3","7","","","NA","11.6","12","NA","","2","","","NA","69.4","0.0"
"-127.632","50.940","HERBERT ISLAND (AUT)","1063461","BC","13.2","4","NA","20.2","4","9.2","2","","","NA","15.2","4","NA","","4","","","NA","123.8","0.0"
"-130.361","54.172","HOLLAND ROCK","1063496","BC","12.7","1","NA","17.8","1","8.6","0","","","NA","14.4","1","NA","","5","","","NA","154.6","0.0"
"-128.407","52.270","IVORY ISLAND","1063690","BC","14.2","0","1.6","21.0","0","9.0","0","0.0","0","NA","35.0","0","27.0","0.0","10","","","NA","114.3","0.0"
"-128.634","54.054","KITIMAT TOWNSITE","1064320","BC","15.9","1","1.5","28.0","1","5.0","1","0.0","1","NA","22.8","1","NA","0.0","8","","","NA","70.3","10.6"
"-130.609","54.296","LUCY ISLAND LIGHTSTATION","1064728","BC","13.5","1","NA","20.0","1","8.5","0","","","NA","","","NA","","","","","NA","129.6","0.0"
"-130.445","54.286","PRINCE RUPERT","1066482","BC","13.6","0","NA","22.7","0","6.2","0","","","NA","44.0","0","NA","","8","","","NA","132.6","0.0"
"-130.290","54.320","PRINCE RUPERT MONT CIRC","1066488","BC","","","NA","","","","","0.0","12","NA","64.4","12","NA","0.0","8","","","NA","",""
"-129.985","55.936","STEWART A","1067742","BC","15.2","0","1.2","27.8","0","5.7","0","0.0","0","NA","75.1","0","114.0","0.0","15","","","NA","88.1","3.3"
"-128.625","54.502","TERRACE PCC","1068131","BC","17.2","0","2.6","31.0","0","6.0","0","0.0","0","NA","17.3","0","36.0","0.0","6","","","NA","44.3","21.0"
"-128.578","54.469","TERRACE A","1068134","BC","16.3","0","NA","30.9","0","5.8","0","0.0","1","NA","21.5","1","NA","","5","","","NA","65.4","14.6"
"-130.880","54.295","TRIPLE ISLAND","1068250","BC","13.5","3","NA","20.0","3","9.0","3","0.0","3","NA","32.0","3","NA","0.0","10","","","NA","122.6","0.0"
"-128.682","54.044","KITIMAT HATCHERY","106D289","BC","17.3","10","NA","30.0","10","6.0","10","0.0","10","NA","18.7","10","NA","0.0","4","","","NA","27.4","13.4"
"-126.277","54.199","EQUITY SILVER","1072692","BC","11.6","0","2.1","25.5","0","0.0","0","0.0","0","0.0","30.0","0","42.0","0.0","6","","","NA","193.5","0.0"
"-126.668","54.396","HOUSTON","1073615","BC","16.8","2","NA","33.0","2","4.0","2","0.0","2","NA","17.2","2","NA","0.0","2","","","NA","48.5","15.1"
"-129.030","55.238","NASS CAMP","1075384","BC","15.9","1","2.0","29.5","1","4.5","1","0.0","1","NA","27.0","1","NA","","7","","","NA","68.4","6.9"
"-127.183","54.825","SMITHERS","1077499","BC","14.8","1","NA","30.3","1","2.8","0","","","NA","12.9","1","NA","","5","","","NA","95.8","2.9"
"-127.183","54.825","SMITHERS A","1077500","BC","15.2","0","2.2","30.5","0","4.0","0","0.0","0","NA","14.3","0","26.0","0.0","4","","","NA","89.1","3.8"
"-127.189","54.824","SMITHERS AIRPORT AUTO","1077501","BC","15.0","0","NA","30.7","0","3.7","0","","","NA","14.7","0","NA","","5","","","NA","92.5","3.8"
"-127.171","55.289","SUSKWA VALLEY","107G879","BC","12.6","0","0.0","27.5","0","0.0","0","0.0","0","NA","55.5","0","73.0","0.0","9","","","NA","163.3","0.0"
"-125.997","53.772","OOTSA LAKESKINS LAKE CLIMATE","1085836","BC","13.3","1","NA","27.8","1","3.6","0","","","NA","19.1","2","NA","","6","","","NA","136.5","0.4"
"-122.734","50.306","PEMBERTON AIRPORT CS","1086082","BC","19.9","0","NA","38.0","0","5.5","0","","","NA","28.5","0","NA","","3","","","NA","15.2","72.3"
"-124.136","52.114","PUNTZI MOUNTAIN (AUT)","1086558","BC","14.3","1","NA","32.9","1","-1.2","0","","","NA","15.9","1","NA","","3","","","NA","110.5","4.5"
"-124.403","51.675","TATLAYOKO LAKE RCS","1088015","BC","13.9","1","NA","33.3","1","-1.8","0","","","NA","16.0","1","NA","","5","","","NA","121.7","3.5"
"-125.959","54.383","BURNS LAKE DECKER LAKE","1091174","BC","13.1","1","NA","30.7","1","-0.7","0","","","NA","20.6","2","NA","","5","","","NA","142.5","0.0"
"-120.700","53.600","CRESCENT SPUR","1092120","BC","15.3","0","NA","32.0","0","2.0","0","0.0","0","NA","98.9","0","NA","0.0","12","","","NA","88.7","7.9"
"-124.286","54.455","FORT ST JAMES","1092970","BC","15.1","13","1.7","25.5","13","4.5","13","0.0","9","NA","22.2","9","NA","","4","","","NA","49.3","0.0"
"-124.286","54.455","FORT ST JAMES AUTO","1092975","BC","15.0","1","NA","28.4","1","4.0","0","","","NA","21.9","9","NA","","5","","","NA","90.7","2.6"
"-122.699","53.531","HIXON","1093474","BC","16.7","5","2.2","33.0","4","3.5","5","0.0","1","NA","77.6","1","NA","0.0","8","","","NA","43.2","11.2"
"-121.364","52.363","HORSEFLY LAKE GRUHS LAKE","1093600","BC","14.6","21","1.1","30.5","21","2.0","21","0.0","21","NA","14.3","21","NA","","1","","","NA","32.8","2.3"
"-122.374","52.380","MCLEESE LAKE FRASERVIEW","1095015","BC","17.8","0","2.2","35.0","0","3.5","0","0.0","0","NA","32.2","0","60.0","0.0","6","","","NA","42.9","35.5"
"-122.286","52.531","MCLEESE LAKE GRANITE MT","1095018","BC","14.3","18","NA","30.0","13","2.0","12","0.0","13","NA","41.6","13","NA","0.0","5","","","NA","45.3","0.3"
"-122.678","53.884","PRINCE GEORGE","1096439","BC","14.9","0","NA","29.5","0","0.0","0","","","NA","51.5","0","NA","","6","","","NA","96.4","2.6"
"-122.672","53.889","PRINCE GEORGE AIRPORT AUTO","1096453","BC","15.0","1","NA","29.4","1","-0.1","0","","","NA","50.4","1","NA","","6","","","NA","90.3","2.7"
"-122.768","53.880","PRINCE GEORGE STP","1096468","BC","16.3","2","1.8","31.0","2","5.0","2","0.0","2","NA","42.9","2","NA","0.0","6","","","NA","57.3","10.8"
"-122.510","53.026","QUESNEL","1096629","BC","16.2","5","NA","32.4","5","2.2","3","","","NA","31.4","5","NA","","6","","","NA","58.6","14.3"
"-122.506","53.027","QUESNEL AIRPORT AUTO","1096631","BC","16.3","0","NA","33.0","0","1.9","0","","","NA","44.6","0","NA","","8","","","NA","65.9","14.8"
"-121.686","52.184","SPOKIN LAKE 4E","1097646","BC","12.5","0","1.1","31.5","0","-2.5","0","0.0","0","0.0","46.6","0","63.0","0.0","8","","","NA","168.8","2.5"
"-122.054","52.183","WILLIAMS LAKE A","1098941","BC","15.4","0","NA","31.6","0","1.9","0","0.0","0","NA","44.5","1","NA","","8","","","NA","90.5","12.7"
"-124.017","54.033","VANDERHOOF","1098D90","BC","16.3","2","1.9","30.0","2","4.5","2","0.0","2","NA","49.0","2","NA","0.0","7","","","NA","61.3","12.3"
"-121.263","51.623","108 MILE HOUSE ABEL LAKE","109E7R6","BC","15.8","0","NA","32.5","0","0.5","0","0.0","0","NA","79.6","0","NA","0.0","8","","","NA","81.0","16.4"
"-122.360","49.025","ABBOTSFORD A","1100031","BC","18.8","0","NA","32.3","0","7.3","0","0.0","0","NA","12.1","0","NA","","2","","","NA","21.5","44.1"
"-121.760","49.243","AGASSIZ RCS","1100119","BC","19.4","2","2.9","33.7","2","7.4","0","","","NA","10.9","3","NA","","2","","","NA","15.8","53.6"
"-121.760","49.243","AGASSIZ CDA","1100120","BC","19.7","0","3.5","34.0","0","7.5","0","0.0","0","NA","12.8","0","14.0","0.0","5","","","NA","10.3","61.9"
"-122.955","50.129","WHISTLER - NESTERS","1100875","BC","17.6","3","NA","35.6","3","4.3","0","","","NA","12.9","10","NA","","6","","","NA","41.1","30.4"
"-122.936","50.102","BLACKCOMB BASE SLIDING CENTER","1100881","BC","16.5","2","NA","32.5","2","4.8","1","","","NA","15.0","2","NA","","6","","","NA","68.9","26.2"
"-122.918","49.278","BURNABY SIMON FRASER U","1101158","BC","18.2","0","3.8","29.5","0","9.5","0","0.0","0","NA","13.5","0","13.0","0.0","4","","","NA","39.7","44.2"
"-123.111","50.144","CALLAGHAN VALLEY","1101300","BC","15.9","2","NA","33.3","2","3.7","1","","","NA","2.1","29","NA","","1","","","NA","79.7","20.2"
"-122.698","49.109","CLOVERDALE EAST","1101708","BC","19.5","2","NA","32.0","2","10.0","2","0.0","2","NA","4.4","2","NA","0.0","1","","","NA","11.5","53.5"
"-122.866","49.269","COQUITLAM COMO LAKE AVE","1101889","BC","","","NA","","","","","0.0","0","0.0","10.7","0","12.0","0.0","5","","","NA","",""
"-121.704","49.080","CHILLIWACK R HATCHERY","1101N65","BC","18.6","0","3.9","33.0","0","6.5","0","0.0","0","0.0","9.3","0","10.0","0.0","4","","","NA","25.7","43.2"
"-123.002","49.126","DELTA BURNS BOG","1102415","BC","17.8","0","NA","31.3","0","5.2","0","","","NA","7.5","0","NA","","2","","","NA","34.4","29.5"
"-123.093","49.011","DELTA TSAWWASSEN BEACH","1102425","BC","18.3","1","2.3","31.0","1","10.0","1","0.0","1","NA","7.4","1","NA","0.0","2","","","NA","18.3","25.9"
"-122.551","49.145","FORT LANGLEY TELEGRAPH TRAIL","1102912","BC","18.5","3","NA","32.5","3","7.5","3","0.0","3","NA","8.2","3","NA","","2","","","NA","23.1","36.8"
"-122.573","49.264","HANEY UBC RF ADMIN","1103332","BC","18.8","1","3.7","33.0","0","8.0","1","0.0","0","NA","16.2","0","16.0","0.0","3","","","NA","25.3","47.8"
"-121.579","49.356","LAIDLAW","1104488","BC","20.4","0","4.1","35.5","0","9.0","0","0.0","0","NA","10.0","0","9.0","0.0","3","","","NA","10.2","81.2"
"-122.271","49.153","MISSION WEST ABBEY","1105192","BC","19.2","1","3.9","32.0","1","8.5","1","0.0","1","NA","11.2","1","NA","0.0","3","","","NA","22.5","58.1"
"-123.078","49.182","RICHMOND OPERATIONS CENTRE","1105210","BC","","","NA","","","","","","","NA","9.7","0","NA","","2","","","NA","",""
"-123.078","49.381","N VANC GROUSE MTN RESORT","1105658","BC","18.6","19","8.6","29.0","19","7.0","19","0.0","19","NA","13.8","19","NA","0.0","2","","","NA","17.2","24.3"
"-123.115","49.315","N VANCOUVER WHARVES","1105669","BC","","","NA","","","","","0.0","5","NA","6.4","5","NA","0.0","2","","","NA","",""
"-122.690","49.208","PITT MEADOWS CS","1106178","BC","19.2","1","NA","33.9","1","8.6","0","","","NA","6.0","1","NA","","2","","","NA","13.1","49.3"
"-123.265","49.330","POINT ATKINSON","1106200","BC","18.2","1","NA","26.6","1","8.3","0","","","NA","14.3","1","NA","","3","","","NA","27.2","33.2"
"-123.087","49.179","RICHMOND DALLYN 2","1106764","BC","","","NA","","","","","0.0","0","NA","11.8","0","NA","0.0","2","","","NA","",""
"-123.093","49.171","RICHMOND NATURE PARK","1106PF7","BC","18.7","2","2.6","33.0","2","7.0","2","0.0","2","NA","5.8","2","NA","0.0","2","","","NA","18.1","37.4"
"-123.303","49.106","SANDHEADS CS","1107010","BC","18.0","1","NA","27.6","1","12.2","0","","","NA","","","NA","","","","","NA","25.5","24.5"
"-122.110","49.113","SUMAS CANAL","1107785","BC","17.3","17","NA","33.0","12","3.5","11","0.0","12","NA","8.3","12","NA","0.0","2","","","NA","22.8","13.9"
"-123.187","49.183","VANCOUVER SEA ISLAND CCG","1108380","BC","17.9","1","NA","29.2","1","9.3","0","","","NA","9.2","1","NA","","2","","","NA","28.1","25.3"
"-123.184","49.195","VANCOUVER INTL A","1108395","BC","17.9","1","NA","28.3","1","8.9","0","0.0","1","NA","11.0","1","NA","0.0","2","","","NA","27.6","24.5"
"-123.122","49.295","VANCOUVER HARBOUR CS","1108446","BC","19.0","0","NA","30.6","0","11.3","0","","","NA","7.4","0","NA","","2","","","NA","11.1","41.6"
"-123.193","49.347","WEST VANCOUVER AUT","1108824","BC","19.1","1","NA","31.3","1","10.2","0","","","NA","8.0","1","NA","","2","","","NA","21.1","51.9"
"-122.947","50.068","WHISTLER ROUNDHOUSE","1108906","BC","10.8","11","NA","25.0","11","-1.0","11","0.0","11","NA","4.0","11","NA","0.0","2","","","NA","141.2","4.0"
"-122.784","49.018","WHITE ROCK CAMPBELL SCIENTIFIC","1108910","BC","17.9","1","NA","29.2","1","9.3","0","","","NA","9.6","2","NA","","3","","","NA","27.2","24.2"
"-122.967","49.438","N VAN SEYMOUR HATCHERY","110N666","BC","17.8","4","3.4","32.5","4","7.0","4","0.0","4","NA","30.8","4","NA","0.0","5","","","NA","32.5","27.1"
"-121.498","49.368","HOPE A","1113542","BC","19.7","1","NA","33.8","1","7.3","0","","","NA","5.1","1","NA","","2","","","NA","12.9","61.7"
"-121.493","49.370","HOPE AIRPORT","1113543","BC","19.7","0","NA","33.9","0","7.2","0","","","NA","4.6","0","NA","","2","","","NA","15.2","65.1"
"-121.233","49.267","HOPE SLIDE","1113581","BC","16.5","0","4.0","34.0","0","3.5","0","0.0","0","0.0","16.0","0","25.0","0.0","5","","","NA","69.3","22.9"
"-121.934","50.684","LILLOOET","1114619","BC","22.5","1","NA","39.8","1","7.5","0","","","NA","","","NA","","","","","NA","5.6","136.5"
"-121.582","50.224","LYTTON A","1114738","BC","22.3","0","NA","39.9","0","7.4","0","","","NA","12.9","0","NA","","3","","","NA","10.5","140.5"
"-121.582","50.224","LYTTON RCS","1114746","BC","22.4","0","NA","40.2","0","7.1","0","","","NA","10.7","0","NA","","2","","","NA","10.7","143.7"
"-120.069","49.364","HEDLEY N","1123370","BC","21.2","2","NA","42.0","2","4.0","2","0.0","2","NA","42.2","2","NA","0.0","6","","","NA","15.6","105.6"
"-120.333","49.673","JELLICOE","1123721","BC","16.6","0","NA","37.5","0","0.0","0","0.0","0","NA","51.8","0","NA","0.0","8","","","NA","71.5","30.5"
"-119.378","49.957","KELOWNA","1123939","BC","19.4","4","NA","38.7","4","3.1","4","","","NA","30.4","4","NA","","4","","","NA","26.1","61.8"
"-119.400","49.941","KELOWNA UBCO","1123996","BC","20.8","1","NA","39.5","1","6.6","0","","","NA","29.1","2","NA","","5","","","NA","18.9","98.8"
"-119.400","49.950","KELOWNA MWS0","11239R0","BC","20.6","0","NA","39.4","0","6.2","0","0.0","0","NA","38.0","0","NA","0.0","6","","","NA","20.5","98.0"
"-120.778","50.113","MERRITT","1125073","BC","18.5","1","NA","39.2","1","4.0","0","","","NA","29.0","2","NA","","6","","","NA","35.9","51.3"
"-120.801","50.114","MERRITT STP","1125079","BC","19.3","0","3.5","38.0","0","5.5","0","0.0","0","NA","30.2","0","83.0","0.0","6","","","NA","30.4","70.8"
"-119.445","50.056","OKANAGAN CENTRE","1125700","BC","21.1","0","3.3","36.5","0","8.0","0","0.0","0","NA","36.0","0","83.0","0.0","4","","","NA","14.7","106.6"
"-119.545","49.179","OLIVER STP","1125766","BC","23.6","10","4.7","38.0","10","11.0","10","0.0","10","NA","13.2","10","NA","0.0","3","","","NA","2.5","113.6"
"-119.441","49.028","OSOYOOS CS","1125852","BC","22.8","0","3.6","40.9","0","7.2","0","","","NA","33.9","0","NA","","4","","","NA","4.9","148.1"
"-119.717","49.783","PEACHLAND","1126070","BC","21.8","1","3.8","35.5","1","9.5","1","0.0","1","NA","33.4","1","NA","0.0","7","","","NA","10.0","120.6"
"-119.602","49.463","PENTICTON A","1126146","BC","20.7","0","NA","36.7","0","3.7","0","0.0","0","NA","40.8","1","NA","","6","","","NA","13.7","94.5"
"-120.513","49.468","PRINCETON A","1126510","BC","17.9","0","3.1","38.5","0","1.5","0","0.0","0","NA","24.4","0","65.0","0.0","6","","","NA","48.7","46.1"
"-119.310","50.264","VERNON BELLA VISTA","1128553","BC","19.9","7","2.4","39.5","6","8.0","6","0.0","0","NA","34.7","0","73.0","0.0","7","","","NA","16.6","59.2"
"-119.194","50.223","VERNON AUTO","1128582","BC","20.1","1","NA","39.3","1","6.1","0","","","NA","52.7","1","NA","","5","","","NA","22.5","84.8"
"-119.270","50.344","VERNON NORTH","1128583","BC","20.8","0","3.4","39.0","0","7.5","0","0.0","0","NA","72.8","0","147.0","0.0","7","","","NA","21.5","105.6"
"-119.056","50.359","VERNON SILVER STAR LODGE","1128584","BC","14.9","22","NA","29.5","22","2.0","22","0.0","22","NA","19.3","22","NA","","3","","","NA","34.7","9.8"
"-119.415","50.037","WINFIELD","1128958","BC","20.7","7","3.4","35.5","7","8.0","7","0.0","7","NA","37.0","7","NA","0.0","5","","","NA","19.6","80.9"
"-120.510","49.465","PRINCETON CS","112FN0M","BC","18.2","0","NA","39.3","0","1.1","0","","","NA","15.7","0","NA","","5","","","NA","47.1","52.6"
"-119.649","49.563","SUMMERLAND CS","112G8L1","BC","20.9","1","3.4","36.5","1","6.0","0","","","NA","29.8","1","NA","","4","","","NA","13.4","98.8"
"-118.491","49.037","GRAND FORKS HARDY MTN","1133273","BC","","","NA","","","","","0.0","3","NA","24.8","3","NA","0.0","3","","","NA","",""
"-118.772","49.004","MIDWAY","1135126","BC","19.6","0","3.8","40.5","0","2.0","0","0.0","0","NA","57.2","0","98.0","0.0","4","","","NA","27.3","74.4"
"-118.228","49.017","BILLINGS","1140876","BC","20.7","2","4.0","40.7","2","6.5","2","0.0","2","NA","58.0","2","NA","0.0","3","","","NA","14.8","91.6"
"-117.633","49.296","CASTLEGAR A","1141455","BC","20.3","0","3.5","39.7","0","4.1","0","0.0","0","NA","80.2","0","111.0","0.0","6","","","NA","15.5","84.7"
"-117.774","49.343","CASTLEGAR BCHPA DAM","1141457","BC","20.8","2","4.0","36.0","1","8.0","1","0.0","1","NA","61.4","1","NA","0.0","5","","","NA","11.8","90.0"
"-116.518","49.097","CRESTON","1142160","BC","20.3","0","3.9","36.5","0","7.0","0","0.0","0","NA","38.6","0","54.0","0.0","6","","","NA","16.4","84.5"
"-116.972","50.239","DUNCAN LAKE DAM","1142574","BC","17.7","0","2.6","36.0","0","3.0","0","0.0","0","NA","41.3","0","58.0","0.0","10","","","NA","47.5","37.0"
"-118.068","49.872","FAUQUIER","1142820","BC","18.4","0","2.6","35.0","0","5.0","0","0.0","0","NA","69.4","0","77.0","0.0","11","","","NA","33.6","45.9"
"-116.921","49.913","KASLO","1143900","BC","20.3","0","4.8","37.5","0","2.5","0","0.0","0","NA","68.6","0","89.0","0.0","11","","","NA","18.1","85.8"
"-116.458","49.032","LISTER","1144635","BC","19.9","0","3.9","40.0","0","4.5","0","0.0","0","NA","16.0","0","24.0","0.0","4","","","NA","21.9","80.1"
"-117.817","50.269","NAKUSP CS","1145297","BC","19.8","0","NA","37.3","0","5.8","0","","","NA","51.3","0","NA","","7","","","NA","22.2","76.6"
"-117.206","49.586","NELSON NE","1145442","BC","19.6","5","NA","37.0","5","5.0","5","0.0","5","NA","53.6","5","NA","0.0","5","","","NA","19.1","57.9"
"-117.370","49.996","NEW DENVER","1145460","BC","19.2","0","3.2","38.5","0","5.0","0","0.0","0","NA","46.6","0","55.0","0.0","7","","","NA","27.0","63.5"
"-117.305","49.491","NELSON CS","1145M29","BC","20.6","3","NA","37.8","3","7.1","2","","","NA","67.7","4","NA","","4","","","NA","9.6","79.5"
"-117.739","49.112","WARFIELD RCS","1148705","BC","21.1","2","NA","41.1","2","4.3","0","","","NA","59.8","2","NA","","8","","","NA","13.0","98.4"
"-116.501","49.082","CRESTON CAMPBELL SCIENTIFIC","114B1F0","BC","20.8","1","NA","38.1","1","6.6","0","","","NA","27.1","1","NA","","3","","","NA","14.4","94.8"
"-117.399","49.512","NELSON RIXEN CREEK","114EMDM","BC","19.0","1","NA","39.0","1","3.5","1","0.0","1","NA","68.8","1","NA","0.0","6","","","NA","33.9","63.8"
"-115.221","49.226","BAYNES LAKE KOOTENAY RIVER","1150690","BC","18.4","1","3.4","38.0","1","1.5","1","0.0","1","NA","24.1","1","NA","0.0","4","","","NA","39.3","52.2"
"-115.782","49.612","CRANBROOK A","1152105","BC","18.2","1","NA","36.8","1","2.4","0","0.0","1","NA","45.5","1","NA","","7","","","NA","48.1","55.2"
"-115.789","49.618","CRANBROOK AIRPORT AUTO","1152106","BC","18.2","0","NA","37.4","0","2.1","0","","","NA","38.3","0","NA","","6","","","NA","51.6","58.2"
"-115.073","49.489","FERNIE","1152850","BC","16.4","12","2.8","31.5","12","4.0","12","0.0","12","NA","53.8","12","NA","","7","","","NA","39.8","10.9"
"-114.855","50.149","FORDING RIVER COMINCO","1152899","BC","10.9","22","1.2","31.9","16","-1.4","15","0.0","15","NA","67.1","15","NA","0.0","9","","","NA","57.2","0.0"
"-115.461","49.524","FT STEELE DANDY CRK","1153034","BC","17.4","12","NA","37.0","9","2.5","9","0.0","9","NA","66.8","9","NA","0.0","7","","","NA","34.5","23.4"
"-115.962","49.632","KIMBERLEY PCC","1154203","BC","18.5","10","4.0","36.5","10","5.5","10","0.0","10","NA","48.9","10","NA","0.0","9","","","NA","27.0","36.9"
"-116.061","50.631","KOOTENAY NP WEST GATE","1154410","BC","18.4","4","2.9","38.0","4","4.0","4","0.0","4","NA","51.2","4","NA","","10","","","NA","36.9","46.7"
"-114.883","49.745","SPARWOOD","1157630","BC","15.9","0","3.2","35.0","0","3.0","0","0.0","0","0.0","42.8","0","62.0","0.0","7","","","NA","85.5","21.6"
"-114.884","49.745","SPARWOOD CS","1157631","BC","15.8","1","NA","34.9","1","2.9","0","","","NA","36.6","6","NA","","6","","","NA","84.0","20.3"
"-115.460","49.473","WARDNER KTNY HATCHERY","1158692","BC","18.9","19","3.6","37.5","17","0.0","18","0.0","16","NA","12.9","16","NA","0.0","4","","","NA","19.2","29.6"
"-115.631","49.807","WASA","1158730","BC","17.9","0","3.0","36.0","0","2.0","0","0.0","0","NA","43.6","0","59.0","0.0","11","","","NA","53.1","50.8"
"-121.281","50.708","ASHCROFT","1160515","BC","22.7","1","NA","40.6","1","8.8","0","","","NA","24.2","1","NA","","5","","","NA","6.8","141.8"
"-119.290","52.129","BLUE RIVER A","1160899","BC","16.6","2","2.5","36.0","2","2.0","2","0.0","2","NA","96.4","2","NA","0.0","9","","","NA","63.6","23.1"
"-119.290","52.129","BLUE RIVER CS","1160H99","BC","16.5","1","NA","35.9","1","2.5","0","","","NA","81.6","4","NA","","8","","","NA","63.7","21.2"
"-121.083","51.709","BUFFALO LAKE","1161104","BC","13.6","2","1.5","31.0","2","0.0","2","0.0","2","NA","59.6","2","NA","0.0","10","","","NA","129.2","4.6"
"-120.082","51.653","CLEARWATER AUTO","1161650","BC","18.7","0","NA","38.3","0","4.1","0","","","NA","45.3","0","NA","","5","","","NA","32.8","53.0"
"-121.685","51.266","CLINTON A","1161662","BC","13.2","3","NA","31.1","3","-1.6","1","","","NA","35.6","3","NA","","7","","","NA","133.0","4.4"
"-121.505","51.144","CLINTON RCS","1161663","BC","15.5","0","NA","32.8","0","-0.3","0","","","NA","29.8","0","NA","","5","","","NA","93.0","18.7"
"-120.728","51.030","CRISS CREEK","1162177","BC","13.4","0","2.4","32.0","0","-0.5","0","0.0","0","0.0","68.8","0","100.0","0.0","10","","","NA","142.1","5.3"
"-120.183","51.297","DARFIELD","1162265","BC","19.3","2","2.8","37.5","1","5.5","1","0.0","1","NA","78.0","1","NA","0.0","9","","","NA","26.1","63.1"
"-120.449","50.703","KAMLOOPS A","1163781","BC","21.0","0","NA","39.1","0","8.0","0","0.0","0","NA","82.5","0","NA","","8","","","NA","14.4","105.4"
"-120.442","50.702","KAMLOOPS AUT","1163842","BC","21.1","0","NA","38.6","0","8.4","0","","","NA","71.2","3","NA","","6","","","NA","14.3","107.8"
"-121.217","51.681","100 MILE HOUSE 6NE","1165793","BC","14.9","0","NA","33.5","0","2.0","0","0.0","0","NA","97.0","0","NA","0.0","10","","","NA","103.0","8.8"
"-120.800","50.935","RED LAKE","1166658","BC","16.0","0","3.5","35.0","0","2.5","0","0.0","0","0.0","65.7","0","94.0","0.0","9","","","NA","77.9","17.8"
"-119.234","50.686","SALMON ARM A","1166R45","BC","20.2","2","4.0","38.0","2","6.0","2","0.0","2","NA","56.2","2","NA","","5","","","NA","23.7","85.5"
"-119.350","50.545","SILVER CREEK","1167337","BC","19.5","0","3.3","38.0","0","4.0","0","0.0","0","NA","47.2","0","92.0","0.0","8","","","NA","25.8","69.6"
"-119.778","51.576","VAVENBY","1168520","BC","17.9","3","2.2","33.0","2","4.0","2","0.0","2","NA","61.2","2","NA","0.0","8","","","NA","29.4","27.6"
"-120.200","50.600","KAMLOOPS PRATT ROAD","116C8P0","BC","18.3","5","NA","35.0","5","6.0","5","0.0","5","NA","70.6","5","NA","0.0","8","","","NA","41.6","50.2"
"-119.291","50.703","SALMON ARM CS","116FRMN","BC","19.6","0","2.0","37.3","0","5.8","0","","","NA","85.5","0","NA","","6","","","NA","18.6","66.7"
"-119.472","52.719","CARIBOO LODGE","1171393","BC","13.9","0","1.9","35.0","0","1.0","0","0.0","0","0.0","49.8","0","70.0","0.0","13","","","NA","131.4","9.0"
"-116.982","51.299","GOLDEN A","1173210","BC","17.2","0","2.3","36.0","0","4.5","0","0.0","0","0.0","47.0","0","95.0","0.0","11","","","NA","55.3","30.2"
"-118.425","51.630","GOLDSTREAM RIVER","1173242","BC","17.7","0","3.0","36.0","0","4.0","0","0.0","0","NA","63.0","0","83.0","0.0","11","","","NA","44.5","34.5"
"-118.585","52.053","MICA DAM","1175122","BC","16.9","9","2.1","34.0","7","3.0","7","0.0","4","NA","54.5","4","NA","0.0","10","","","NA","40.5","17.5"
"-118.183","50.967","REVELSTOKE A","1176745","BC","19.1","1","NA","39.9","1","5.8","0","","","NA","33.5","1","NA","","7","","","NA","23.4","55.8"
"-118.176","50.958","REVELSTOKE AIRPORT AUTO","1176755","BC","19.5","1","NA","40.1","1","6.0","0","","","NA","31.9","1","NA","","8","","","NA","21.7","64.5"
"-116.345","51.443","YOHO PARK","11790J1","BC","12.4","1","NA","31.3","1","-0.7","0","","","NA","69.1","1","NA","","12","","","NA","164.2","2.8"
"-116.541","51.433","YOHO NP EMERALD LAKE","117R00G","BC","13.8","7","NA","34.0","7","1.0","7","0.0","7","NA","70.2","7","NA","0.0","12","","","NA","102.5","6.5"
"-116.337","51.356","YOHO NP OHARA LAKE","117R00H","BC","10.4","7","NA","27.0","7","0.0","7","3.0","7","NA","59.5","7","NA","0.0","8","","","NA","174.4","0.5"
"-121.017","56.298","CHARLIE LAKE","11814FR","BC","13.7","2","NA","30.0","1","0.5","2","0.0","1","NA","53.6","1","NA","0.0","8","","","NA","123.8","3.4"
"-121.627","55.687","CHETWYND A","1181508","BC","15.1","0","1.7","30.2","0","4.1","0","0.0","0","NA","88.7","0","117.0","0.0","9","","","NA","93.4","6.3"
"-120.183","55.742","DAWSON CREEK A","1182289","BC","15.4","4","NA","30.2","4","3.3","3","","","NA","69.0","4","NA","","6","","","NA","78.1","9.7"
"-120.740","56.238","FORT ST. JOHN A","1183001","BC","14.9","0","NA","30.5","0","2.8","0","0.0","0","NA","43.3","2","NA","","7","","","NA","105.7","12.4"
"-123.133","55.299","MACKENZIE","1184791","BC","15.4","2","NA","31.0","2","3.5","1","","","NA","27.6","2","NA","","8","","","NA","77.1","5.4"
"-123.138","55.305","MACKENZIE AIRPORT AUTO","1184793","BC","15.4","1","NA","31.5","1","3.6","0","","","NA","57.0","1","NA","","9","","","NA","80.8","6.2"
"-122.718","57.250","SIKANNI CHIEF","1187335","BC","12.8","7","NA","29.4","7","-0.4","7","0.6","7","NA","148.4","7","NA","0.0","13","","","NA","121.2","1.5"
"-130.031","58.422","DEASE LAKE A","1192341","BC","12.5","1","NA","25.1","1","-0.5","0","","","NA","57.9","1","NA","","11","","","NA","158.3","0.0"
"-122.597","58.836","FORT NELSON A","1192946","BC","16.0","0","NA","32.6","0","1.5","0","0.0","0","NA","48.7","1","NA","","7","","","NA","77.7","17.1"
"-122.573","58.841","FORT NELSON UA","1192950","BC","16.6","0","NA","33.5","0","1.5","0","0.0","0","NA","41.8","0","NA","0.0","7","","","NA","69.2","28.5"
"-130.025","58.426","DEASE LAKE (AUT)","119BLM0","BC","12.2","1","NA","25.5","1","-0.8","0","","","NA","56.9","1","NA","","9","","","NA","167.1","0.0"
"-133.700","59.567","ATLIN","1200560","BC","13.0","0","1.8","24.0","0","4.0","0","0.0","0","0.0","21.0","0","71.0","0.0","6","","","NA","149.0","0.0"
"-136.367","59.450","PLEASANT CAMP","1206197","BC","12.9","0","0.6","29.0","0","0.0","0","0.0","0","NA","59.5","0","159.0","0.0","11","","","NA","154.2","2.3"
"-139.040","61.371","BURWASH A","2100181","YT","12.2","1","NA","23.8","1","-2.6","1","","","NA","13.1","1","NA","","4","","","NA","167.5","0.0"
"-139.017","61.367","BURWASH AIRPORT AUTO","2100184","YT","12.1","1","NA","23.6","1","-3.0","0","","","NA","10.2","1","NA","","4","","","NA","172.3","0.0"
"-136.192","62.115","CARMACKS CS","2100301","YT","13.9","1","NA","28.7","1","-0.8","0","","","NA","9.7","1","NA","","2","","","NA","119.8","0.7"
"-133.376","62.208","FARO (AUT)","2100518","YT","13.3","1","NA","25.4","1","2.8","0","","","NA","38.8","1","NA","","13","","","NA","136.3","0.0"
"-137.580","60.773","HAINES JUNCTION","2100630","YT","12.6","0","NA","25.4","0","-3.5","0","","","NA","24.3","1","NA","","6","","","NA","161.9","0.0"
"-140.150","69.164","IVVAVIK NAT. PARK","2100660","YT","11.3","1","NA","27.0","1","-4.2","0","","","NA","13.9","4","NA","","5","","","NA","201.6","7.2"
"-140.197","69.612","KOMAKUK BEACH","2100682","YT","7.7","2","NA","25.7","1","-4.2","1","","","NA","","","NA","","","","","NA","288.1","0.0"
"-130.037","63.244","MACMILLAN PASS","2100693","YT","8.6","1","NA","21.7","1","-3.2","0","","","NA","48.2","4","NA","","12","","","NA","273.2","0.0"
"-140.848","68.801","MARGARET LAKE","2100697","YT","10.2","1","NA","26.6","1","-5.7","0","","","NA","","","NA","","","","","NA","225.4","0.0"
"-135.868","63.616","MAYO A","2100701","YT","14.1","0","NA","27.3","0","3.1","0","0.0","0","NA","28.8","0","NA","","8","","","NA","121.9","4.7"
"-135.183","60.876","MAYO ROAD","2100709","YT","13.0","0","0.2","27.5","0","-1.5","0","0.0","0","NA","44.0","0","113.0","0.0","11","","","NA","149.6","0.0"
"-139.839","67.571","OLD CROW RCS","2100805","YT","12.9","1","NA","27.4","1","-3.5","1","","","NA","31.6","2","NA","","3","","","NA","155.5","6.5"
"-137.050","61.033","OTTER FALLS NCPC","2100840","YT","12.0","3","1.1","24.0","3","0.0","3","0.0","3","NA","50.7","3","NA","","10","","","NA","161.1","0.0"
"-137.311","62.830","PELLY RANCH","2100880","YT","14.7","0","0.8","29.0","0","0.5","0","0.0","0","0.0","32.5","0","84.0","","9","","","NA","103.0","3.1"
"-136.218","66.981","ROCK RIVER","2100935","YT","10.1","5","NA","23.2","5","-5.6","4","","","NA","45.8","9","NA","","8","","","NA","196.6","0.0"
"-137.217","68.950","SHINGLE POINT A","2100950","YT","10.0","2","NA","23.4","1","-4.3","1","","","NA","","","NA","","","","","NA","223.2","0.0"
"-129.132","61.182","HOUR LAKE","2100FCG","YT","11.6","0","NA","25.0","0","0.0","0","0.0","0","NA","40.4","0","NA","","12","","","NA","193.0","0.0"
"-139.127","64.061","DAWSON","2100LRP","YT","13.7","1","NA","28.2","1","-0.1","0","","","NA","44.2","1","NA","","9","","","NA","124.8","0.4"
"-135.573","60.946","TAKHINI RIVER RANCH","2101095","YT","12.3","5","0.5","27.0","5","-2.0","5","0.0","5","NA","11.6","5","NA","","5","","","NA","141.5","0.0"
"-132.733","60.167","TESLIN (AUT)","2101102","YT","12.5","1","NA","24.6","1","0.0","0","","","NA","25.3","1","NA","","4","","","NA","159.4","0.0"
"-128.832","60.116","WATSON LAKE (AUT)","2101204","YT","14.2","1","NA","25.8","1","3.4","0","","","NA","26.3","1","NA","","9","","","NA","111.8","1.7"
"-135.067","60.709","WHITEHORSE A","2101303","YT","13.8","0","NA","25.0","0","2.4","0","","","NA","","","NA","","","","","NA","127.2","0.2"
"-135.098","60.733","WHITEHORSE AUTO","2101310","YT","12.3","11","NA","24.2","7","1.9","11","","","NA","16.0","1","NA","","7","","","NA","108.3","0.0"
"-124.717","70.167","CAPE PARRY A","2200675","NT","2.1","2","NA","12.7","1","-5.8","1","","","NA","","","NA","","","","","NA","444.1","0.0"
"-126.123","67.021","COLVILLE LAKE","2200824","NT","11.8","1","NA","29.5","1","-2.2","0","","","NA","25.6","6","NA","","3","","","NA","186.4","7.3"
"-123.433","65.209","DELINE CS","2201022","NT","12.4","0","NA","26.8","0","0.1","0","","","NA","","","NA","","","","","NA","167.2","0.0"
"-124.468","61.257","DEADMEN VALLEY","22010H0","NT","15.1","1","NA","29.6","1","1.1","0","","","NA","24.4","12","NA","","5","","","NA","95.6","12.3"
"-128.644","66.242","FORT GOOD HOPE CS","2201450","NT","15.7","0","NA","31.0","0","1.1","0","","","NA","","","NA","","","","","NA","95.2","27.1"
"-123.467","60.233","FORT LIARD","2201579","NT","16.1","0","NA","30.9","0","-0.2","0","","","NA","","","NA","","","","","NA","75.5","17.4"
"-117.602","61.317","FORT PROVIDENCE","2201799","NT","18.0","16","NA","29.6","16","1.6","16","","","NA","","","NA","","","","","NA","22.3","22.3"
"-109.168","62.711","FORT RELIANCE (AUT)","2201903","NT","11.7","1","NA","25.6","1","-0.2","0","","","NA","38.8","3","NA","","7","","","NA","183.1","0.3"
"-121.237","61.760","FORT SIMPSON CLIMATE","2202102","NT","16.0","0","NA","30.3","0","1.7","0","","","NA","11.7","0","NA","","3","","","NA","87.1","28.2"
"-121.237","61.760","FORT SIMPSON A","2202103","NT","16.1","0","NA","30.0","0","1.9","0","0.0","1","NA","13.2","2","NA","","5","","","NA","87.3","30.1"
"-111.962","60.020","FORT SMITH A","2202201","NT","15.8","0","NA","29.8","0","-1.2","0","0.0","2","NA","18.9","0","NA","","5","","","NA","88.2","22.0"
"-111.929","60.026","FORT SMITH CLIMATE","2202202","NT","15.6","0","NA","30.3","0","-0.9","0","","","NA","17.4","0","NA","","4","","","NA","92.0","19.1"
"-105.133","63.600","HANBURY RIVER","2202351","NT","8.9","1","NA","25.2","1","-3.5","0","","","NA","20.2","4","NA","","4","","","NA","263.4","0.0"
"-115.783","60.840","HAY RIVER A","2202401","NT","14.3","0","NA","29.4","0","-1.5","0","0.0","0","NA","25.2","0","NA","","8","","","NA","126.0","14.9"
"-115.777","60.839","HAY RIVER CLIMATE","2202402","NT","14.9","1","NA","29.4","1","-0.5","0","","","NA","22.4","1","NA","","6","","","NA","109.4","18.4"
"-133.517","68.317","INUVIK CLIMATE","2202578","NT","11.7","0","NA","27.4","0","-4.5","0","","","NA","45.9","0","NA","","7","","","NA","200.8","13.2"
"-117.245","63.134","LAC LA MARTRE","2202678","NT","14.5","0","NA","29.5","0","-5.1","0","","","NA","","","NA","","","","","NA","118.0","13.5"
"-126.799","65.281","NORMAN WELLS A","2202801","NT","14.2","0","NA","29.9","0","0.9","0","0.0","0","NA","38.4","0","NA","","10","","","NA","122.9","8.3"
"-126.753","65.288","NORMAN WELLS CLIMATE","2202810","NT","13.6","0","NA","30.9","0","-0.1","0","","","NA","39.3","1","NA","","12","","","NA","140.5","7.1"
"-124.083","69.358","PAULATUK","2203058","NT","6.0","0","NA","26.8","0","-3.2","0","","","NA","16.8","2","NA","","4","","","NA","361.0","0.0"
"-127.209","61.963","RABBIT KETTLE","2203342","NT","14.3","2","NA","27.5","2","2.0","1","","","NA","","","NA","","","","","NA","105.7","1.2"
"-133.017","69.433","TUKTOYAKTUK","2203914","NT","7.6","0","NA","24.3","0","-4.9","0","","","NA","","","NA","","","","","NA","313.4","1.1"
"-114.440","62.463","YELLOWKNIFE A","2204101","NT","14.6","0","NA","27.9","0","-1.4","0","0.0","0","NA","17.0","0","NA","","6","","","NA","114.3","11.4"
"-114.383","62.450","YELLOWKNIFE-HENDERSON","2204110","NT","14.5","0","NA","28.0","0","-2.5","0","0.0","0","NA","7.2","0","NA","0.0","2","","","NA","114.9","8.8"
"-130.911","69.604","LIVERPOOL BAY","220B68C","NT","6.8","3","NA","23.6","2","-5.2","1","","","NA","","","NA","","","","","NA","301.2","0.0"
"-130.228","67.179","LITTLE CHICAGO","220B6Q3","NT","13.6","1","NA","30.1","1","-1.3","0","","","NA","","","NA","","","","","NA","138.8","11.9"
"-110.690","62.416","LUTSELK'E CS","220L002","NT","12.3","0","NA","25.5","0","-0.8","0","","","NA","","","NA","","","","","NA","171.4","1.5"
"-110.615","64.699","EKATI A","220N001","NT","10.2","2","NA","26.5","2","-5.0","2","4.4","2","NA","17.3","2","NA","0.0","7","","","NA","220.8","2.8"
"-122.851","61.125","LINDBURG LANDING","220N003","NT","15.8","1","NA","30.0","1","1.8","0","","","NA","31.3","2","NA","","8","","","NA","85.6","20.6"
"-133.502","68.746","TRAIL VALLEY","220N005","NT","9.8","1","NA","26.9","1","-6.6","0","","","NA","49.6","3","NA","","6","","","NA","242.9","5.1"
"-94.072","61.094","ARVIAT A","2300427","NU","5.2","0","NA","19.9","0","-0.9","0","","","NA","36.9","0","NA","","8","","","NA","384.6","0.0"
"-96.000","64.317","BAKER LAKE CLIMATE","2300501","NU","4.4","0","NA","17.1","0","-2.5","0","","","NA","","","NA","","","","","NA","407.6","0.0"
"-96.078","64.299","BAKER LAKE A","2300503","NU","4.7","0","NA","19.0","0","-3.7","0","12.4","0","NA","25.8","0","NA","","7","","","NA","399.0","0.0"
"-108.015","66.838","BATHURST INLET","2300551","NU","7.6","1","NA","24.4","1","-3.2","0","","","NA","30.6","6","NA","","8","","","NA","302.2","0.0"
"-115.144","67.817","KUGLUKTUK A","2300903","NU","6.5","0","NA","22.9","0","-2.2","0","0.0","0","NA","30.8","0","NA","","12","","","NA","346.2","0.0"
"-115.135","67.817","KUGLUKTUK CLIMATE","2300904","NU","6.6","0","NA","23.1","0","-2.1","0","","","NA","26.3","0","NA","","12","","","NA","343.3","0.0"
"-83.359","64.193","CORAL HARBOUR A","2301002","NU","1.7","0","NA","13.5","0","-7.1","0","0.6","1","NA","9.0","1","NA","","3","","","NA","490.5","0.0"
"-83.617","64.333","CORAL HARBOUR RCS","2301010","NU","1.9","1","NA","9.4","1","-5.9","0","","","NA","20.8","6","NA","","6","","","NA","467.9","0.0"
"-100.884","61.132","ENNADAI LAKE (AUT)","2301102","NU","9.7","1","NA","26.8","1","-1.1","0","","","NA","9.6","5","NA","","3","","","NA","241.0","0.9"
"-94.067","61.100","ARVIAT CLIMATE","2301153","NU","5.2","0","NA","19.8","0","-0.9","0","","","NA","35.7","1","NA","","8","","","NA","382.6","0.0"
"-95.850","68.636","GJOA HAVEN A","2302337","NU","2.8","2","NA","14.1","2","-3.0","1","","","NA","5.5","2","NA","","2","","","NA","426.3","0.0"
"-100.087","68.318","HAT ISLAND","2302370","NU","1.6","2","NA","9.9","1","-4.6","1","","","NA","","","NA","","","","","NA","458.2","0.0"
"-89.726","68.437","CAM FOUR","2303093","NU","1.2","9","NA","10.1","8","-6.7","8","","","NA","","","NA","","","","","NA","352.4","0.0"
"-89.796","68.538","KUGAARUK CLIMATE","2303094","NU","3.1","0","NA","13.2","0","-5.9","0","","","NA","25.5","0","NA","","6","","","NA","447.9","0.0"
"-92.115","62.811","RANKIN INLET A","2303405","NU","4.1","0","NA","17.2","0","-1.4","0","0.0","0","NA","33.2","1","NA","0.0","8","","","NA","416.4","0.0"
"-79.260","56.537","SANIKILUAQ","2303668","NU","4.4","2","NA","18.0","2","-2.4","0","","","NA","20.6","6","NA","","4","","","NA","379.7","0.0"
"-93.433","68.817","SHEPHERD BAY A","2303685","NU","2.3","2","NA","13.2","1","-4.1","1","","","NA","","","NA","","","","","NA","439.1","0.0"
"-119.219","69.276","CROKER RIVER","230J01Q","NU","5.7","2","NA","21.9","1","-3.0","1","","","NA","","","NA","","","","","NA","344.4","0.0"
"-111.246","65.755","LUPIN CS","230N002","NU","7.9","1","NA","25.1","1","-3.3","0","","","NA","","","NA","","","","","NA","294.3","0.0"
"-62.333","82.500","ALERT CLIMATE","2400305","NU","1.6","1","NA","14.7","0","-9.5","1","","","NA","5.0","1","NA","","2","","","NA","475.5","0.0"
"-62.333","82.500","ALERT UA","2400306","NU","","","NA","","","","","5.0","0","NA","7.0","0","NA","0.0","5","","","NA","",""
"-85.012","72.993","ARCTIC BAY CS","2400404","NU","1.8","6","NA","13.1","6","-6.5","3","","","NA","0.2","26","NA","","0","","","NA","389.0","0.0"
"-64.146","63.340","BREVOORT ISLAND","2400565","NU","-1.8","2","NA","4.6","1","-6.9","1","","","NA","","","NA","","","","","NA","553.2","0.0"
"-63.789","67.536","FOX FIVE","2400570","NU","-1.0","2","NA","7.4","1","-8.1","1","","","NA","","","NA","","","","","NA","532.5","0.0"
"-64.033","67.547","QIKIQTARJUAQ CLIMATE","2400573","NU","-1.0","0","NA","9.4","0","-10.6","0","","","NA","8.3","0","NA","","3","","","NA","568.8","0.0"
"-64.032","67.547","QIKIQTARJUAQ A","2400577","NU","-0.9","0","NA","9.6","0","-10.6","0","","","NA","7.6","1","NA","","4","","","NA","566.5","0.0"
"-105.137","69.108","CAMBRIDGE BAY A","2400601","NU","3.1","0","NA","14.0","0","-5.8","0","0.6","1","NA","25.4","0","NA","","7","","","NA","445.6","0.0"
"-105.138","69.108","CAMBRIDGE BAY GSN","2400602","NU","3.2","0","NA","14.3","0","-5.7","0","","","NA","31.2","0","NA","","7","","","NA","445.1","0.0"
"-76.530","64.231","CAPE DORSET CLIMATE","2400636","NU","1.3","2","NA","7.9","2","-3.6","1","","","NA","16.7","2","NA","","7","","","NA","466.9","0.0"
"-76.525","64.230","CAPE DORSET A","2400637","NU","1.4","0","NA","7.3","0","-3.6","0","","","NA","10.8","0","NA","","4","","","NA","496.9","0.0"
"-61.383","66.650","CAPE DYER","2400650","NU","-1.7","2","NA","11.2","1","-8.9","1","","","NA","","","NA","","","","","NA","552.0","0.0"
"-66.815","68.473","CAPE HOOPER","2400660","NU","-0.9","3","NA","7.6","2","-7.2","1","","","NA","","","NA","","","","","NA","511.3","0.0"
"-107.823","69.036","CAPE PEEL WEST","2400697","NU","3.1","2","NA","14.0","1","-8.5","1","","","NA","","","NA","","","","","NA","416.1","0.0"
"-68.517","70.483","CLYDE RIVER CLIMATE","2400802","NU","-1.5","2","NA","8.1","2","-7.8","1","","","NA","6.8","3","NA","","4","","","NA","545.1","0.0"
"-68.517","70.486","CLYDE RIVER A","2400804","NU","-1.3","1","NA","9.2","1","-7.7","0","","","NA","7.3","2","NA","","4","","","NA","558.6","0.0"
"-63.578","64.958","CAPE MERCY","2400F63","NU","-1.9","2","NA","9.8","1","-6.8","1","","","NA","","","NA","","","","","NA","556.0","0.0"
"-71.167","68.650","DEWAR LAKES","2401030","NU","0.7","2","NA","8.0","1","-7.8","1","","","NA","","","NA","","","","","NA","485.7","0.0"
"-85.933","79.983","EUREKA A","2401200","NU","4.3","0","1.3","15.4","0","-4.7","0","0.0","0","0.0","2.8","0","34.0","0.0","1","","","NA","411.2","0.0"
"-94.198","72.018","FORT ROSS","2402051","NU","1.3","2","NA","10.3","2","-7.9","0","","","NA","3.0","8","NA","","1","","","NA","466.3","0.0"
"-100.267","70.633","GATESHEAD ISLAND","2402332","NU","0.7","1","NA","7.5","1","-8.2","0","","","NA","6.7","7","NA","","3","","","NA","501.0","0.0"
"-82.902","76.423","GRISE FIORD CLIMATE","2402351","NU","1.1","0","NA","12.2","0","-5.7","0","","","NA","5.0","0","NA","","2","","","NA","506.2","0.0"
"-81.244","68.776","HALL BEACH CLIMATE","2402353","NU","0.2","1","NA","10.2","1","-9.5","1","","","NA","21.6","1","NA","","7","","","NA","515.4","0.0"
"-81.243","68.776","HALL BEACH A","2402354","NU","0.5","1","NA","10.4","1","-9.5","0","","","NA","23.5","1","NA","","8","","","NA","507.4","0.0"
"-68.550","63.750","IQALUIT AWOS","2402591","NU","2.1","7","NA","9.6","7","-1.7","6","","","NA","","","NA","","","","","NA","366.4","0.0"
"-68.544","63.747","IQALUIT CLIMATE","2402592","NU","2.2","0","NA","9.5","0","-1.6","0","","","NA","47.6","0","NA","","9","","","NA","475.4","0.0"
"-68.550","63.750","IQALUIT UA","2402594","NU","","","NA","","","","","0.0","1","NA","35.9","0","NA","0.0","7","","","NA","",""
"-103.554","78.792","ISACHSEN (AUT)","2402604","NU","1.8","1","NA","10.3","1","-6.3","0","","","NA","","","NA","","","","","NA","469.9","0.0"
"-65.711","66.143","PANGNIRTUNG","2403049","NU","1.4","6","NA","8.4","6","-3.7","6","","","NA","58.5","9","NA","","6","","","NA","398.1","0.0"
"-77.958","72.693","POND INLET CLIMATE","2403204","NU","3.1","1","NA","15.4","1","-4.5","0","","","NA","3.5","1","NA","","2","","","NA","433.0","0.0"
"-77.969","72.689","POND INLET A","2403206","NU","3.1","1","NA","15.2","1","-4.2","0","","","NA","4.4","1","NA","","2","","","NA","432.5","0.0"
"-105.715","75.377","REA POINT","2403450","NU","1.5","2","NA","7.8","2","-7.0","1","","","NA","","","NA","","","","","NA","462.9","0.0"
"-94.969","74.717","RESOLUTE BAY A","2403498","NU","2.0","0","NA","12.6","0","-6.8","0","11.8","2","NA","8.3","0","NA","","3","","","NA","478.9","0.0"
"-94.983","74.716","RESOLUTE CS","2403505","NU","2.0","1","NA","12.4","1","-6.7","0","","","NA","12.1","1","NA","","5","","","NA","464.7","0.0"
"-64.633","61.600","RESOLUTION ISLAND","2403602","NU","-0.9","2","NA","10.5","1","-6.1","1","","","NA","","","NA","","","","","NA","530.1","0.0"
"-79.033","69.083","ROWLEY ISLAND","2403625","NU","0.9","6","NA","10.7","5","-5.2","4","","","NA","","","NA","","","","","NA","411.6","0.0"
"-105.296","73.766","STEFANSSON ISLAND","2403756","NU","0.2","4","NA","10.1","4","-10.5","1","","","NA","12.2","11","NA","","2","","","NA","463.6","0.0"
"-91.816","81.161","SVARTEVAEG","2403833","NU","1.0","0","NA","10.4","0","-8.6","0","","","NA","1.8","8","NA","","0","","","NA","510.1","0.0"
"-93.577","69.547","TALOYOAK A","2403855","NU","3.2","0","NA","16.0","0","-5.5","0","4.4","0","NA","14.4","0","NA","","5","","","NA","444.9","0.0"
"-89.446","65.879","WAGER BAY (AUT)","2403945","NU","","","NA","","","","","","","NA","0.0","22","NA","","0","","","NA","",""
"-119.989","74.139","NANGMAGVIK LAKE","2500440","NT","4.2","6","NA","16.8","4","-5.9","3","","","NA","2.7","25","NA","","2","","","NA","332.3","0.0"
"-117.800","70.761","HOLMAN CS","2502505","NT","4.6","0","NA","16.7","0","-3.4","0","","","NA","16.1","0","NA","","5","","","NA","401.5","0.0"
"-125.254","71.993","SACHS HARBOUR CLIMATE","2503648","NT","3.1","0","NA","15.1","0","-6.4","0","","","NA","14.1","2","NA","","3","","","NA","447.1","0.0"
"-119.347","76.238","MOULD BAY CS","250M001","NT","1.6","2","NA","9.9","2","-6.1","0","","","NA","17.5","6","NA","","7","","","NA","460.2","0.0"
"-112.967","54.283","ABEE AGDM","3010010","AB","13.8","1","NA","30.1","1","-0.5","0","","","NA","41.3","7","NA","","12","","","NA","129.6","6.4"
"-111.181","53.113","ALBERT HALL AGCM","3010060","AB","15.7","0","NA","32.5","0","2.6","0","","","NA","31.5","0","NA","","7","","","NA","85.4","17.6"
"-111.779","52.315","ALLIANCE AGCM","3010162","AB","15.6","1","NA","32.6","0","2.8","1","","","NA","28.1","3","NA","","10","","","NA","89.1","18.6"
"-112.233","54.017","ANDREW","3010234","AB","17.0","4","1.9","34.0","4","-5.0","4","0.0","4","NA","27.4","4","NA","","5","","","NA","58.0","31.0"
"-112.279","53.917","ANDREW AGDM","3010237","AB","15.1","1","NA","29.8","1","1.8","0","","","NA","30.0","6","NA","","6","","","NA","95.5","10.2"
"-111.465","52.582","BELLSHILL AGCM","3010650","AB","16.2","1","NA","32.2","1","5.1","0","","","NA","30.3","8","NA","","8","","","NA","76.4","24.8"
"-110.101","52.124","BODO AGDM","3010730","AB","16.6","1","NA","34.5","1","3.3","0","","","NA","19.3","10","NA","","4","","","NA","72.4","31.8"
"-114.483","53.167","BRETON","3010815","AB","15.7","0","NA","32.0","0","1.5","0","0.0","0","NA","36.4","0","NA","0.0","11","","","NA","86.3","16.2"
"-114.441","53.089","BRETON PLOTS","3010816","AB","14.8","0","NA","31.3","0","2.3","0","","","NA","22.5","0","NA","","10","","","NA","106.5","11.8"
"-113.889","53.997","BUSBY","3010978","AB","15.8","9","NA","31.0","5","3.0","5","0.0","4","NA","35.4","4","NA","","9","","","NA","60.7","13.6"
"-113.922","53.931","BUSBY AGCM","3010979","AB","15.0","0","NA","31.3","0","2.6","0","","","NA","50.3","0","NA","","10","","","NA","98.6","9.1"
"-110.510","52.334","CADOGAN AGCM","3010992","AB","16.3","1","NA","33.6","0","1.9","1","","","NA","32.3","3","NA","","10","","","NA","75.4","27.4"
"-112.817","53.050","CAMROSE","3011240","AB","15.6","0","1.1","31.7","0","3.6","0","","","NA","37.6","5","NA","","6","","","NA","87.3","14.7"
"-112.800","52.950","CAMROSE 2","3011241","AB","16.0","10","NA","32.5","6","3.0","6","0.0","2","NA","41.8","2","NA","0.0","8","","","NA","54.7","15.4"
"-114.654","53.234","CARNWOOD","3011350","AB","14.8","0","NA","31.5","0","1.0","0","0.0","0","NA","48.5","0","NA","0.0","11","","","NA","106.3","11.4"
"-110.713","51.937","CONSORT AGDM","3011815","AB","15.9","7","NA","32.8","7","2.9","6","","","NA","21.0","13","NA","","6","","","NA","69.0","21.0"
"-111.449","52.074","CORONATION CLIMATE","3011887","AB","15.0","1","NA","32.3","1","1.5","0","","","NA","69.7","1","NA","","9","","","NA","100.9","14.1"
"-113.903","52.733","CRESTOMERE AGCM","3011892","AB","14.7","1","NA","30.7","0","1.5","1","","","NA","33.9","4","NA","","10","","","NA","107.1","11.0"
"-113.950","52.750","DAKOTA WEST","3011953","AB","15.1","2","1.3","31.0","2","3.5","2","0.0","2","NA","39.2","2","NA","0.0","9","","","NA","93.1","10.7"
"-113.176","52.183","DELBURNE AGCM","3012050","AB","15.5","1","NA","30.3","0","3.9","1","","","NA","35.8","4","NA","","8","","","NA","88.1","17.0"
"-110.588","53.659","DEWBERRY AGCM","3012073","AB","15.8","1","NA","32.1","1","0.6","0","","","NA","21.5","5","NA","","5","","","NA","81.3","17.7"
"-112.351","52.517","DONALDA SOUTH","3012095","AB","15.6","0","NA","34.0","0","2.0","0","0.0","0","NA","42.6","0","NA","0.0","16","","","NA","87.4","14.5"
"-110.433","52.778","EDGERTON AGCM","3012192","AB","16.2","1","NA","33.8","0","4.1","1","","","NA","19.3","5","NA","","6","","","NA","74.4","21.7"
"-113.606","53.307","EDMONTON INTERNATIONAL CS","3012206","AB","15.1","0","NA","31.2","0","0.8","0","","","NA","2.0","3","NA","","0","","","NA","97.5","11.1"
"-113.517","53.573","EDMONTON BLATCHFORD","3012209","AB","17.6","0","NA","32.2","0","5.0","0","","","NA","27.2","0","NA","","6","","","NA","50.1","37.0"
"-113.467","53.667","EDMONTON NAMAO AWOS A","3012212","AB","15.4","4","NA","30.7","4","3.2","4","","","NA","27.5","5","NA","","8","","","NA","76.1","9.5"
"-113.579","53.310","EDMONTON INTL A","3012216","AB","15.1","0","NA","31.3","0","1.3","0","0.0","0","NA","40.5","0","NA","","6","","","NA","97.0","11.2"
"-113.856","53.668","EDMONTON VILLENEUVE A","3012229","AB","15.7","1","NA","31.4","1","2.9","1","","","NA","34.1","1","NA","","8","","","NA","84.2","18.1"
"-114.108","53.548","EDMONTON STONY PLAIN","301222F","AB","16.4","0","1.7","31.0","0","5.0","0","0.0","0","NA","40.4","0","50.0","0.0","10","0.0","29","NA","74.2","25.0"
"-113.750","53.417","EDMONTON WOODBEND","3012230","AB","15.4","0","1.3","32.5","0","3.0","0","0.0","0","NA","36.2","0","43.0","0.0","9","","","NA","89.6","12.8"
"-112.868","53.683","ELK ISLAND NAT PARK","3012275","AB","15.5","0","0.9","30.9","0","3.0","0","","","NA","59.7","0","70.0","","11","","","NA","87.5","13.0"
"-111.000","52.967","FABYAN","3012515","AB","15.7","0","1.1","33.5","0","1.5","0","0.0","0","NA","31.0","0","45.0","0.0","8","","","NA","90.2","20.5"
"-112.858","52.744","FERINTOSH AGCM","3012590","AB","15.2","1","NA","30.6","1","3.6","0","","","NA","39.9","9","NA","","8","","","NA","91.5","11.0"
"-112.120","52.467","FORESTBURG PLANT SITE","3012652","AB","16.5","0","0.7","32.0","0","5.0","0","0.0","0","NA","45.5","0","60.0","0.0","15","","","NA","71.7","27.8"
"-112.123","52.548","FORESTBURG AGCM","3012653","AB","15.7","1","NA","32.1","0","2.9","1","","","NA","16.2","14","NA","","7","","","NA","83.8","17.8"
"-113.183","53.717","FORT SASKATCHEWAN","3012710","AB","14.3","16","-0.7","34.0","16","-2.0","16","0.0","16","NA","19.5","16","NA","0.0","5","","","NA","58.4","6.8"
"-110.621","53.071","GILT EDGE NORTH AGCM","3012790","AB","16.0","2","NA","32.5","0","3.4","2","","","NA","13.3","12","NA","","4","","","NA","74.6","18.5"
"-114.539","53.833","GLENEVIS AGCM","3012818","AB","15.6","1","NA","32.4","1","3.8","0","","","NA","","","NA","","","","","NA","87.4","16.4"
"-112.164","52.116","HALKIRK AGCM","3012999","AB","15.3","1","NA","32.7","1","2.3","0","","","NA","39.0","8","NA","","10","","","NA","93.0","16.1"
"-111.212","51.780","HEMARUKA AGCM","3013140","AB","15.7","1","NA","32.7","0","1.4","1","","","NA","32.7","9","NA","","7","","","NA","90.7","23.0"
"-112.246","53.185","HOLDEN AGDM","3013340","AB","15.2","1","NA","32.3","1","2.3","0","","","NA","","","NA","","","","","NA","93.1","12.5"
"-110.784","52.578","HUGHENDEN AGCM","3013362","AB","16.0","1","NA","33.1","0","3.7","1","","","NA","16.1","8","NA","","4","","","NA","80.6","23.0"
"-111.872","52.848","KILLAM AGDM","3013640","AB","15.7","1","NA","32.3","1","3.7","0","","","NA","36.7","10","NA","","10","","","NA","83.0","17.6"
"-111.113","52.290","KESSLER AGCM","3013644","AB","15.7","1","NA","32.7","0","2.7","1","","","NA","69.3","7","NA","","9","","","NA","86.5","18.5"
"-110.416","53.353","KITSCOTY AGCM","3013660","AB","16.2","1","NA","32.6","0","3.7","1","","","NA","34.7","4","NA","","8","","","NA","74.1","21.2"
"-113.474","54.003","LEGAL AGCM","3013790","AB","15.9","1","NA","31.7","0","4.0","1","","","NA","19.0","8","NA","","6","","","NA","79.9","19.0"
"-110.579","53.943","LINDBERGH AGDM","3013921","AB","14.3","2","NA","30.7","2","0.9","1","","","NA","34.7","6","NA","","7","","","NA","110.0","5.9"
"-110.073","53.309","LLOYDMINSTER","3013959","AB","15.9","0","NA","32.8","0","2.4","0","","","NA","55.6","0","NA","","8","","","NA","81.0","17.2"
"-110.073","53.309","LLOYDMINSTER A","3013961","AB","16.1","0","1.4","32.8","0","2.4","0","0.0","0","NA","47.9","0","68.0","0.0","10","","","NA","76.5","18.5"
"-112.267","53.083","HOLDEN SOUTH","3013C44","AB","","","NA","","","","","0.0","0","0.0","35.3","0","50.0","0.0","11","","","NA","",""
"-111.255","53.456","MANNVILLE AGCM","3014195","AB","15.7","0","NA","29.7","0","2.8","0","","","NA","89.9","0","NA","","6","","","NA","84.2","15.1"
"-110.550","52.017","MONITOR","3014600","AB","","","NA","","","","","0.0","0","NA","55.8","0","72.0","0.0","9","","","NA","",""
"-112.300","53.567","MUNDARE AGDM","3014665","AB","14.8","4","NA","27.4","4","3.1","1","","","NA","24.7","9","NA","","6","","","NA","87.0","4.8"
"-111.114","53.720","MYRNAM AGCM","3014690","AB","14.9","1","NA","32.0","0","-1.7","1","","","NA","26.8","7","NA","","6","","","NA","100.4","10.9"
"-113.165","53.262","NEW SAREPTA AGCM","3014795","AB","15.3","1","NA","32.0","1","3.0","0","","","NA","36.9","4","NA","","6","","","NA","91.2","13.9"
"-113.350","53.650","OLIVER AGDM","3014921","AB","15.3","1","NA","30.7","1","2.7","0","","","NA","","","NA","","","","","NA","89.4","10.7"
"-112.879","53.995","RADWAY AGCM","3015346","AB","15.4","0","NA","31.4","0","1.8","0","","","NA","","","NA","","","","","NA","91.9","15.0"
"-111.726","53.425","RANFURLY AUTO","3015401","AB","16.1","1","NA","30.3","1","3.4","0","","","NA","36.5","1","NA","","6","","","NA","72.9","16.7"
"-110.343","52.587","RIBSTONE SOUTH AGCM","3015480","AB","15.8","2","NA","33.5","1","1.8","1","","","NA","33.3","9","NA","","6","","","NA","82.7","22.3"
"-110.102","53.019","RIVERCOURSE AGCM","3015501","AB","16.2","1","NA","32.5","0","2.6","1","","","NA","36.8","6","NA","","7","","","NA","74.0","23.1"
"-114.912","52.421","ROCKY MTN HOUSE (AUT)","3015523","AB","14.3","2","NA","29.7","2","1.0","2","","","NA","54.5","3","NA","","11","","","NA","110.3","6.3"
"-112.428","52.780","ROSALIND AGCM","3015600","AB","15.6","0","NA","32.6","0","3.4","0","","","NA","41.2","1","NA","","11","","","NA","88.1","16.6"
"-111.453","54.282","ST. LINA AGCM","3015673","AB","15.2","1","NA","30.8","0","0.4","1","","","NA","38.3","6","NA","","5","","","NA","96.0","14.9"
"-111.272","54.011","ST. PAUL AGCM","3015676","AB","15.0","1","NA","30.1","1","1.9","0","","","NA","44.0","4","NA","","6","","","NA","96.1","9.1"
"-110.755","51.590","SEDALIA AGCM","3015797","AB","16.5","1","NA","34.8","0","3.0","1","","","NA","10.4","8","NA","","4","","","NA","79.5","34.9"
"-111.700","52.783","SEDGEWICK TOWN","3015808","AB","17.6","7","2.8","35.0","4","4.0","4","0.0","4","NA","8.5","4","NA","0.0","4","","","NA","48.0","39.0"
"-112.539","53.333","SHONTS AGCM","3015900","AB","15.4","1","NA","32.0","1","2.1","0","","","NA","33.4","5","NA","","5","","","NA","88.6","14.3"
"-112.499","54.278","SMOKY LAKE AGDM","3016022","AB","14.9","0","NA","31.1","0","1.6","0","","","NA","27.2","2","NA","","5","","","NA","106.3","13.2"
"-111.683","51.816","SPONDIN AGCM","3016070","AB","15.4","2","NA","32.9","1","2.1","1","","","NA","11.2","11","NA","","2","","","NA","92.6","18.4"
"-112.596","52.347","STETTLER AGDM","3016124","AB","15.6","1","NA","31.4","1","4.6","0","","","NA","44.9","2","NA","","9","","","NA","86.1","15.2"
"-113.895","53.217","THORSBY AGCM","3016441","AB","14.9","1","NA","30.7","1","2.6","0","","","NA","48.5","7","NA","","7","","","NA","100.9","10.9"
"-114.718","53.439","TOMAHAWK AGDM","3016505","AB","17.0","10","NA","31.4","9","4.1","9","","","NA","5.7","18","NA","","2","","","NA","37.7","17.4"
"-110.081","53.664","TULLIBY LAKE AGCM","3016593","AB","15.6","4","NA","33.0","0","3.7","4","","","NA","27.4","9","NA","","4","","","NA","78.2","15.4"
"-113.033","53.500","UNCAS","3016650","AB","","","NA","","","","","0.0","0","NA","58.5","0","NA","0.0","12","","","NA","",""
"-111.678","53.625","TWO HILLS AGDM","3016655","AB","16.0","1","NA","30.8","1","3.4","0","","","NA","8.2","11","NA","","3","","","NA","78.1","19.9"
"-110.882","53.344","VERMILION AGDM","3016802","AB","15.7","1","NA","31.9","1","1.2","0","","","NA","31.9","8","NA","","4","","","NA","81.1","14.0"
"-111.732","53.182","VIKING AGCM","3016841","AB","15.8","1","NA","31.7","1","2.9","0","","","NA","17.2","6","NA","","5","","","NA","82.5","18.9"
"-111.767","53.283","VIKING NORTH 3","3016845","AB","15.8","0","NA","33.0","0","2.0","0","0.0","0","NA","50.5","0","NA","0.0","9","","","NA","94.0","27.6"
"-111.921","54.130","VILNA AGCM","3016852","AB","15.1","2","NA","31.0","2","0.7","0","","","NA","37.7","9","NA","","6","","","NA","96.3","13.8"
"-115.126","53.144","VIOLET GROVE CS","3016860","AB","15.2","3","NA","29.1","3","1.7","2","","","NA","","","NA","","","","","NA","85.6","11.0"
"-112.098","53.505","VEGREVILLE","3016GF0","AB","16.3","0","1.9","32.2","0","2.2","0","","","NA","35.9","0","59.0","","9","","","NA","73.6","22.3"
"-113.444","52.980","WETASKIWIN AGCM","3017282","AB","15.0","1","NA","30.8","1","1.5","0","","","NA","33.4","14","NA","","5","","","NA","98.2","11.6"
"-114.108","53.547","EDMONTON STONY PLAIN CS","301A001","AB","16.0","0","NA","30.9","0","4.5","0","","","NA","38.5","0","NA","","10","","","NA","80.3","21.6"
"-110.206","51.670","ESTHER 1","301B460","AB","16.5","1","NA","34.9","1","4.2","0","","","NA","34.6","1","NA","","6","","","NA","70.4","28.2"
"-113.533","53.517","UNIVERSITY OF ALBERTA METABOLIC CENTRE","301FFNJ","AB","16.6","13","1.5","33.0","9","4.0","8","0.0","0","NA","27.4","0","37.0","0.0","6","","","NA","28.9","4.8"
"-111.096","52.829","WAINWRIGHT CFB AIRFIELD 21","301S001","AB","16.3","0","NA","33.3","0","3.6","0","","","NA","30.0","0","NA","","8","","","NA","74.6","25.0"
"-110.317","51.066","ACADIA VALLEY","3020035","AB","17.0","2","NA","36.3","1","4.2","2","","","NA","30.1","5","NA","","7","","","NA","61.2","33.9"
"-111.006","50.810","ATLEE AGCM","3020405","AB","17.3","1","NA","35.3","1","3.1","1","","","NA","26.4","6","NA","","6","","","NA","61.0","41.8"
"-113.357","51.379","BEISEKER AGCM","3020610","AB","14.9","0","NA","33.0","0","-0.7","0","","","NA","29.7","2","NA","","10","","","NA","106.7","13.9"
"-112.803","51.998","BIG VALLEY AGCM","3020679","AB","15.9","1","NA","32.0","1","2.2","0","","","NA","14.4","11","NA","","7","","","NA","86.9","25.3"
"-112.252","51.775","CRAIGMYLE AGCM","3021912","AB","15.3","2","NA","32.3","1","3.3","1","","","NA","38.5","8","NA","","6","","","NA","91.9","16.9"
"-112.283","51.767","CRAIGMYLE","3021940","AB","15.2","5","0.5","33.0","5","2.0","5","0.0","5","NA","37.2","5","NA","0.0","9","","","NA","85.6","14.8"
"-112.677","51.445","DRUMHELLER EAST","30221LG","AB","17.2","0","NA","34.9","0","1.9","0","","","NA","36.2","1","NA","","9","","","NA","63.5","39.4"
"-114.486","52.310","HESPERO AGCM","3023200","AB","13.9","2","NA","29.0","1","1.1","1","","","NA","116.9","8","NA","","8","","","NA","117.9","4.0"
"-112.500","51.183","HUSSAR AGDM","3023402","AB","15.4","1","NA","32.3","1","1.7","0","","","NA","34.7","6","NA","","10","","","NA","98.8","24.4"
"-113.756","52.449","LACOMBE CDA 2","3023722","AB","15.1","0","NA","30.4","0","1.9","0","","","NA","71.2","0","NA","","10","","","NA","99.3","11.5"
"-114.473","52.553","LEEDALE AGDM","3023740","AB","13.6","1","NA","28.8","0","0.7","1","","","NA","72.1","4","NA","","13","","","NA","130.2","2.2"
"-113.656","51.619","LINDEN AGCM","3023850","AB","14.6","1","NA","31.7","0","0.6","1","","","NA","46.9","6","NA","","11","","","NA","108.1","10.6"
"-112.675","51.660","MORRIN AGDM","3024668","AB","15.4","1","NA","32.8","1","0.7","0","","","NA","45.4","4","NA","","14","","","NA","95.9","19.5"
"-114.100","51.783","OLDS","3024920","AB","","","","11.0","29","7.8","29","0.0","29","NA","6.2","29","NA","","1","","","NA","",""
"-114.085","51.759","OLDS AGDM","3024925","AB","14.8","1","NA","29.1","1","4.1","0","","","NA","56.0","2","NA","","10","","","NA","105.3","12.2"
"-110.350","51.383","OYEN AGDM","3024965","AB","16.3","1","NA","34.7","1","4.6","0","","","NA","5.5","10","NA","","3","","","NA","76.4","27.8"
"-111.705","51.125","POLLOCKVILLE AGDM","3025243","AB","16.1","1","NA","35.0","1","0.1","0","","","NA","12.4","12","NA","","4","","","NA","81.6","27.5"
"-113.600","52.433","PRENTISS","3025297","AB","15.3","1","NA","28.8","1","4.6","0","","","NA","68.3","7","NA","","8","","","NA","95.6","15.9"
"-113.894","52.182","RED DEER REGIONAL A","3025481","AB","14.9","0","NA","29.4","0","1.8","0","0.0","0","NA","52.0","1","NA","","10","","","NA","101.1","8.9"
"-110.091","50.307","SCHULER AGDM","3025768","AB","17.1","1","NA","35.1","1","4.8","0","","","NA","67.8","4","NA","","10","","","NA","56.5","29.9"
"-110.146","51.425","SIBBALD WESTGARD","3025928","AB","17.1","4","NA","35.5","4","4.0","4","0.0","4","NA","36.6","4","NA","0.0","8","","","NA","54.4","29.7"
"-113.206","51.768","THREE HILLS","3026479","AB","14.6","1","NA","31.5","0","-2.2","1","","","NA","17.8","10","NA","","5","","","NA","108.6","11.0"
"-114.683","51.778","SUNDRE A","3026KNQ","AB","","","NA","","","1.1","7","","","NA","","","NA","","","","","NA","",""
"-113.591","51.936","WIMBORNE AGCM","3027582","AB","14.6","1","NA","30.6","0","-0.4","1","","","NA","22.1","10","NA","","7","","","NA","107.7","9.7"
"-114.013","50.512","AZURE","3030450","AB","14.6","1","NA","30.9","1","1.6","1","","","NA","44.3","6","NA","","8","","","NA","109.2","12.0"
"-112.300","49.800","BARNWELL AGDM","3030525","AB","17.1","1","NA","34.6","0","1.1","1","","","NA","14.1","10","NA","","4","","","NA","60.2","35.1"
"-113.224","50.026","BARONS AGCM","3030529","AB","16.1","1","NA","33.3","0","3.1","1","","","NA","20.0","12","NA","","6","","","NA","75.2","20.7"
"-112.465","50.893","BASSANO AGCM","3030540","AB","16.2","1","NA","33.8","0","0.5","1","","","NA","32.4","4","NA","","6","","","NA","80.4","27.3"
"-114.152","50.707","BLACK DIAMOND","3030680","AB","14.2","1","NA","31.0","1","0.9","1","","","NA","22.8","15","NA","","4","","","NA","118.3","7.2"
"-113.050","49.567","BLOOD TRIBE AGDM","3030720","AB","16.1","1","NA","32.5","0","1.9","1","","","NA","21.5","12","NA","","5","","","NA","78.0","23.9"
"-111.450","49.734","BOW ISLAND","3030768","AB","17.9","0","NA","34.5","0","3.3","0","","","NA","32.2","4","NA","","6","","","NA","44.8","41.6"
"-111.383","49.867","BOW ISLAND IRRIGATION AGDM","3030772","AB","18.2","0","NA","35.6","0","2.0","0","","","NA","17.3","1","NA","","7","","","NA","42.7","47.5"
"-113.817","49.617","BROCKET AGDM","3030830","AB","16.4","1","NA","32.3","1","3.3","0","","","NA","29.1","26","NA","","2","","","NA","73.1","26.5"
"-111.849","50.555","BROOKS","3030QLP","AB","17.2","0","NA","34.9","0","1.1","0","","","NA","20.8","0","NA","","7","","","NA","61.1","35.7"
"-114.013","51.123","CALGARY INTL A","3031092","AB","15.9","0","NA","31.9","0","4.2","0","0.0","0","NA","58.1","0","NA","","12","","","NA","88.6","24.8"
"-114.000","51.109","CALGARY INT'L CS","3031094","AB","15.7","0","NA","31.9","0","4.2","0","","","NA","50.7","1","NA","","10","","","NA","92.5","22.9"
"-113.286","49.201","CARDSTON","3031322","AB","16.2","0","NA","32.0","0","2.9","0","","","NA","34.6","0","NA","","6","","","NA","83.3","28.6"
"-113.376","49.001","CARWAY","3031402","AB","15.1","1","NA","30.1","1","1.2","0","","","NA","29.2","2","NA","","2","","","NA","105.5","21.6"
"-113.350","50.282","CHAMPION AGDM","3031480","AB","15.8","0","NA","33.7","0","1.9","0","","","NA","38.6","4","NA","","8","","","NA","87.7","20.3"
"-113.639","50.004","CLARESHOLM","3031640","AB","16.0","0","NA","32.0","0","1.7","0","","","NA","29.7","0","NA","","6","","","NA","80.9","20.8"
"-114.222","51.076","COP UPPER","3031875","AB","15.9","0","NA","30.8","0","2.6","0","","","NA","34.2","0","NA","","6","","","NA","91.4","28.6"
"-112.433","50.183","ENCHANT AGDM","3032422","AB","17.3","2","NA","34.9","1","3.4","1","","","NA","31.2","7","NA","","6","","","NA","52.9","34.1"
"-111.054","49.553","ETZIKOM AGCM","3032450","AB","17.2","1","NA","35.7","0","-0.8","1","","","NA","32.5","5","NA","","5","","","NA","58.8","34.6"
"-112.033","49.800","FINCASTLE AGDM","3032550","AB","18.0","0","NA","34.9","0","3.5","0","","","NA","32.7","7","NA","","8","","","NA","41.7","41.9"
"-111.486","49.483","FOREMOST AGDM","3032642","AB","17.4","1","NA","34.4","1","0.4","0","","","NA","3.2","17","NA","","2","","","NA","54.1","36.6"
"-113.379","49.786","FORT MACLEOD AGCM","3032683","AB","16.0","0","NA","32.6","0","1.3","0","","","NA","18.2","4","NA","","7","","","NA","79.4","20.4"
"-112.941","50.934","GLEICHEN AGCM","3032801","AB","15.7","2","NA","33.7","0","1.6","2","","","NA","12.7","10","NA","","4","","","NA","86.4","20.7"
"-111.733","49.874","GRASSY LAKE","3032927","AB","18.0","1","NA","35.7","1","2.5","0","","","NA","17.9","6","NA","","6","","","NA","43.4","44.2"
"-112.733","49.900","IRON SPRINGS AGDM","3033498","AB","17.0","2","NA","33.7","1","3.0","2","","","NA","9.1","21","NA","","3","","","NA","57.4","28.8"
"-110.261","49.989","IRVINE AGCM","3033550","AB","18.3","7","NA","36.5","7","5.1","5","","","NA","24.4","14","NA","","4","","","NA","30.7","37.2"
"-112.799","49.630","LETHBRIDGE","3033875","AB","16.9","7","NA","33.4","7","1.9","6","","","NA","13.4","7","NA","","5","","","NA","54.6","28.2"
"-112.768","49.695","LETHBRIDGE CDA","3033890","AB","17.7","0","NA","33.8","0","3.4","0","","","NA","16.7","0","NA","","4","","","NA","48.3","40.4"
"-112.783","49.700","LETHBRIDGE CDA 2","3033892","AB","","","NA","","","","","0.0","1","NA","14.9","1","NA","0.0","4","","","NA","",""
"-112.750","49.683","LETHBRIDGE DEMO FARM AGDM","3033897","AB","16.8","1","NA","32.1","0","2.7","1","","","NA","22.8","8","NA","","6","","","NA","61.6","25.5"
"-110.721","50.019","MEDICINE HAT","3034479","AB","18.6","1","NA","37.8","1","4.7","0","","","NA","26.5","1","NA","","7","","","NA","34.3","52.0"
"-110.717","50.025","MEDICINE HAT RCS","3034485","AB","18.4","0","NA","37.3","0","4.1","0","","","NA","26.1","0","NA","","6","","","NA","35.6","48.2"
"-113.349","50.673","MOSSLEIGH AGCM","3034577","AB","15.2","1","NA","32.8","0","2.1","1","","","NA","32.5","4","NA","","5","","","NA","96.8","14.8"
"-114.099","51.369","NIER AGDM","3034795","AB","14.1","1","NA","30.3","0","2.2","1","","","NA","50.6","12","NA","","7","","","NA","121.2","8.0"
"-113.997","49.521","PINCHER CREEK","3035198","AB","15.3","1","NA","30.6","1","1.9","0","","","NA","49.3","1","NA","","8","","","NA","94.8","17.3"
"-114.005","49.522","PINCHER CREEK CLIMATE","3035208","AB","15.0","1","NA","31.2","1","1.9","0","","","NA","48.7","1","NA","","8","","","NA","100.6","13.9"
"-112.983","50.606","QUEENSTOWN","3035340","AB","16.5","0","1.6","34.5","0","2.0","0","0.0","0","NA","60.2","0","78.0","0.0","11","","","NA","76.4","31.1"
"-112.803","50.598","QUEENSTOWN","3035342","AB","16.2","1","NA","34.3","0","1.6","1","","","NA","39.5","4","NA","","7","","","NA","82.9","30.2"
"-112.683","49.483","RAYMOND AGDM","3035422","AB","16.8","1","NA","32.8","1","1.8","0","","","NA","16.5","9","NA","","5","","","NA","67.2","31.9"
"-111.701","50.265","ROLLING HILLS AGCM","3035530","AB","17.0","1","NA","35.7","0","-0.4","1","","","NA","24.2","5","NA","","7","","","NA","63.2","35.5"
"-112.050","50.833","ROSEMARY AGDM","3035650","AB","16.3","2","NA","34.4","2","0.0","0","","","NA","25.6","9","NA","","6","","","NA","71.8","24.9"
"-110.917","49.917","SEVEN PERSONS AGDM","3035845","AB","18.0","0","NA","36.3","0","4.4","0","","","NA","31.8","9","NA","","7","","","NA","45.6","46.0"
"-112.982","51.228","STANDARD AGCM","3036086","AB","16.2","1","NA","33.2","0","2.5","1","","","NA","37.8","3","NA","","10","","","NA","84.2","33.4"
"-113.883","50.183","STAVELY AAFC","3036099","AB","14.9","0","NA","29.5","0","2.7","0","","","NA","37.8","0","NA","","9","","","NA","112.2","20.3"
"-113.283","51.033","STRATHMORE AGDM","3036205","AB","16.1","1","NA","32.2","0","3.0","1","","","NA","17.5","4","NA","","5","","","NA","83.2","28.7"
"-112.124","49.792","TABER","3036360","AB","17.6","14","NA","34.5","10","4.5","9","0.0","10","NA","27.8","10","NA","0.0","8","","","NA","22.7","16.6"
"-112.863","50.304","TRAVERS AGCM","3036500","AB","16.6","2","NA","32.8","1","3.0","2","","","NA","44.2","9","NA","","6","","","NA","67.9","28.7"
"-112.133","50.050","VAUXHALL CDA CS","3036682","AB","17.4","0","NA","34.6","0","2.4","0","","","NA","24.8","0","NA","","7","","","NA","54.7","37.6"
"-114.721","51.269","WILDCAT HILLS","3037550","AB","13.2","0","NA","29.5","0","-0.5","0","0.0","0","NA","75.8","0","NA","0.0","14","","","NA","145.5","1.9"
"-112.117","49.500","WRENTHAM AGDM","3037675","AB","16.9","2","NA","32.6","2","1.1","0","","","NA","13.9","11","NA","","4","","","NA","62.7","32.9"
"-113.961","50.729","OKOTOKS","303M9JM","AB","16.5","0","2.8","35.0","0","3.0","0","0.0","0","NA","58.8","0","48.0","0.0","9","","","NA","75.5","30.2"
"-112.788","49.871","PICTURE BUTTE WEST","303N1G3","AB","17.7","2","NA","34.5","1","3.0","1","0.0","1","NA","30.4","1","NA","0.0","8","","","NA","44.1","36.8"
"-112.817","49.050","DEL BONITA AGDM","3042045","AB","15.6","1","NA","31.3","1","2.2","0","","","NA","23.8","4","NA","","3","","","NA","93.0","23.9"
"-110.678","49.364","MANYBERRIES AGCM","3044203","AB","17.1","1","NA","35.6","0","-2.7","1","","","NA","8.0","6","NA","","3","","","NA","64.3","39.6"
"-111.652","49.137","MASINASIN AGDM","3044232","AB","18.0","2","NA","35.9","2","3.1","0","","","NA","7.1","9","NA","","2","","","NA","45.3","44.7"
"-112.050","49.133","MILK RIVER","3044533","AB","17.0","0","NA","33.8","0","1.6","0","","","NA","19.3","0","NA","","4","","","NA","64.3","33.7"
"-110.467","49.117","ONEFOUR CDA","3044923","AB","18.4","0","NA","36.7","0","1.8","0","","","NA","3.9","0","NA","","1","","","NA","42.8","53.9"
"-111.126","49.225","PAKOWKI LAKE AGCM","3045000","AB","17.3","2","NA","34.3","1","1.6","1","","","NA","16.3","8","NA","","3","","","NA","52.0","33.7"
"-115.552","51.193","BANFF CS","3050519","AB","13.5","0","NA","31.9","0","-0.3","0","","","NA","39.9","0","NA","","10","","","NA","140.9","6.6"
"-114.175","49.468","BEAVER MINES","3050602","AB","14.7","2","NA","29.8","1","2.3","1","","","NA","17.6","9","NA","","3","","","NA","105.3","12.0"
"-115.067","51.083","BOW VALLEY","3050778","AB","13.7","0","NA","31.8","0","-0.8","0","","","NA","42.1","0","NA","","8","","","NA","138.6","10.0"
"-114.482","49.628","CROWSNEST","3051R4R","AB","13.7","0","NA","31.6","0","-1.6","0","","","NA","65.8","13","NA","","4","","","NA","132.4","4.7"
"-118.030","52.926","JASPER WARDEN","3053536","AB","14.5","0","NA","34.5","0","-0.6","0","","","NA","35.9","0","NA","","9","","","NA","115.3","11.4"
"-115.035","51.028","KANANASKIS","3053600","AB","13.3","0","1.9","31.0","0","0.0","0","0.0","0","0.0","69.5","0","58.0","0.0","13","","","NA","148.7","7.8"
"-115.120","50.713","KANANASKIS POCATERRA","3053604","AB","13.4","25","4.0","28.0","19","0.0","19","0.0","19","NA","2.3","19","NA","","1","","","NA","23.5","0.5"
"-116.040","52.492","NORDEGG CS","3054843","AB","12.7","1","NA","29.3","1","-0.8","0","","","NA","76.5","1","NA","","13","","","NA","157.0","3.3"
"-114.416","50.368","PEKISKO","3055119","AB","12.8","1","NA","29.3","1","-0.1","0","","","NA","117.3","2","NA","","13","","","NA","151.1","1.7"
"-113.809","49.131","WATERTON PARK GATE","3056214","AB","15.4","0","NA","31.1","0","2.5","0","","","NA","30.7","22","NA","","2","","","NA","101.4","23.7"
"-115.190","50.943","NAKISKA RIDGETOP","305MGFF","AB","8.5","2","NA","22.2","1","-2.3","1","","","NA","","","NA","","","","","NA","265.7","0.2"
"-113.382","54.635","ATHABASCA AGCM","3060330","AB","15.3","0","NA","29.9","0","0.0","0","","","NA","45.2","0","NA","","8","","","NA","97.2","15.4"
"-112.825","54.782","ATMORE AGDM","3060406","AB","13.7","1","NA","30.6","1","-1.6","0","","","NA","46.4","3","NA","","6","","","NA","129.4","5.9"
"-114.448","54.095","BARRHEAD CS","3060535","AB","15.6","0","NA","31.9","0","3.0","0","","","NA","47.7","0","NA","","7","","","NA","86.4","13.8"
"-117.867","53.350","BRULE BLACK CAT","3060903","AB","14.8","5","2.8","32.0","4","0.5","1","0.0","1","NA","50.6","1","NA","0.0","9","","","NA","90.0","10.0"
"-114.678","54.131","CAMPSIE AUTO","3061201","AB","14.9","0","NA","31.6","0","2.0","0","","","NA","40.3","0","NA","","6","","","NA","103.5","11.2"
"-113.950","54.317","DAPP AGDM","3061975","AB","14.5","1","NA","30.9","1","-0.3","0","","","NA","21.9","3","NA","","7","","","NA","108.3","6.4"
"-116.465","53.579","EDSON","3062239","AB","14.1","1","NA","30.6","1","0.8","1","","","NA","33.3","1","NA","","9","","","NA","122.7","9.4"
"-116.453","53.580","EDSON CLIMATE","3062246","AB","14.7","0","NA","30.3","0","2.2","0","","","NA","28.2","0","NA","","8","","","NA","112.5","12.8"
"-114.983","53.600","ENTWISTLE","3062451","AB","16.4","5","2.1","32.0","5","4.0","5","0.0","5","NA","29.7","5","NA","0.0","9","","","NA","60.2","20.1"
"-115.124","53.573","EVANSBURG AGCM","3062475","AB","15.3","0","NA","30.9","0","2.9","0","","","NA","50.2","0","NA","","9","","","NA","97.8","15.5"
"-114.769","54.410","FORT ASSINIBOINE AGCM","3062660","AB","15.0","1","NA","32.0","1","1.9","0","","","NA","36.4","6","NA","","7","","","NA","97.8","11.6"
"-111.213","56.651","FORT MCMURRAY CS","3062696","AB","16.0","0","NA","32.3","0","-2.7","0","","","NA","18.6","0","NA","","6","","","NA","83.5","22.9"
"-111.223","56.653","FORT MCMURRAY A","3062697","AB","16.0","0","NA","31.8","0","-2.7","0","","","NA","20.5","0","NA","","6","","","NA","84.1","22.7"
"-118.447","53.795","HENDRICKSON CREEK","3063135","AB","10.3","2","NA","29.2","1","-2.4","1","","","NA","22.5","10","NA","","4","","","NA","215.9","0.0"
"-116.479","55.396","HIGH PRAIRIE AGDM","3063165","AB","14.8","1","NA","29.7","1","-0.1","0","","","NA","29.3","3","NA","","8","","","NA","107.1","13.2"
"-113.543","54.821","ISLAND LAKE SOUTH","3063600","AB","14.9","0","NA","30.3","0","2.1","0","","","NA","14.0","0","NA","","6","","","NA","104.6","11.6"
"-112.024","54.769","LAC LA BICHE CLIMATE","3063686","AB","15.7","0","NA","31.7","0","-0.1","0","","","NA","25.0","0","NA","","9","","","NA","91.2","20.7"
"-111.559","57.041","MILDRED LAKE","3064528","AB","17.5","0","NA","31.9","0","2.0","0","","","NA","26.7","1","NA","","8","","","NA","55.8","40.4"
"-111.700","54.500","RICH LAKE AGDM","3065475","AB","14.3","0","NA","30.6","0","0.2","0","","","NA","30.9","1","NA","","8","","","NA","119.3","9.4"
"-114.777","55.293","SLAVE LAKE","3065995","AB","15.2","1","NA","29.1","1","0.5","1","","","NA","26.2","2","NA","","4","","","NA","96.6","14.1"
"-114.777","55.293","SLAVE LAKE RCS","3065997","AB","14.8","1","NA","29.2","1","0.1","0","","","NA","23.3","2","NA","","4","","","NA","104.0","10.6"
"-113.520","54.300","TAWATINAW AGCM","3066367","AB","15.5","1","NA","30.7","1","3.2","0","","","NA","40.3","4","NA","","10","","","NA","86.5","13.2"
"-115.784","54.140","WHITECOURT","3067371","AB","15.6","0","NA","31.2","0","3.1","0","","","NA","","","NA","","","","","NA","89.0","17.9"
"-115.787","54.144","WHITECOURT A","3067373","AB","14.8","0","NA","29.9","0","2.8","0","","","NA","","","NA","","","","","NA","105.9","10.2"
"-118.348","53.386","WILLOW CREEK 1","306GE70","AB","11.4","1","NA","30.8","1","-3.0","0","","","NA","28.8","3","NA","","9","","","NA","191.2","0.3"
"-119.396","55.197","BEAVERLODGE RCS","3070600","AB","14.6","0","NA","27.9","0","3.8","0","","","NA","106.0","2","NA","","11","","","NA","108.9","6.7"
"-117.886","56.118","BROWNVALE AGCM","3070800","AB","15.2","1","NA","31.7","1","0.4","0","","","NA","21.2","6","NA","","5","","","NA","93.0","12.6"
"-117.887","55.808","EAGLESHAM AGCM","3072151","AB","16.0","1","NA","30.9","1","1.6","0","","","NA","31.2","6","NA","","6","","","NA","79.6","20.3"
"-110.439","58.981","EGG ISLAND","3072246","AB","14.0","2","NA","26.1","2","2.9","0","","","NA","","","NA","","","","","NA","118.7","8.0"
"-118.439","56.081","FAIRVIEW AGDM","3072525","AB","14.7","1","NA","31.0","1","1.7","0","","","NA","80.7","5","NA","","23","","","NA","102.1","6.6"
"-111.117","58.767","FORT CHIPEWYAN","3072655","AB","16.3","3","NA","30.3","3","-0.2","2","","","NA","31.2","3","NA","","5","","","NA","66.1","20.9"
"-111.117","58.767","FORT CHIPEWYAN RCS","3072659","AB","15.7","0","NA","30.2","0","-4.9","0","","","NA","30.9","0","NA","","4","","","NA","90.5","21.5"
"-116.040","58.382","FORT VERMILION","3072723","AB","16.6","11","NA","30.7","8","2.3","11","","","NA","44.8","0","NA","","5","","","NA","38.5","11.0"
"-118.885","55.180","GRANDE PRAIRIE A","3072921","AB","15.2","0","NA","28.7","0","4.6","0","0.0","0","NA","136.2","0","NA","","9","","","NA","92.4","9.1"
"-117.298","57.265","HAWK HILLS AGCM","3073071","AB","16.1","0","NA","32.7","0","-2.6","0","","","NA","29.6","1","NA","","7","","","NA","79.9","21.8"
"-117.165","58.622","HIGH LEVEL","3073140","AB","16.1","0","NA","31.5","0","-1.4","0","","","NA","22.2","0","NA","","6","","","NA","76.7","18.6"
"-117.165","58.621","HIGH LEVEL A","3073146","AB","16.0","0","1.7","31.4","0","-1.5","0","0.0","0","0.0","25.8","0","50.0","0.0","5","","","NA","77.8","18.9"
"-117.120","55.913","JEAN COTE AGCM","3073535","AB","15.4","1","NA","31.7","1","0.9","0","","","NA","24.2","8","NA","","4","","","NA","90.7","14.6"
"-116.343","58.172","LA CRETE AGCM","3073730","AB","17.3","0","NA","31.1","0","-1.4","0","","","NA","34.1","1","NA","","5","","","NA","55.7","35.6"
"-119.255","55.422","LA GLACE AGCM","3073740","AB","16.0","24","NA","27.6","18","1.7","10","","","NA","","","NA","","","","","NA","14.1","2.2"
"-117.451","56.974","MANNING AGDM","3074190","AB","15.5","1","NA","32.0","1","-1.6","0","","","NA","","","NA","","","","","NA","86.9","14.4"
"-119.745","56.314","CLEARDALE AGDM","3074935","AB","14.8","1","NA","31.3","1","0.0","0","","","NA","19.5","8","NA","","8","","","NA","103.4","10.0"
"-117.448","56.227","PEACE RIVER A","3075041","AB","15.5","0","NA","32.5","0","0.5","0","0.0","0","NA","65.3","0","NA","","8","","","NA","91.1","17.1"
"-118.293","55.621","PEORIA AGDM","3075160","AB","15.2","1","NA","29.1","1","3.1","0","","","NA","41.5","11","NA","","5","","","NA","91.7","9.8"
"-115.278","56.552","RED EARTH","3075488","AB","15.3","2","NA","33.3","2","2.4","0","","","NA","25.2","5","NA","","5","","","NA","89.9","15.6"
"-118.668","55.777","RYCROFT AGCM","3075601","AB","15.6","1","NA","30.0","1","2.1","0","","","NA","34.9","7","NA","","5","","","NA","87.6","16.6"
"-119.345","56.076","SAVANNA AGCM","3075770","AB","15.2","1","NA","30.0","1","1.9","0","","","NA","22.2","10","NA","","4","","","NA","94.3","11.9"
"-117.741","54.425","SIMONETTE","3075937","AB","14.5","11","1.9","29.5","7","1.0","7","0.0","7","NA","40.0","7","NA","","8","","","NA","69.2","3.5"
"-119.230","55.695","SPIRIT RIVER AUTO STATION","3076069","AB","14.0","1","NA","27.4","1","1.6","0","","","NA","50.8","5","NA","","8","","","NA","124.7","9.9"
"-118.408","55.352","TEEPEE CREEK AGCM","3076366","AB","15.0","1","NA","29.9","1","2.9","0","","","NA","44.0","7","NA","","5","","","NA","94.8","8.0"
"-117.199","55.098","VALLEYVIEW AGDM","3076680","AB","15.4","1","NA","30.2","1","3.8","1","","","NA","60.4","14","NA","","3","","","NA","90.0","13.6"
"-113.866","58.711","GARDEN RIVER","307KPFP","AB","16.2","0","NA","31.7","0","-3.5","0","","","NA","49.6","7","NA","","7","","","NA","78.2","25.3"
"-110.283","54.417","COLD LAKE A","3081680","AB","16.2","0","1.2","32.2","0","3.0","0","0.0","0","NA","62.6","0","86.0","0.0","9","","","NA","76.8","21.4"
"-110.868","54.367","DUPRE AGCM","3081690","AB","15.4","0","NA","32.0","0","2.5","0","","","NA","37.4","0","NA","","9","","","NA","89.5","12.2"
"-104.710","50.201","BRATT'S LAKE CLIMATE","4010811","SK","16.8","1","NA","32.8","1","3.4","0","","","NA","23.2","1","NA","","4","","","NA","55.2","21.7"
"-102.571","50.368","BROADVIEW","4010879","SK","16.5","0","1.1","29.2","0","1.8","0","","","NA","36.0","0","47.0","","6","","","NA","65.7","20.2"
"-105.383","50.550","BUFFALO POUND LAKE","4010984","SK","18.0","0","NA","33.0","0","5.5","0","0.0","0","NA","18.9","0","NA","0.0","5","","","NA","40.1","40.3"
"-104.267","50.850","CUPAR","4011980","SK","17.0","2","1.2","33.0","1","2.5","1","0.0","1","NA","12.4","1","NA","0.0","6","","","NA","53.6","24.9"
"-104.867","51.183","DUVAL","4012300","SK","17.5","4","1.3","31.0","4","4.0","4","0.0","4","NA","20.6","4","NA","0.0","6","","","NA","46.3","33.0"
"-102.966","49.210","ESTEVAN A","4012401","SK","17.4","0","NA","32.5","0","4.7","0","0.0","0","NA","53.8","0","NA","","9","","","NA","43.4","26.3"
"-102.967","49.217","ESTEVAN","4012410","SK","17.5","0","NA","31.9","0","5.1","0","","","NA","51.5","0","NA","","7","","","NA","42.7","26.7"
"-103.650","50.550","INDIAN HEAD CDA","4013480","SK","16.2","1","0.4","31.3","1","0.3","0","","","NA","38.3","1","NA","","4","","","NA","70.2","17.3"
"-103.753","51.257","KELLIHER","4013660","SK","16.9","0","1.7","30.5","0","5.0","0","0.0","0","0.0","11.0","0","14.0","0.0","4","","","NA","54.1","21.3"
"-102.733","50.200","KIPLING","4014040","SK","17.3","0","1.8","28.9","0","5.4","0","0.0","0","0.0","38.6","0","43.0","0.0","6","","","NA","48.6","26.2"
"-101.717","50.900","LANGENBURG","4014145","SK","17.2","0","1.5","31.0","0","2.0","0","0.0","0","NA","16.2","0","20.0","0.0","5","","","NA","50.1","26.0"
"-105.250","51.417","LAST MOUNTAIN CS","4014156","SK","16.1","1","0.5","31.8","1","0.6","0","","","NA","19.2","1","NA","","3","","","NA","71.2","16.8"
"-104.633","52.000","LEROY","4014322","SK","16.6","0","1.0","31.0","0","2.5","0","0.0","0","0.0","61.5","0","85.0","0.0","8","","","NA","63.7","21.2"
"-103.889","51.152","LIPTON 2","4014481","SK","17.3","19","2.0","29.5","19","5.5","19","0.0","19","NA","14.4","19","NA","","3","","","NA","15.0","6.8"
"-103.233","49.233","MACOUN","4014870","SK","","","NA","","","","","0.0","26","NA","20.4","26","NA","","3","","","NA","",""
"-105.538","50.332","MOOSE JAW CS","4015322","SK","17.1","1","NA","33.9","1","1.8","0","","","NA","0.7","29","NA","","0","","","NA","51.4","24.6"
"-105.000","52.333","MUENSTER","4015440","SK","15.6","7","0.3","30.0","7","2.0","7","0.0","7","NA","26.8","7","NA","0.0","6","","","NA","67.6","11.9"
"-102.117","49.317","OXBOW","4015800","SK","17.0","3","NA","29.5","3","3.0","3","0.0","3","NA","69.5","3","NA","0.0","10","","","NA","44.1","16.4"
"-103.265","51.403","PARKERVIEW","4015870","SK","16.0","11","1.1","29.5","11","3.0","11","","","NA","2.0","29","NA","","1","","","NA","51.0","13.4"
"-103.983","50.567","QU'APPELLE 1","4016322","SK","17.3","0","1.7","31.0","0","4.0","0","0.0","0","0.0","36.0","0","43.0","0.0","4","","","NA","52.0","31.9"
"-104.833","50.567","REGINA GILMOUR","4016651","SK","","","NA","","","","","0.0","0","NA","23.8","0","34.0","0.0","6","","","NA","",""
"-104.667","50.433","REGINA RCS","4016699","SK","16.9","1","NA","33.1","1","3.8","0","","","NA","19.9","1","NA","","5","","","NA","52.1","20.6"
"-105.400","51.667","WATROUS EAST","4018642","SK","16.7","1","NA","32.0","1","2.2","0","","","NA","25.7","1","NA","","3","","","NA","60.9","22.5"
"-104.183","49.817","YELLOW GRASS","4019040","SK","18.2","0","2.0","33.0","0","-4.0","0","0.0","0","0.0","57.2","0","71.0","0.0","8","","","NA","40.7","47.0"
"-102.464","51.265","YORKTON","4019073","SK","16.6","0","NA","30.0","0","1.3","0","","","NA","22.4","1","NA","","4","","","NA","58.4","15.9"
"-102.462","51.265","YORKTON","4019075","SK","16.7","1","NA","30.0","1","1.3","1","","","NA","28.2","1","NA","","5","","","NA","53.8","16.8"
"-102.233","51.200","TONKIN","4019082","SK","16.9","0","NA","31.5","0","2.0","0","0.0","0","NA","31.2","0","NA","0.0","9","","","NA","50.5","18.8"
"-104.200","51.767","WYNYARD (AUT)","40190LN","SK","16.3","0","NA","29.7","0","3.7","0","","","NA","19.7","0","NA","","5","","","NA","71.5","19.5"
"-103.800","49.700","WEYBURN","401HP5R","SK","17.5","0","NA","32.8","0","4.4","0","","","NA","31.0","0","NA","","5","","","NA","45.4","30.1"
"-106.848","51.289","CUTBANK","401JR89","SK","","","NA","","","","","0.0","17","NA","31.8","17","NA","0.0","7","","","NA","",""
"-105.946","49.729","ASSINIBOIA AIRPORT","4020286","SK","17.1","0","NA","32.8","0","5.3","0","","","NA","19.4","0","NA","","4","","","NA","53.9","27.1"
"-107.311","50.832","BEECHY","4020560","SK","17.6","0","1.5","35.0","0","2.0","0","0.0","0","0.0","23.1","0","31.0","0.0","6","","","NA","46.0","34.6"
"-106.583","51.133","ELBOW CS","4022359","SK","16.9","0","NA","33.1","0","3.3","0","","","NA","39.5","0","NA","","6","","","NA","57.9","25.5"
"-106.550","51.167","ELBOW 2 NE","4022363","SK","15.8","7","0.6","33.0","7","4.0","7","0.0","7","NA","33.7","7","NA","0.0","7","","","NA","60.5","9.5"
"-107.150","50.950","LUCKY LAKE","4024714","SK","17.3","0","NA","34.0","0","4.3","0","","","NA","29.3","0","NA","","6","","","NA","55.5","33.1"
"-109.466","49.903","MAPLE CREEK","4024919","SK","17.4","1","NA","35.7","1","3.7","0","","","NA","37.0","1","NA","","5","","","NA","52.5","34.3"
"-107.263","51.154","ROCK POINT","4026847","SK","17.8","0","2.1","33.5","0","6.0","0","0.0","0","0.0","28.4","0","36.0","0.0","9","","","NA","49.3","44.2"
"-107.800","50.600","STEWART VALLEY","4027775","SK","17.9","0","1.7","34.0","0","5.0","0","0.0","0","NA","33.0","0","41.0","0.0","4","","","NA","43.0","39.5"
"-107.691","50.292","SWIFT CURRENT","4028038","SK","16.9","1","NA","32.5","0","4.4","1","","","NA","15.3","1","NA","","4","","","NA","60.8","29.4"
"-107.733","50.267","SWIFT CURRENT CDA","4028060","SK","17.1","1","1.7","33.1","1","5.1","0","","","NA","16.1","1","NA","","3","","","NA","57.7","31.9"
"-109.501","50.909","LEADER AIRPORT","402DAF0","SK","17.3","1","NA","35.9","1","4.9","0","","","NA","26.5","1","NA","","4","","","NA","52.3","32.2"
"-109.100","49.133","CLAYDON","4031581","SK","17.5","2","2.1","35.5","2","1.5","2","0.0","2","NA","29.8","2","NA","0.0","6","","","NA","56.6","43.5"
"-105.517","49.117","CORONACH","4031844","SK","17.4","0","1.3","33.0","0","2.5","0","0.0","0","0.0","18.8","0","25.0","0.0","7","","","NA","47.4","28.8"
"-105.483","49.050","CORONACH SPC","40318MN","SK","16.8","0","0.8","34.0","0","0.7","0","","","NA","5.7","0","8.0","","2","","","NA","60.3","24.9"
"-109.514","49.641","CYPRESS HILLS PARK","4031999","SK","15.3","1","NA","31.5","1","3.2","0","","","NA","45.9","1","NA","","7","","","NA","100.1","21.3"
"-108.989","49.438","EASTEND CYPRESS (AUT)","4032322","SK","16.5","1","NA","32.4","1","4.3","0","","","NA","47.1","1","NA","","6","","","NA","70.3","26.4"
