"Long","Lat","Stn_Name","Clim_ID","Prov","Tm","DwTm","D","Tx","DwTx","Tn","DwTn","S","DwS","S%N","P","DwP","P%N","S_G","Pd","BS","DwBS","BS%","HDD","CDD"
"-123.742","48.935","CHEMAINUS","1011500","BC","16.4","0","NA","32.0","0","7.0","0","0.0","0","NA","40.0","0","NA","0.0","8","","","NA","70.7","23.6"
"-124.052","48.829","LAKE COWICHAN","1012055","BC","14.7","14","-0.3","34.5","10","4.0","9","","","NA","43.6","17","NA","","9","","","NA","64.6","11.3"
"-123.226","48.425","DISCOVERY ISLAND","1012475","BC","","","NA","25.6","2","","","","","NA","","","NA","","","","","NA","",""
"-123.439","48.432","ESQUIMALT HARBOUR","1012710","BC","14.4","0","NA","28.5","0","7.9","0","","","NA","14.2","0","NA","","4","","","NA","109.9","2.7"
"-123.573","48.985","GALIANO NORTH","10130MN","BC","16.1","5","NA","30.0","5","7.5","5","0.0","5","NA","28.8","5","NA","","5","","","NA","65.8","17.7"
"-123.530","48.575","MALAHAT","1014820","BC","15.0","2","NA","32.1","2","6.0","1","","","NA","28.2","2","NA","","6","","","NA","104.2","21.4"
"-123.561","48.374","METCHOSIN","1015105","BC","","","NA","","","","","0.0","8","NA","4.6","8","NA","","2","","","NA","",""
"-123.718","48.824","NORTH COWICHAN","1015628","BC","","","NA","","","","","0.0","0","NA","26.0","0","69.0","0.0","6","","","NA","",""
"-123.719","48.824","NORTH COWICHAN","1015630","BC","15.6","1","NA","34.6","1","4.2","1","","","NA","18.1","1","NA","","5","","","NA","85.6","16.7"
"-123.287","48.764","NORTH PENDER ISLAND","1015638","BC","14.9","12","NA","23.0","12","7.0","12","0.0","12","NA","12.0","12","NA","0.0","3","","","NA","56.4","0.0"
"-123.531","48.298","RACE ROCKS","1016640","BC","13.1","0","NA","26.8","0","8.9","0","","","NA","","","NA","","","","","NA","147.4","1.2"
"-123.419","48.622","SAANICHTON CDA","1016940","BC","14.9","2","0.0","29.0","1","6.0","1","0.0","1","NA","27.2","1","NA","0.0","6","","","NA","92.9","6.5"
"-123.546","48.888","SALTSPRING ST MARY'S L","1016995","BC","16.3","1","0.5","30.5","1","7.5","1","0.0","1","NA","33.7","1","NA","0.0","8","","","NA","65.2","16.1"
"-123.427","48.598","SAANICHTON MT NEWTON","1016RM0","BC","","","NA","","","","","0.0","27","NA","9.0","27","NA","","2","","","NA","",""
"-123.128","48.775","SATURNA CAPMON CS","1017099","BC","14.6","3","NA","29.1","3","6.5","2","","","NA","17.9","2","NA","","5","","","NA","103.0","11.6"
"-123.045","48.784","SATURNA ISLAND CS","1017101","BC","15.4","2","NA","28.8","2","9.2","1","","","NA","22.2","2","NA","","6","","","NA","79.4","7.4"
"-123.626","48.647","SHAWNIGAN LAKE","1017230","BC","15.4","0","0.3","32.5","0","6.0","0","0.0","0","NA","25.8","0","64.0","0.0","6","","","NA","91.9","14.4"
"-123.305","48.457","VICTORIA UNIVERSITY CS","1018598","BC","15.2","2","NA","30.8","2","5.1","2","","","NA","20.4","2","NA","","4","","","NA","86.1","6.5"
"-123.325","48.413","VICTORIA GONZALES CS","1018611","BC","14.5","2","NA","25.4","2","8.2","2","","","NA","18.6","3","NA","","5","","","NA","99.2","1.6"
"-123.426","48.647","VICTORIA INTL A","1018621","BC","15.1","3","NA","31.0","2","5.6","1","0.0","0","NA","23.6","1","NA","","6","","","NA","84.5","5.8"
"-124.160","49.350","BALLENAS ISLAND","1020590","BC","15.7","5","NA","26.5","5","9.5","5","","","NA","17.2","5","NA","","7","","","NA","69.9","13.0"
"-125.273","49.952","CAMPBELL RIVER A","1021261","BC","14.4","0","-0.3","34.5","0","1.5","0","0.0","0","NA","65.0","0","103.0","0.0","12","","","NA","124.2","16.1"
"-125.195","49.998","CAPE MUDGE","1021330","BC","15.4","0","0.5","32.0","0","7.5","0","0.0","0","NA","58.9","0","96.0","0.0","13","","","NA","94.2","16.6"
"-124.683","49.472","CHROME ISLAND","1021500","BC","15.8","0","NA","29.5","0","7.5","0","0.0","0","NA","55.0","0","NA","0.0","10","","","NA","78.0","11.3"
"-124.900","49.717","COMOX A","1021830","BC","16.5","7","1.0","33.8","7","6.4","7","0.0","7","NA","44.0","7","NA","","9","","","NA","58.4","22.8"
"-124.949","50.071","CORTES ISLAND TIBER BAY","1021960","BC","15.6","0","NA","31.5","0","5.0","0","0.0","0","NA","137.4","0","NA","0.0","13","","","NA","88.6","15.1"
"-124.999","49.763","COURTENAY GRANTHAM","1021988","BC","14.8","27","NA","24.0","27","5.0","27","0.0","27","NA","5.8","27","NA","","1","","","NA","10.5","1.0"
"-125.033","49.686","COURTENAY PUNTLEDGE","1021989","BC","15.7","11","NA","33.0","5","3.5","6","0.0","5","NA","121.4","5","NA","0.0","11","","","NA","56.6","12.9"
"-123.811","49.209","ENTRANCE ISLAND","1022689","BC","15.7","1","NA","26.3","1","9.8","0","","","NA","26.2","1","NA","","7","","","NA","75.4","10.0"
"-125.993","50.454","FANNY ISLAND","1022795","BC","12.6","1","NA","24.7","1","8.3","1","","","NA","104.2","1","NA","","14","","","NA","156.7","0.0"
"-125.203","50.099","HERIOT BAY SE","1023462","BC","15.8","3","NA","31.0","3","7.5","3","0.0","3","NA","55.4","3","NA","0.0","12","","","NA","76.9","17.1"
"-124.512","49.353","LITTLE QUALICUM HATCHERY","1024638","BC","14.4","14","0.1","32.0","14","1.5","14","0.0","14","NA","19.4","14","NA","","5","","","NA","63.3","5.4"
"-123.870","49.054","NANAIMO A","1025369","BC","15.6","0","NA","33.5","0","5.0","0","0.0","0","NA","48.6","0","NA","0.0","10","","","NA","93.9","23.1"
"-123.988","49.199","NANAIMO CITY YARD","10253G0","BC","","","NA","","","","","0.0","0","NA","49.3","0","105.0","0.0","10","","","NA","",""
"-127.728","50.976","PINE ISLAND","1026170","BC","12.0","1","0.1","16.0","1","8.0","1","0.0","1","NA","120.0","1","NA","","15","","","NA","173.9","0.0"
"-127.367","50.681","PORT HARDY A","1026271","BC","12.3","1","NA","24.2","1","3.5","0","0.0","0","NA","115.7","1","NA","","17","","","NA","166.7","0.0"
"-124.394","49.337","QUALICUM BEACH AIRPORT","1026562","BC","15.2","1","NA","33.1","1","4.2","1","","","NA","33.6","2","NA","","9","","","NA","98.9","16.4"
"-125.304","50.016","QUINSAM RIVER HATCHERY","1026639","BC","15.0","3","0.1","34.5","3","4.5","3","0.0","3","NA","43.6","3","NA","0.0","11","","","NA","93.4","12.6"
"-124.435","49.487","SISTERS ISLAND","1027403","BC","16.1","2","NA","29.0","2","10.8","1","","","NA","","","NA","","","","","NA","71.2","17.0"
"-123.809","49.209","ENTRANCE ISLAND","102BFHH","BC","15.7","1","NA","25.5","1","9.5","1","0.0","1","NA","35.2","1","NA","0.0","8","","","NA","77.3","10.1"
"-124.982","49.337","ALBERNI ROBERTSON CREEK","1030230","BC","15.6","0","0.2","35.5","0","6.0","0","0.0","0","NA","86.1","0","138.0","0.0","10","","","NA","95.2","24.2"
"-125.216","48.786","CAPE BEALE LIGHT","1031316","BC","13.0","0","0.4","23.0","0","5.5","0","0.0","0","NA","121.2","0","116.0","0.0","14","","","NA","149.1","0.0"
"-126.418","49.800","CONUMA RIVER HATCHERY","1031844","BC","","","NA","","","","","0.0","3","NA","197.1","3","NA","0.0","18","","","NA","",""
"-126.543","49.383","ESTEVAN POINT","1032730","BC","13.3","0","0.5","22.0","0","7.5","0","0.0","0","NA","171.6","0","119.0","0.0","17","","","NA","142.2","0.0"
"-126.543","49.383","ESTEVAN POINT CS","1032731","BC","13.0","2","NA","21.3","2","7.3","2","","","NA","95.7","2","NA","","12","","","NA","141.1","0.0"
"-125.923","49.111","LENNARD ISLAND","1034600","BC","11.1","1","NA","21.5","1","3.5","1","0.0","1","NA","162.2","1","NA","0.0","15","","","NA","201.4","0.0"
"-124.655","48.859","NITINAT RIVER HATCHERY","1035612","BC","13.9","0","-0.2","29.5","0","3.5","0","0.0","0","NA","160.4","0","138.0","0.0","16","","","NA","126.5","4.1"
"-126.617","49.600","NOOTKA LIGHTSTATION","1035614","BC","14.3","1","0.6","27.0","1","8.5","1","0.0","1","NA","138.2","1","NA","0.0","14","","","NA","111.3","4.8"
"-125.097","48.723","PACHENA POINT","1035940","BC","12.5","1","0.0","24.0","1","5.0","1","0.0","1","NA","109.6","1","NA","0.0","15","","","NA","158.3","0.0"
"-124.752","49.202","PORT ALBERNI COX LAKE","1036208","BC","14.8","27","0.2","22.0","27","9.0","27","0.0","27","NA","5.4","27","NA","","2","","","NA","9.7","0.0"
"-124.927","49.317","PORT ALBERNI (AUT)","1036B06","BC","15.3","3","NA","34.6","3","4.5","2","","","NA","41.9","3","NA","","9","","","NA","90.1","16.8"
"-128.908","50.821","SARTINE ISLAND (AUT)","1037090","BC","11.4","3","NA","15.7","3","6.8","2","","","NA","98.0","3","NA","","11","","","NA","177.8","0.0"
"-127.940","50.112","SOLANDER ISLAND (AUT)","1037553","BC","12.0","2","NA","17.6","2","8.3","1","","","NA","123.4","2","NA","","14","","","NA","168.1","0.0"
"-126.654","49.932","TAHSIS VILLAGE NORTH","1037899","BC","13.4","12","NA","30.0","12","7.0","12","","","NA","190.4","19","NA","","11","","","NA","85.2","2.8"
"-125.773","49.082","TOFINO A","1038205","BC","13.1","0","0.2","25.5","0","6.5","0","0.0","0","NA","158.0","0","122.0","0.0","14","","","NA","147.4","0.0"
"-125.527","48.945","UCLUELET KENNEDY CAMP","1038332","BC","13.5","0","0.3","30.0","0","4.5","0","0.0","0","NA","168.8","0","115.0","0.0","15","","","NA","137.8","2.0"
"-126.779","50.053","ZEBALLOS MURAUDE CREEK","1039035","BC","13.8","1","NA","33.0","1","5.0","1","0.0","1","NA","234.9","1","NA","0.0","19","","","NA","132.6","10.6"
"-123.402","49.360","BOWEN ISLAND SUNSET PARK","104091B","BC","","","NA","","","","","0.0","21","NA","56.4","21","NA","0.0","9","","","NA","",""
"-123.541","49.386","GIBSONS GOWER POINT","1043152","BC","15.6","2","0.3","27.5","2","8.0","2","0.0","2","NA","68.0","2","NA","0.0","10","","","NA","78.4","10.8"
"-123.913","49.468","MERRY ISLAND LIGHTSTATION","1045100","BC","16.8","1","0.9","28.5","1","10.5","1","0.0","1","NA","39.4","1","NA","0.0","9","","","NA","49.5","15.7"
"-123.299","49.488","HOWE SOUND - PAM ROCKS","10459NN","BC","16.1","2","NA","25.3","2","10.5","1","","","NA","63.6","2","NA","","11","","","NA","66.1","12.9"
"-124.032","49.634","PENDER HARBOUR","1046115","BC","","","NA","","","","","0.0","0","NA","47.7","0","NA","0.0","8","","","NA","",""
"-123.496","49.526","PORT MELLON","1046332","BC","15.4","1","NA","30.7","1","6.0","1","","","NA","105.8","1","NA","","12","","","NA","91.7","16.8"
"-124.500","49.834","POWELL RIVER A","1046391","BC","14.5","0","-0.4","31.0","0","4.5","0","0.0","0","NA","77.6","0","115.0","0.0","12","","","NA","112.8","9.1"
"-124.497","49.835","POWELL RIVER","1046392","BC","14.6","0","NA","31.6","0","5.0","0","","","NA","67.2","0","NA","","13","","","NA","112.7","10.9"
"-123.715","49.458","SECHELT AUT","1047172","BC","15.2","1","NA","32.0","1","5.7","1","","","NA","52.2","2","NA","","7","","","NA","93.4","12.6"
"-123.161","49.783","SQUAMISH AIRPORT","10476F0","BC","15.6","1","NA","31.4","1","4.2","1","","","NA","96.0","1","NA","","10","","","NA","86.4","16.4"
"-122.955","50.129","WHISTLER","1048898","BC","13.5","3","-0.1","32.0","3","1.0","3","0.0","3","NA","73.4","3","NA","0.0","12","","","NA","132.1","10.8"
"-131.016","51.936","CAPE ST JAMES","1051351","BC","11.4","3","NA","21.0","3","7.4","2","","","NA","12.7","21","NA","","4","","","NA","178.4","0.0"
"-132.772","53.316","KINDAKUN ROCKS (AUT)","1054222","BC","11.3","1","NA","16.9","1","7.2","1","","","NA","68.4","2","NA","","13","","","NA","195.1","0.0"
"-133.058","54.255","LANGARA","1054500","BC","11.1","0","0.3","17.5","0","5.5","0","0.0","0","NA","91.2","0","97.0","0.0","17","","","NA","207.3","0.0"
"-131.661","54.159","ROSE SPIT (AUT)","1056869","BC","12.1","2","NA","17.2","2","2.1","2","","","NA","65.4","2","NA","","11","","","NA","165.5","0.0"
"-131.813","53.249","SANDSPIT AIRPORT AUTO","1057051","BC","12.1","3","NA","23.5","3","5.0","3","","","NA","68.3","3","NA","","13","","","NA","160.5","0.1"
"-131.814","53.254","SANDSPIT","1057052","BC","12.8","10","NA","23.0","10","3.9","10","","","NA","12.2","10","NA","","2","","","NA","103.8","0.0"
"-127.864","51.604","ADDENBROKE ISLAND","1060080","BC","13.6","4","0.6","25.0","4","7.5","4","0.0","4","NA","188.0","4","NA","0.0","20","","","NA","114.9","0.5"
"-128.157","52.185","BELLA BELLA","1060815","BC","13.5","9","NA","29.2","9","5.7","9","","","NA","135.2","9","NA","","13","","","NA","96.2","1.7"
"-126.587","52.389","BELLA COOLA AIRPORT","1060844","BC","15.1","5","NA","30.6","5","5.0","5","","","NA","46.0","6","NA","","8","","","NA","84.9","12.8"
"-128.524","52.643","BOAT BLUFF","1060901","BC","13.1","0","0.2","28.0","0","7.0","0","0.0","0","NA","324.8","0","144.0","0.0","19","","","NA","155.8","7.8"
"-130.638","53.493","BONILLA ISLAND","1060902","BC","11.8","0","0.0","18.0","0","7.0","0","0.0","0","NA","117.2","0","119.0","0.0","17","","","NA","185.0","0.0"
"-130.639","53.493","BONILLA ISLAND (AUT)","1060R0K","BC","11.3","2","NA","17.2","2","7.6","2","","","NA","66.2","3","NA","","12","","","NA","189.0","0.0"
"-127.471","52.187","CATHEDRAL POINT (AUT)","1061458","BC","13.6","3","NA","28.5","3","7.3","2","","","NA","80.0","3","NA","","15","","","NA","127.2","8.4"
"-131.602","53.030","CUMSHEWA ISLAND","1062251","BC","11.7","4","NA","20.6","4","7.4","3","","","NA","6.0","4","NA","","2","","","NA","163.7","0.0"
"-128.112","52.185","DRYAD POINT","1062544","BC","13.8","2","0.3","25.5","2","8.5","2","0.0","2","NA","137.0","2","NA","0.0","17","","","NA","120.4","3.1"
"-127.835","51.247","EGG ISLAND","1062646","BC","11.5","17","-0.6","15.5","17","8.0","17","0.0","17","NA","103.2","17","NA","","8","","","NA","84.8","0.0"
"-130.708","54.569","GREEN ISLAND","1063298","BC","12.8","7","-0.1","22.5","7","8.0","7","0.0","2","NA","51.8","2","NA","0.0","14","","","NA","119.6","0.0"
"-130.698","54.580","GREY ISLET (AUT)","1063303","BC","12.5","1","NA","20.3","1","8.2","1","","","NA","68.4","1","NA","","15","","","NA","159.9","0.0"
"-127.632","50.940","HERBERT ISLAND (AUT)","1063461","BC","11.4","15","NA","15.6","15","8.5","14","","","NA","42.0","15","NA","","7","","","NA","98.3","0.0"
"-130.361","54.172","HOLLAND ROCK","1063496","BC","10.8","11","NA","16.3","11","7.9","11","","","NA","33.2","11","NA","","11","","","NA","135.9","0.0"
"-128.407","52.270","IVORY ISLAND","1063690","BC","13.0","0","0.4","20.5","0","8.0","0","0.0","0","NA","172.8","0","134.0","0.0","13","","","NA","148.9","0.0"
"-127.943","53.563","KEMANO","1064020","BC","15.0","1","0.6","34.5","1","3.5","0","0.0","1","NA","57.3","1","NA","0.0","13","","","NA","109.3","21.2"
"-128.634","54.054","KITIMAT TOWNSITE","1064320","BC","14.3","0","-0.2","34.0","0","3.0","0","0.0","0","NA","73.9","0","101.0","0.0","15","","","NA","134.0","22.5"
"-128.705","54.010","KITIMAT 2","1064321","BC","14.3","3","-0.6","34.0","3","5.0","3","0.0","3","NA","91.1","3","NA","0.0","15","","","NA","114.0","13.3"
"-128.719","52.262","MCINNES ISLAND","1065010","BC","12.9","0","0.4","20.0","0","8.0","0","0.0","0","NA","130.0","0","105.0","0.0","19","","","NA","152.6","0.0"
"-130.445","54.286","PRINCE RUPERT","1066482","BC","12.4","9","NA","23.3","9","6.2","9","","","NA","71.3","9","NA","","9","","","NA","117.6","0.0"
"-130.290","54.320","PRINCE RUPERT MONT CIRC","1066488","BC","","","NA","","","","","0.0","27","NA","16.0","27","NA","","3","","","NA","",""
"-128.625","54.502","TERRACE PCC","1068131","BC","15.0","0","0.4","34.0","0","5.0","0","0.0","0","NA","30.2","0","63.0","0.0","10","","","NA","110.2","21.4"
"-128.578","54.469","TERRACE A","1068134","BC","13.9","0","NA","34.2","0","3.4","0","0.0","0","NA","37.1","0","NA","","9","","","NA","143.2","21.5"
"-130.880","54.295","TRIPLE ISLAND","1068250","BC","11.8","0","NA","17.0","0","8.0","0","0.0","0","NA","72.8","0","NA","0.0","14","","","NA","185.4","0.0"
"-126.277","54.199","EQUITY SILVER","1072692","BC","4.4","23","-5.0","10.0","23","-1.5","23","0.0","23","NA","24.2","23","NA","","5","","","NA","95.1","0.0"
"-126.668","54.396","HOUSTON","1073615","BC","12.6","7","NA","33.0","7","0.5","7","0.0","12","NA","22.8","12","NA","0.0","7","","","NA","136.2","11.5"
"-127.183","54.825","SMITHERS","1077499","BC","13.7","11","NA","32.6","11","-0.6","11","","","NA","22.4","11","NA","","4","","","NA","88.6","7.0"
"-127.183","54.825","SMITHERS A","1077500","BC","13.4","0","0.4","33.0","0","0.5","0","0.0","0","NA","53.2","0","96.0","0.0","7","","","NA","153.3","14.7"
"-127.189","54.824","SMITHERS AIRPORT AUTO","1077501","BC","13.4","2","NA","32.4","2","-0.1","2","","","NA","68.5","3","NA","","11","","","NA","141.0","13.4"
"-127.171","55.289","SUSKWA VALLEY","107G879","BC","11.5","1","-1.1","31.5","1","-2.5","1","0.0","1","NA","48.6","1","NA","0.0","15","","","NA","192.8","4.1"
"-125.997","53.772","OOTSA LAKESKINS LAKE CLIMATE","1085836","BC","11.2","2","NA","29.2","2","-0.8","2","","","NA","23.4","2","NA","","9","","","NA","195.6","4.7"
"-122.738","50.302","PEMBERTON AIRPORT (WIND)","1086081","BC","16.3","3","NA","37.3","3","3.6","3","","","NA","","","NA","","","","","NA","76.9","30.5"
"-122.734","50.306","PEMBERTON AIRPORT CS","1086082","BC","19.6","15","NA","37.4","15","7.7","15","","","NA","65.3","4","NA","0.0","14","","","NA","10.0","33.4"
"-124.136","52.114","PUNTZI MOUNTAIN (AUT)","1086558","BC","11.8","2","NA","33.6","2","-3.8","2","","","NA","23.7","3","NA","","7","","","NA","181.4","7.3"
"-124.403","51.675","TATLAYOKO LAKE RCS","1088015","BC","11.1","1","NA","33.1","1","-3.6","1","","","NA","33.3","1","NA","","13","","","NA","203.9","3.6"
"-125.959","54.383","BURNS LAKE DECKER LAKE","1091174","BC","11.0","1","NA","32.5","1","-2.9","0","","","NA","36.4","1","NA","","8","","","NA","207.5","4.3"
"-124.286","54.455","FORT ST JAMES","1092970","BC","12.9","14","-0.5","30.0","14","-1.0","14","0.0","14","NA","8.2","14","NA","","3","","","NA","85.6","4.3"
"-124.286","54.455","FORT ST JAMES AUTO","1092975","BC","13.0","1","NA","30.7","1","0.9","1","","","NA","40.5","2","NA","","8","","","NA","151.8","7.0"
"-122.286","52.531","MCLEESE LAKE GRANITE MT","1095018","BC","11.0","20","NA","31.5","15","-0.5","15","0.0","15","NA","60.6","15","NA","","8","","","NA","73.0","2.8"
"-122.678","53.884","PRINCE GEORGE","1096439","BC","14.1","8","NA","31.5","8","0.5","8","","","NA","52.8","8","NA","","7","","","NA","94.6","7.8"
"-122.672","53.889","PRINCE GEORGE AIRPORT AUTO","1096453","BC","13.6","1","NA","31.7","1","0.7","1","","","NA","54.7","2","NA","","9","","","NA","135.9","8.1"
"-122.791","53.900","PRINCE GEORGE MASSEY AUTO","1096454","BC","15.5","0","NA","33.8","0","2.9","0","","","NA","64.1","0","NA","","10","","","NA","102.9","26.6"
"-122.768","53.880","PRINCE GEORGE STP","1096468","BC","15.2","0","0.6","33.0","0","3.5","0","0.0","0","NA","56.4","0","92.0","0.0","10","","","NA","104.0","20.1"
"-122.510","53.026","QUESNEL","1096629","BC","14.5","8","NA","32.8","8","1.8","7","","","NA","0.0","8","NA","","0","","","NA","84.8","8.0"
"-122.506","53.027","QUESNEL AIRPORT AUTO","1096631","BC","14.6","1","NA","33.8","1","2.0","1","","","NA","57.4","1","NA","","7","","","NA","113.6","13.8"
"-121.686","52.184","SPOKIN LAKE 4E","1097646","BC","10.3","0","-1.0","31.0","0","-5.5","0","0.0","0","0.0","86.6","0","116.0","0.0","11","","","NA","230.2","0.0"
"-122.054","52.183","WILLIAMS LAKE A","1098941","BC","13.5","1","NA","32.0","0","1.2","1","0.0","0","NA","61.8","0","NA","","11","","","NA","142.6","13.5"
"-124.017","54.033","VANDERHOOF","1098D90","BC","14.3","0","-0.1","34.5","0","1.5","0","0.0","0","0.0","62.6","0","110.0","0.0","9","","","NA","129.4","18.5"
"-121.263","51.623","108 MILE HOUSE ABEL LAKE","109E7R6","BC","13.7","7","NA","33.0","6","0.5","7","0.0","5","NA","31.8","5","NA","0.0","6","","","NA","106.7","6.8"
"-122.360","49.025","ABBOTSFORD A","1100031","BC","16.0","1","NA","31.2","1","6.7","0","0.0","1","NA","40.3","1","NA","","9","","","NA","76.2","18.6"
"-121.760","49.243","AGASSIZ RCS","1100119","BC","16.4","3","0.0","31.1","3","7.4","3","","","NA","89.5","3","NA","","10","","","NA","66.6","23.6"
"-121.760","49.243","AGASSIZ CDA","1100120","BC","15.5","9","-0.7","30.5","4","5.0","5","0.0","4","NA","108.9","4","NA","0.0","14","","","NA","60.9","7.4"
"-122.955","50.129","WHISTLER - NESTERS","1100875","BC","13.5","2","NA","32.9","2","1.3","1","","","NA","42.3","2","NA","","8","","","NA","136.1","11.4"
"-122.918","49.278","BURNABY SIMON FRASER U","1101158","BC","15.4","0","1.0","30.0","0","7.0","0","0.0","0","NA","61.6","0","61.0","0.0","9","","","NA","97.2","18.3"
"-123.111","50.144","CALLAGHAN VALLEY","1101300","BC","11.1","0","NA","30.2","0","1.3","0","","","NA","104.8","0","NA","0.0","15","","","NA","212.9","5.0"
"-122.698","49.109","CLOVERDALE EAST","1101708","BC","16.4","0","NA","30.0","0","9.0","0","0.0","0","NA","39.0","0","NA","0.0","11","","","NA","67.4","20.3"
"-121.979","49.079","CULTUS LAKE","1102221","BC","16.2","0","NA","32.5","0","6.4","0","","","NA","86.4","0","NA","","12","","","NA","76.5","21.7"
"-123.002","49.126","DELTA BURNS BOG","1102415","BC","15.6","0","NA","31.0","0","5.1","0","","","NA","35.9","0","NA","","7","","","NA","82.5","9.0"
"-123.093","49.011","DELTA TSAWWASSEN BEACH","1102425","BC","14.7","0","-1.2","26.0","0","6.5","0","0.0","0","NA","29.6","0","69.0","0.0","7","","","NA","100.4","2.6"
"-122.551","49.145","FORT LANGLEY TELEGRAPH TRAIL","1102912","BC","15.8","0","NA","30.5","0","6.5","0","0.0","0","NA","49.0","0","NA","0.0","13","","","NA","82.3","16.8"
"-122.573","49.264","HANEY UBC RF ADMIN","1103332","BC","15.2","7","0.1","31.5","7","6.0","7","0.0","7","NA","73.4","7","NA","","11","","","NA","77.6","12.4"
"-122.271","49.153","MISSION WEST ABBEY","1105192","BC","15.4","0","0.1","30.0","0","7.5","0","0.0","0","NA","83.8","0","78.0","0.0","12","","","NA","98.6","21.9"
"-123.078","49.182","RICHMOND OPERATIONS CENTRE","1105210","BC","","","NA","","","","","","","NA","27.5","1","NA","","4","","","NA","",""
"-123.078","49.381","N VANC GROUSE MTN RESORT","1105658","BC","10.7","8","0.7","27.5","8","0.0","8","0.0","8","NA","87.7","8","NA","0.0","11","","","NA","168.6","7.6"
"-123.115","49.315","N VANCOUVER WHARVES","1105669","BC","","","NA","","","","","0.0","0","NA","60.8","0","73.0","0.0","10","","","NA","",""
"-122.690","49.208","PITT MEADOWS CS","1106178","BC","16.4","1","NA","32.8","1","6.7","1","","","NA","53.3","1","NA","","6","","","NA","66.4","20.9"
"-123.265","49.330","POINT ATKINSON","1106200","BC","16.0","0","NA","26.3","0","10.3","0","","","NA","61.8","0","NA","","13","","","NA","74.7","13.4"
"-123.087","49.179","RICHMOND DALLYN 2","1106764","BC","","","NA","","","","","0.0","0","NA","37.6","0","NA","0.0","8","","","NA","",""
"-122.881","49.279","PORT MOODY GLENAYRE","1106CL2","BC","15.6","0","0.4","31.0","0","7.0","0","0.0","0","NA","59.2","0","67.0","0.0","10","","","NA","90.3","17.5"
"-123.093","49.171","RICHMOND NATURE PARK","1106PF7","BC","17.0","0","0.9","30.0","0","6.5","0","0.0","0","NA","42.0","0","68.0","0.0","8","","","NA","46.2","15.7"
"-123.303","49.106","SANDHEADS CS","1107010","BC","16.3","20","NA","20.4","20","13.2","20","","","NA","","","NA","","","","","NA","17.2","0.0"
"-122.110","49.113","SUMAS CANAL","1107785","BC","16.0","18","NA","32.0","12","8.5","11","0.0","12","NA","86.2","12","NA","","11","","","NA","28.9","5.1"
"-123.187","49.183","VANCOUVER SEA ISLAND CCG","1108380","BC","15.3","4","NA","22.7","4","7.6","4","","","NA","32.5","4","NA","","6","","","NA","70.3","0.3"
"-123.184","49.195","VANCOUVER INTL A","1108395","BC","15.9","0","NA","26.8","0","8.3","0","0.0","0","NA","38.8","0","NA","","6","","","NA","69.4","7.5"
"-123.122","49.295","VANCOUVER HARBOUR CS","1108446","BC","16.6","1","NA","27.7","1","9.6","1","","","NA","47.5","1","NA","","7","","","NA","54.1","14.7"
"-123.193","49.347","WEST VANCOUVER AUT","1108824","BC","16.2","1","NA","32.6","1","8.4","1","","","NA","57.1","1","NA","","8","","","NA","74.5","23.2"
"-122.947","50.068","WHISTLER ROUNDHOUSE","1108906","BC","5.5","0","NA","20.5","0","-2.0","0","0.0","0","NA","100.6","0","NA","0.0","14","","","NA","375.3","0.0"
"-122.784","49.018","WHITE ROCK CAMPBELL SCIENTIFIC","1108910","BC","16.4","3","NA","30.4","3","8.2","3","","","NA","20.6","3","NA","","6","","","NA","57.0","12.6"
"-122.967","49.438","N VAN SEYMOUR HATCHERY","110N666","BC","13.3","14","-1.1","31.5","14","5.0","14","0.0","14","NA","86.7","14","NA","","9","","","NA","79.9","4.3"
"-121.498","49.368","HOPE A","1113542","BC","17.1","7","NA","31.2","6","8.7","7","","","NA","60.0","7","NA","","9","","","NA","47.3","26.6"
"-121.493","49.370","HOPE AIRPORT","1113543","BC","16.4","1","NA","31.0","1","7.0","1","","","NA","66.0","2","NA","","9","","","NA","72.2","26.0"
"-121.233","49.267","HOPE SLIDE","1113581","BC","12.7","0","0.2","31.0","0","1.5","0","0.0","0","0.0","58.4","0","91.0","0.0","12","","","NA","166.2","6.9"
"-121.934","50.684","LILLOOET","1114619","BC","19.1","1","NA","38.8","1","7.0","1","","","NA","","","NA","","","","","NA","28.5","60.5"
"-121.582","50.224","LYTTON A","1114738","BC","19.3","6","NA","39.5","6","8.5","6","","","NA","8.1","6","NA","","3","","","NA","22.3","53.2"
"-121.582","50.224","LYTTON RCS","1114746","BC","19.1","1","NA","38.6","1","8.0","1","","","NA","10.2","1","NA","","3","","","NA","25.6","56.4"
"-120.333","49.673","JELLICOE","1123721","BC","13.3","2","NA","32.0","2","-1.0","2","0.0","2","NA","30.7","2","NA","0.0","6","","","NA","138.0","6.9"
"-119.378","49.957","KELOWNA","1123939","BC","17.1","9","NA","33.3","9","2.1","9","","","NA","25.3","9","NA","","5","","","NA","36.5","17.6"
"-119.400","49.941","KELOWNA UBCO","1123996","BC","18.2","3","NA","34.2","3","4.6","3","","","NA","32.1","4","NA","","7","","","NA","35.7","41.2"
"-120.778","50.113","MERRITT","1125073","BC","14.7","2","NA","34.6","2","0.1","2","","","NA","14.8","3","NA","","6","","","NA","106.9","15.5"
"-120.801","50.114","MERRITT STP","1125079","BC","15.8","0","-0.1","35.0","0","2.5","0","0.0","0","NA","30.4","0","83.0","0.0","7","","","NA","93.2","25.9"
"-119.445","50.056","OKANAGAN CENTRE","1125700","BC","18.1","0","0.3","35.0","0","7.0","0","0.0","0","NA","52.0","0","119.0","0.0","11","","","NA","41.4","43.3"
"-119.545","49.179","OLIVER STP","1125766","BC","19.3","12","0.4","34.0","12","6.0","12","0.0","12","NA","10.3","12","NA","","4","","","NA","10.7","33.6"
"-119.441","49.028","OSOYOOS CS","1125852","BC","19.0","1","-0.2","33.0","1","5.4","1","","","NA","35.5","1","NA","","2","","","NA","19.8","48.6"
"-119.717","49.783","PEACHLAND","1126070","BC","18.5","0","0.6","32.5","0","7.5","0","0.0","0","NA","27.2","0","65.0","0.0","5","","","NA","26.9","43.0"
"-119.602","49.463","PENTICTON A","1126146","BC","17.3","0","NA","33.6","0","2.6","0","0.0","0","NA","34.8","0","NA","","5","","","NA","56.3","35.2"
"-120.513","49.468","PRINCETON A","1126510","BC","14.9","2","0.0","34.0","2","-0.5","2","0.0","2","NA","6.0","2","NA","0.0","2","","","NA","101.3","13.6"
"-119.194","50.223","VERNON AUTO","1128582","BC","17.1","1","NA","33.6","1","4.4","1","","","NA","48.5","1","NA","","7","","","NA","57.9","31.2"
"-119.271","50.344","VERNON NORTH","1128583","BC","17.1","0","-0.3","33.0","0","5.0","0","0.0","0","NA","55.6","0","112.0","0.0","10","","","NA","59.6","31.6"
"-119.056","50.359","VERNON SILVER STAR LODGE","1128584","BC","11.3","16","NA","26.0","16","1.0","16","0.0","16","NA","52.0","16","NA","0.0","7","","","NA","95.1","1.3"
"-120.510","49.465","PRINCETON CS","112FN0M","BC","15.3","2","NA","33.9","2","-0.1","2","","","NA","3.7","2","NA","","2","","","NA","92.5","16.5"
"-119.649","49.563","SUMMERLAND CS","112G8L1","BC","17.8","1","0.3","33.5","1","6.6","1","","","NA","36.0","1","NA","","7","","","NA","45.6","39.9"
"-118.772","49.004","MIDWAY","1135126","BC","15.9","3","0.1","32.0","3","0.5","3","0.0","3","NA","45.0","3","NA","0.0","7","","","NA","70.6","13.1"
"-118.228","49.017","BILLINGS","1140876","BC","16.4","0","-0.3","31.5","0","2.0","0","0.0","0","NA","56.6","0","89.0","0.0","7","","","NA","62.9","16.1"
"-117.633","49.296","CASTLEGAR A","1141455","BC","16.8","0","0.0","33.0","0","2.5","0","0.0","0","NA","50.8","0","70.0","0.0","10","","","NA","57.5","22.1"
"-117.774","49.343","CASTLEGAR BCHPA DAM","1141457","BC","16.7","12","-0.1","33.0","9","4.0","9","0.0","9","NA","34.8","9","NA","0.0","8","","","NA","41.1","17.5"
"-116.972","50.239","DUNCAN LAKE DAM","1142574","BC","15.6","0","0.6","29.5","0","3.5","0","0.0","0","NA","106.8","0","151.0","0.0","13","","","NA","78.1","6.9"
"-116.921","49.913","KASLO","1143900","BC","16.0","0","0.6","28.0","0","6.0","0","0.0","0","NA","72.6","0","94.0","0.0","15","","","NA","66.5","6.2"
"-117.817","50.269","NAKUSP CS","1145297","BC","16.7","2","NA","33.4","2","3.6","1","","","NA","84.8","2","NA","","11","","","NA","58.7","21.4"
"-117.206","49.586","NELSON NE","1145442","BC","16.2","0","NA","31.0","0","4.0","0","0.0","0","NA","49.4","0","NA","0.0","14","","","NA","68.1","14.0"
"-117.370","49.996","NEW DENVER","1145460","BC","16.5","0","0.4","33.0","0","5.0","0","0.0","0","NA","88.8","0","105.0","0.0","14","","","NA","66.0","20.5"
"-117.305","49.491","NELSON CS","1145M29","BC","16.9","1","NA","30.8","1","4.2","1","","","NA","41.4","1","NA","","9","","","NA","51.6","20.4"
"-117.739","49.112","WARFIELD RCS","1148705","BC","16.8","2","NA","33.6","2","1.4","2","","","NA","57.6","2","NA","","8","","","NA","56.4","22.8"
"-116.501","49.082","CRESTON CAMPBELL SCIENTIFIC","114B1F0","BC","16.8","1","NA","31.3","1","2.7","1","","","NA","41.6","1","NA","","8","","","NA","58.0","23.6"
"-117.399","49.512","NELSON RIXEN CREEK","114EMDM","BC","15.4","1","NA","32.0","1","1.0","1","0.0","1","NA","72.8","1","NA","0.0","12","","","NA","86.3","10.3"
"-115.782","49.612","CRANBROOK A","1152105","BC","14.9","1","NA","29.5","0","3.9","1","0.0","0","NA","58.6","0","NA","","9","","","NA","94.2","5.1"
"-115.789","49.618","CRANBROOK AIRPORT AUTO","1152106","BC","15.0","4","NA","28.7","4","3.1","1","","","NA","37.6","4","NA","","8","","","NA","81.0","4.1"
"-115.073","49.489","FERNIE","1152850","BC","14.5","6","0.9","29.0","6","3.0","6","0.0","6","NA","24.0","6","NA","","8","","","NA","85.4","1.5"
"-115.461","49.524","FT STEELE DANDY CRK","1153034","BC","13.7","12","NA","28.0","7","0.0","7","0.0","7","NA","40.4","7","NA","0.0","8","","","NA","79.4","1.8"
"-115.962","49.632","KIMBERLEY PCC","1154203","BC","15.9","12","1.5","33.0","12","4.0","12","0.0","12","NA","17.8","12","NA","","5","","","NA","45.7","8.1"
"-116.061","50.631","KOOTENAY NP WEST GATE","1154410","BC","15.6","0","0.1","32.0","0","3.0","0","0.0","0","0.0","59.6","0","86.0","0.0","17","","","NA","86.9","15.5"
"-114.883","49.745","SPARWOOD","1157630","BC","13.1","0","0.4","27.5","0","1.0","0","0.0","0","0.0","40.2","0","58.0","0.0","15","","","NA","146.8","0.0"
"-114.884","49.745","SPARWOOD CS","1157631","BC","13.0","2","NA","27.9","2","1.6","2","","","NA","34.2","2","NA","","13","","","NA","141.3","0.0"
"-121.281","50.708","ASHCROFT","1160515","BC","17.1","12","NA","27.3","12","6.3","11","","","NA","17.6","12","NA","","5","","","NA","23.8","8.0"
"-119.290","52.129","BLUE RIVER A","1160899","BC","14.3","0","0.3","33.0","0","0.5","0","0.0","0","NA","108.5","0","110.0","0.0","17","","","NA","120.7","9.1"
"-119.290","52.129","BLUE RIVER CS","1160H99","BC","13.8","1","NA","32.9","1","0.2","1","","","NA","89.4","1","NA","","14","","","NA","128.7","6.7"
"-120.082","51.653","CLEARWATER AUTO","1161650","BC","16.2","1","NA","36.1","1","2.7","1","","","NA","","","NA","","","","","NA","76.6","23.8"
"-121.685","51.266","CLINTON A","1161662","BC","11.1","0","NA","29.4","0","-3.7","0","","","NA","0.0","0","NA","","0","","","NA","207.1","0.0"
"-121.505","51.144","CLINTON RCS","1161663","BC","11.9","12","NA","31.1","12","-0.7","12","","","NA","12.4","12","NA","","3","","","NA","114.0","3.4"
"-120.728","51.030","CRISS CREEK","1162177","BC","10.9","0","-0.2","29.5","0","-3.0","0","0.2","0","23.0","116.2","0","170.0","0.0","16","","","NA","213.3","0.0"
"-120.449","50.703","KAMLOOPS A","1163781","BC","18.1","0","NA","36.7","0","5.4","0","0.0","0","NA","36.8","0","NA","","7","","","NA","42.4","46.4"
"-120.442","50.702","KAMLOOPS AUT","1163842","BC","18.2","3","NA","35.9","3","4.9","2","","","NA","28.2","3","NA","","5","","","NA","36.9","41.0"
"-121.217","51.681","100 MILE HOUSE 6NE","1165793","BC","12.9","0","NA","34.0","0","1.0","0","0.0","0","NA","79.8","0","NA","0.0","12","","","NA","164.2","9.8"
"-120.800","50.935","RED LAKE","1166658","BC","11.8","0","-0.7","29.0","0","-1.0","0","0.0","0","0.0","93.0","0","133.0","0.0","17","","","NA","194.5","7.6"
"-119.350","50.545","SILVER CREEK","1167337","BC","16.2","0","0.1","35.0","0","2.5","0","0.0","0","NA","66.4","0","129.0","0.0","13","","","NA","74.7","20.9"
"-119.778","51.576","VAVENBY","1168520","BC","15.6","0","-0.1","36.0","0","2.5","0","0.0","0","NA","81.8","0","145.0","0.0","15","","","NA","91.6","18.6"
"-120.172","50.630","KAMLOOPS PRATT ROAD","116C8P0","BC","15.3","8","NA","28.0","8","3.0","8","0.0","8","NA","57.6","8","NA","0.0","11","","","NA","63.0","4.6"
"-119.291","50.703","SALMON ARM CS","116FRMN","BC","16.5","7","-1.1","32.6","6","4.1","6","","","NA","78.1","7","NA","","10","","","NA","51.8","16.8"
"-116.982","51.299","GOLDEN A","1173210","BC","15.3","0","0.5","31.5","0","3.0","0","0.0","0","0.0","53.6","0","108.0","0.0","11","","","NA","92.6","12.6"
"-116.984","51.300","GOLDEN AIRPORT","1173220","BC","16.4","1","NA","33.6","1","3.2","1","","","NA","29.7","2","NA","","6","","","NA","64.5","17.8"
"-118.585","52.053","MICA DAM","1175122","BC","14.3","15","-0.6","30.5","9","2.5","9","0.0","9","NA","78.1","9","NA","0.0","12","","","NA","57.7","1.5"
"-118.183","50.967","REVELSTOKE A","1176745","BC","15.8","13","NA","28.2","13","6.6","13","","","NA","64.3","13","NA","","6","","","NA","45.7","7.5"
"-118.176","50.958","REVELSTOKE AIRPORT AUTO","1176755","BC","16.0","2","NA","31.8","2","6.3","2","","","NA","101.7","2","NA","","12","","","NA","76.2","19.4"
"-116.345","51.443","YOHO PARK","11790J1","BC","10.7","1","NA","28.4","1","-1.5","1","","","NA","57.8","4","NA","","12","","","NA","212.6","0.0"
"-116.337","51.356","YOHO NP OHARA LAKE","117R00H","BC","8.4","10","NA","28.0","10","-2.5","10","9.0","10","NA","86.5","10","NA","0.0","13","","","NA","192.9","0.0"
"-121.627","55.687","CHETWYND A","1181508","BC","14.2","0","0.9","31.0","0","0.0","0","0.0","0","NA","104.8","0","139.0","0.0","11","","","NA","126.9","14.3"
"-120.183","55.742","DAWSON CREEK A","1182289","BC","14.9","5","NA","31.9","5","0.8","4","","","NA","0.0","26","NA","","0","","","NA","91.4","13.9"
"-120.740","56.238","FORT ST. JOHN A","1183001","BC","14.4","1","NA","31.5","1","2.5","0","0.0","0","NA","93.9","1","NA","","15","","","NA","121.5","17.8"
"-123.133","55.299","MACKENZIE","1184791","BC","13.5","11","NA","32.0","11","1.9","11","","","NA","46.0","11","NA","","9","","","NA","90.2","5.2"
"-123.138","55.305","MACKENZIE AIRPORT AUTO","1184793","BC","13.5","3","NA","33.0","3","0.0","3","","","NA","45.6","4","NA","","10","","","NA","136.2","14.5"
"-130.031","58.422","DEASE LAKE A","1192341","BC","12.1","12","NA","31.0","12","-1.0","11","","","NA","23.5","12","NA","","5","","","NA","109.3","2.7"
"-122.597","58.836","FORT NELSON A","1192946","BC","15.5","0","NA","34.6","0","0.2","0","0.0","0","NA","102.8","0","NA","","14","","","NA","106.1","30.8"
"-122.574","58.841","FORT NELSON","1192948","BC","16.0","1","NA","34.7","1","0.7","1","","","NA","78.5","1","NA","","11","","","NA","92.8","35.4"
"-130.025","58.426","DEASE LAKE (AUT)","119BLM0","BC","11.4","3","NA","30.9","3","-1.1","2","","","NA","14.3","3","NA","","4","","","NA","182.0","3.1"
"-133.700","59.567","ATLIN","1200560","BC","11.1","0","-0.2","27.0","0","0.0","0","0.0","0","0.0","37.2","0","125.0","0.0","4","","","NA","207.3","0.0"
"-136.367","59.450","PLEASANT CAMP","1206197","BC","12.2","0","-0.1","29.0","0","1.0","0","0.0","0","NA","27.0","0","72.0","0.0","6","","","NA","175.0","2.0"
"-139.040","61.371","BURWASH A","2100181","YT","11.6","6","NA","24.6","6","-2.7","6","","","NA","30.4","6","NA","","7","","","NA","152.9","0.0"
"-139.017","61.367","BURWASH AIRPORT AUTO BC","2100184","YT","11.1","1","NA","24.7","1","-2.8","1","","","NA","38.8","1","NA","","11","","","NA","199.5","0.0"
"-136.192","62.115","CARMACKS CS","2100301","YT","13.8","2","NA","28.7","2","-0.9","1","","","NA","28.5","2","NA","","5","","","NA","121.2","4.3"
"-133.376","62.208","FARO (AUT)","2100518","YT","13.2","0","NA","29.5","0","0.8","0","","","NA","","","NA","","","","","NA","153.2","9.8"
"-137.580","60.773","HAINES JUNCTION","2100630","YT","10.7","1","NA","27.2","1","-2.8","1","","","NA","25.6","1","NA","","6","","","NA","213.5","2.2"
"-140.150","69.164","IVVAVIK NAT. PARK","2100660","YT","7.6","2","NA","21.1","2","-3.3","2","","","NA","20.6","2","NA","","6","","","NA","291.7","0.0"
"-140.197","69.612","KOMAKUK BEACH","2100682","YT","2.0","10","NA","10.5","9","-4.0","6","","","NA","","","NA","","","","","NA","319.6","0.0"
"-135.868","63.616","MAYO A","2100701","YT","14.0","1","NA","30.5","0","2.7","1","0.0","0","NA","110.6","0","NA","","15","","","NA","124.0","6.8"
"-139.839","67.571","OLD CROW RCS","2100805","YT","11.9","1","NA","23.8","1","0.6","1","","","NA","11.9","1","NA","","3","","","NA","177.3","0.0"
"-136.218","66.981","ROCK RIVER","2100935","YT","9.1","3","NA","20.8","3","-4.2","1","","","NA","0.0","3","NA","","0","","","NA","240.9","0.0"
"-137.217","68.950","SHINGLE POINT A","2100950","YT","1.0","19","NA","9.8","19","-2.4","19","","","NA","","","NA","","","","","NA","186.8","0.0"
"-139.127","64.061","DAWSON","2100LRP","YT","14.4","3","NA","30.8","3","1.3","3","","","NA","42.3","3","NA","","11","","","NA","102.6","4.3"
"-132.733","60.167","TESLIN (AUT)","2101102","YT","11.4","1","NA","28.1","1","-0.1","1","","","NA","27.4","2","NA","","2","","","NA","190.7","0.5"
"-128.832","60.116","WATSON LAKE (AUT)","2101204","YT","14.1","2","NA","31.0","2","2.8","1","","","NA","57.5","2","NA","","5","","","NA","122.1","12.1"
"-135.067","60.709","WHITEHORSE A","2101303","YT","12.6","0","NA","29.0","0","0.4","0","","","NA","","","NA","","","","","NA","170.0","7.1"
"-135.098","60.733","WHITEHORSE AUTO","2101310","YT","12.4","1","NA","28.2","1","0.3","1","","","NA","34.1","1","NA","","5","","","NA","166.7","5.0"
"-124.717","70.167","CAPE PARRY A","2200675","NT","0.6","0","NA","8.1","0","-4.4","0","","","NA","","","NA","","","","","NA","521.1","0.0"
"-126.123","67.021","COLVILLE LAKE","2200824","NT","11.3","0","NA","26.3","0","0.2","0","","","NA","32.2","0","NA","","6","","","NA","200.9","0.6"
"-123.433","65.209","DELINE CS","2201022","NT","11.6","2","NA","30.2","2","-0.5","2","","","NA","","","NA","","","","","NA","181.7","2.3"
"-124.468","61.257","DEADMEN VALLEY","22010H0","NT","15.1","8","NA","33.9","6","-2.3","7","","","NA","57.6","8","NA","","9","","","NA","78.3","15.0"
"-128.644","66.242","FORT GOOD HOPE CS","2201450","NT","15.0","2","NA","30.9","2","3.2","1","","","NA","29.6","2","NA","","5","","","NA","100.8","18.0"
"-123.467","60.233","FORT LIARD","2201579","NT","15.8","3","NA","33.6","3","0.1","2","","","NA","","","NA","","","","","NA","88.3","28.1"
"-117.602","61.317","FORT PROVIDENCE","2201799","NT","14.8","1","NA","34.3","1","-1.4","1","","","NA","","","NA","","","","","NA","116.6","23.5"
"-109.168","62.711","FORT RELIANCE (AUT)","2201903","NT","12.5","2","NA","26.3","2","-3.8","2","","","NA","32.0","2","NA","","6","","","NA","155.8","0.4"
"-121.237","61.760","FORT SIMPSON CLIMATE","2202102","NT","15.7","3","NA","33.2","3","0.3","2","","","NA","76.1","3","NA","","7","","","NA","88.8","26.0"
"-121.237","61.760","FORT SIMPSON A","2202103","NT","15.2","1","NA","33.2","1","0.3","0","0.0","0","NA","87.8","0","NA","","9","","","NA","108.5","27.8"
"-111.962","60.020","FORT SMITH A","2202201","NT","15.8","0","NA","32.1","0","1.6","0","0.0","0","NA","84.8","0","NA","","13","","","NA","107.6","42.2"
"-111.929","60.026","FORT SMITH CLIMATE","2202202","NT","13.0","16","NA","29.4","16","1.3","16","","","NA","30.8","16","NA","","9","","","NA","74.3","4.1"
"-105.133","63.600","HANBURY RIVER","2202351","NT","10.3","6","NA","24.8","6","-4.8","6","","","NA","14.0","8","NA","","3","","","NA","186.0","0.0"
"-115.783","60.840","HAY RIVER A","2202401","NT","13.3","1","NA","30.3","1","1.6","0","0.0","0","NA","98.0","0","NA","","12","","","NA","149.0","11.5"
"-115.777","60.839","HAY RIVER CLIMATE","2202402","NT","13.5","1","NA","31.0","1","2.5","0","","","NA","91.1","1","NA","","9","","","NA","143.4","13.1"
"-113.726","61.920","INNER WHALEBACKS","2202560","NT","","","NA","","","","","","","NA","57.8","3","NA","","7","","","NA","",""
"-133.517","68.317","INUVIK CLIMATE","2202578","NT","9.6","1","NA","25.0","1","-2.3","1","","","NA","3.5","1","NA","","1","","","NA","243.0","0.0"
"-117.245","63.134","LAC LA MARTRE","2202678","NT","14.2","1","NA","31.5","1","-0.5","1","","","NA","","","NA","","","","","NA","126.5","16.1"
"-126.799","65.281","NORMAN WELLS A","2202801","NT","14.0","1","NA","30.9","1","0.2","0","0.0","0","NA","56.0","1","NA","","10","","","NA","125.0","8.9"
"-126.753","65.288","NORMAN WELLS CLIMATE","2202810","NT","14.0","2","NA","32.3","2","-0.6","2","","","NA","41.7","3","NA","","8","","","NA","122.6","10.5"
"-124.083","69.358","PAULATUK","2203058","NT","2.7","2","NA","18.0","2","-2.5","2","","","NA","16.1","3","NA","","5","","","NA","428.9","0.0"
"-135.444","69.633","PELLY ISLAND","2203095","NT","1.6","1","NA","12.8","1","-3.2","1","","","NA","0.0","1","NA","","0","","","NA","474.9","0.0"
"-127.209","61.963","RABBIT KETTLE","2203342","NT","14.8","11","NA","34.1","11","0.7","9","","","NA","","","NA","","","","","NA","70.4","10.4"
"-117.328","64.112","RAE LAKES","2203359","NT","13.5","2","NA","29.8","2","3.4","2","","","NA","78.2","3","NA","","9","","","NA","131.6","6.6"
"-114.440","62.463","YELLOWKNIFE A","2204101","NT","14.0","0","NA","29.9","0","2.5","0","0.0","0","NA","114.1","0","NA","","11","","","NA","132.2","12.5"
"-114.383","62.450","YELLOWKNIFE-HENDERSON","2204110","NT","17.5","0","NA","31.0","0","4.0","0","0.0","0","NA","88.7","0","NA","0.0","9","","","NA","46.0","29.5"
"-123.742","61.242","YOHIN","2204300","NT","15.6","7","NA","34.4","6","1.1","5","","","NA","","","NA","","","","","NA","76.9","22.5"
"-130.911","69.604","LIVERPOOL BAY","220B68C","NT","3.8","7","NA","20.7","7","-3.5","7","","","NA","","","NA","","","","","NA","326.0","0.0"
"-122.851","61.125","LINDBURG LANDING","220N003","NT","15.1","2","NA","34.5","2","0.4","1","","","NA","172.3","2","NA","","10","","","NA","105.7","25.1"
"-113.863","63.603","LOWER CARP LAKE","220N004","NT","11.4","17","NA","27.1","16","1.1","14","","","NA","","","NA","","","","","NA","89.1","2.7"
"-133.502","68.746","TRAIL VALLEY","220N005","NT","7.1","1","NA","22.6","1","-3.1","1","","","NA","9.0","2","NA","","3","","","NA","316.6","0.0"
"-94.072","61.094","ARVIAT A","2300427","NU","4.1","12","NA","19.0","12","-3.6","11","","","NA","21.1","12","NA","","2","","","NA","250.9","0.0"
"-96.000","64.317","BAKER LAKE CLIMATE","2300501","NU","4.3","3","NA","21.7","3","-12.5","3","","","NA","17.9","3","NA","","5","","","NA","368.8","0.0"
"-96.078","64.299","BAKER LAKE A","2300503","NU","4.0","0","NA","22.7","0","-12.4","0","20.0","1","NA","23.6","0","NA","","5","","","NA","419.7","0.0"
"-108.015","66.838","BATHURST INLET","2300551","NU","7.2","2","NA","25.4","2","-4.6","2","","","NA","50.9","4","NA","","7","","","NA","302.4","0.0"
"-115.144","67.817","KUGLUKTUK A","2300903","NU","4.3","0","NA","25.0","0","-8.6","0","0.2","0","NA","29.6","0","NA","","6","","","NA","409.7","0.0"
"-115.135","67.817","KUGLUKTUK CLIMATE","2300904","NU","4.5","2","NA","25.4","2","-8.3","2","","","NA","28.2","3","NA","","5","","","NA","377.1","0.0"
"-83.359","64.193","CORAL HARBOUR A","2301002","NU","1.7","4","NA","12.6","0","-11.9","4","0.6","1","NA","3.2","0","NA","","1","","","NA","423.1","0.0"
"-83.350","64.183","CORAL HARBOUR RCS","2301010","NU","2.4","5","NA","12.6","5","-11.6","4","","","NA","0.9","6","NA","","0","","","NA","390.7","0.0"
"-100.884","61.132","ENNADAI LAKE (AUT)","2301102","NU","10.7","4","NA","28.6","3","-2.6","2","","","NA","25.1","5","NA","","8","","","NA","191.2","2.0"
"-94.067","61.100","ARVIAT CLIMATE","2301153","NU","5.5","1","NA","26.3","1","-3.5","1","","","NA","25.4","1","NA","","2","","","NA","362.6","0.0"
"-95.850","68.636","GJOA HAVEN A","2302337","NU","1.3","6","NA","11.3","6","-12.5","6","","","NA","5.2","6","NA","","2","","","NA","400.3","0.0"
"-95.850","68.636","GJOA HAVEN CLIMATE","2302340","NU","0.6","7","NA","11.4","7","-12.7","7","","","NA","8.8","7","NA","","5","","","NA","399.9","0.0"
"-100.087","68.318","HAT ISLAND","2302370","NU","3.1","19","NA","12.5","19","-2.2","19","","","NA","","","NA","","","","","NA","164.4","0.0"
"-89.726","68.437","CAM FOUR","2303093","NU","0.1","4","NA","13.8","3","-12.4","2","","","NA","","","NA","","","","","NA","464.3","0.0"
"-89.796","68.538","KUGAARUK CLIMATE","2303094","NU","2.1","3","NA","16.2","3","-13.7","2","","","NA","5.6","3","NA","","1","","","NA","428.7","0.0"
"-92.115","62.811","RANKIN INLET A","2303405","NU","4.3","2","NA","17.8","0","-7.8","2","0.0","2","NA","28.4","0","NA","","4","","","NA","384.7","0.0"
"-79.260","56.537","SANIKILUAQ","2303668","NU","1.3","1","NA","12.2","1","-3.9","1","","","NA","9.8","2","NA","","5","","","NA","485.5","0.0"
"-93.433","68.817","SHEPHERD BAY A","2303685","NU","-0.9","11","NA","11.7","11","-12.1","11","","","NA","","","NA","","","","","NA","358.5","0.0"
"-119.219","69.276","CROKER RIVER","230J01Q","NU","2.2","9","NA","16.3","9","-9.9","6","","","NA","","","NA","","","","","NA","332.5","0.0"
"-111.246","65.755","LUPIN CS","230N002","NU","7.7","2","NA","22.2","1","-3.9","1","","","NA","65.0","2","NA","","8","","","NA","287.3","0.0"
"-62.333","82.500","ALERT CLIMATE","2400305","NU","-0.8","1","NA","7.3","1","-9.6","1","","","NA","12.3","1","NA","","3","","","NA","543.9","0.0"
"-62.333","82.500","ALERT UA","2400306","NU","","","NA","","","","","11.4","0","NA","11.4","0","NA","0.0","3","","","NA","",""
"-85.012","72.993","ARCTIC BAY CS","2400404","NU","1.7","3","NA","10.5","3","-7.9","1","","","NA","11.1","3","NA","","2","","","NA","441.1","0.0"
"-64.146","63.340","BREVOORT ISLAND","2400565","NU","0.7","13","NA","6.9","13","-3.1","13","","","NA","","","NA","","","","","NA","293.7","0.0"
"-63.789","67.536","FOX FIVE","2400570","NU","-1.5","15","NA","11.0","15","-7.1","14","","","NA","","","NA","","","","","NA","292.5","0.0"
"-64.033","67.547","QIKIQTARJUAQ CLIMATE","2400573","NU","1.4","2","NA","11.3","2","-7.2","2","","","NA","","","NA","","","","","NA","465.8","0.0"
"-64.032","67.547","QIKIQTARJUAQ A","2400577","NU","1.2","8","NA","8.8","8","-7.4","6","","","NA","9.8","8","NA","","1","","","NA","369.3","0.0"
"-105.137","69.108","CAMBRIDGE BAY A","2400601","NU","1.9","0","NA","16.5","0","-13.1","0","0.0","0","NA","33.4","0","NA","","6","","","NA","482.1","0.0"
"-105.138","69.108","CAMBRIDGE BAY GSN","2400602","NU","1.6","8","NA","17.2","6","-12.2","8","","","NA","29.1","2","NA","","5","","","NA","361.3","0.0"
"-76.530","64.231","CAPE DORSET CLIMATE","2400636","NU","1.5","4","NA","10.4","4","-6.2","1","","","NA","38.2","5","NA","","6","","","NA","428.3","0.0"
"-76.525","64.230","CAPE DORSET A","2400637","NU","2.4","12","NA","10.3","12","-5.1","11","","","NA","26.7","12","NA","","2","","","NA","280.6","0.0"
"-66.815","68.473","CAPE HOOPER","2400660","NU","-0.6","0","NA","7.7","0","-6.9","0","","","NA","","","NA","","","","","NA","556.8","0.0"
"-78.293","73.668","CAPE LIVERPOOL","2400675","NU","1.8","10","NA","8.5","10","-2.2","10","","","NA","13.5","11","NA","28.0","4","","","NA","323.3","0.0"
"-107.823","69.036","CAPE PEEL WEST","2400697","NU","2.3","0","NA","17.6","0","-14.4","0","","","NA","","","NA","","","","","NA","470.4","0.0"
"-68.517","70.483","CLYDE RIVER CLIMATE","2400802","NU","1.1","26","NA","6.7","25","-2.4","25","","","NA","16.7","26","NA","","2","","","NA","67.7","0.0"
"-68.517","70.486","CLYDE RIVER A","2400804","NU","1.6","10","NA","11.6","10","-5.5","9","","","NA","9.6","10","NA","","1","","","NA","328.4","0.0"
"-63.578","64.958","CAPE MERCY","2400F63","NU","-1.9","1","NA","3.9","1","-7.6","0","","","NA","","","NA","","","","","NA","577.7","0.0"
"-71.167","68.650","DEWAR LAKES","2401030","NU","-0.5","1","NA","6.1","1","-9.0","1","","","NA","","","NA","","","","","NA","535.5","0.0"
"-85.934","79.989","EUREKA CLIMATE","2401199","NU","1.9","0","NA","14.5","0","-8.6","0","","","NA","5.0","0","NA","1.0","2","","","NA","481.7","0.0"
"-85.812","79.994","EUREKA A","2401203","NU","2.7","1","NA","14.3","1","-9.6","1","1.4","0","NA","8.4","1","NA","","2","","","NA","444.9","0.0"
"-94.198","72.018","FORT ROSS","2402051","NU","0.9","1","NA","10.4","1","-9.2","0","","","NA","26.9","8","NA","","4","","","NA","496.2","0.0"
"-82.902","76.423","GRISE FIORD CLIMATE","2402351","NU","0.7","1","NA","8.5","1","-8.5","1","","","NA","15.8","1","NA","","6","","","NA","501.8","0.0"
"-81.244","68.776","HALL BEACH CLIMATE","2402353","NU","1.0","1","NA","12.0","1","-9.3","1","","","NA","3.2","2","NA","","2","","","NA","492.9","0.0"
"-81.243","68.776","HALL BEACH A","2402354","NU","1.4","7","NA","12.2","7","-9.5","7","","","NA","3.2","8","NA","","2","","","NA","381.0","0.0"
"-68.544","63.747","IQALUIT CLIMATE","2402592","NU","1.8","5","NA","9.1","5","-4.6","5","","","NA","14.5","5","NA","","5","","","NA","403.8","0.0"
"-103.554","78.792","ISACHSEN (AUT)","2402604","NU","0.2","28","NA","2.8","28","-2.3","28","","","NA","0.0","28","NA","","0","","","NA","35.7","0.0"
"-65.711","66.143","PANGNIRTUNG","2403049","NU","1.5","4","NA","9.7","4","-4.7","4","","","NA","22.1","4","NA","","6","","","NA","430.0","0.0"
"-77.958","72.693","POND INLET CLIMATE","2403204","NU","3.1","2","NA","12.3","2","-4.4","2","","","NA","23.5","2","NA","","4","","","NA","417.3","0.0"
"-77.969","72.689","POND INLET A","2403206","NU","3.4","11","NA","11.9","11","-4.3","10","","","NA","17.9","11","NA","","3","","","NA","277.6","0.0"
"-94.969","74.717","RESOLUTE BAY A","2403498","NU","0.4","0","NA","10.3","0","-10.1","0","9.4","1","NA","12.8","0","NA","3.0","3","","","NA","527.5","0.0"
"-94.983","74.716","RESOLUTE CS","2403505","NU","0.1","3","NA","8.3","3","-9.8","2","","","NA","21.1","3","NA","","4","","","NA","483.4","0.0"
"-64.650","61.583","RESOLUTION ISLAND","2403602","NU","-1.7","0","NA","8.6","0","-5.8","0","","","NA","","","NA","","","","","NA","589.8","0.0"
"-79.033","69.083","ROWLEY ISLAND","2403625","NU","1.8","0","NA","12.6","0","-6.1","0","","","NA","","","NA","","","","","NA","486.4","0.0"
"-105.296","73.766","STEFANSSON ISLAND","2403756","NU","0.3","2","NA","7.1","2","-11.6","2","","","NA","7.2","4","NA","","1","","","NA","496.5","0.0"
"-91.816","81.161","SVARTEVAEG","2403833","NU","-0.4","0","NA","5.5","0","-8.6","0","","","NA","","","NA","","","","","NA","553.4","0.0"
"-93.577","69.547","TALOYOAK A","2403855","NU","1.2","1","NA","11.9","1","-12.8","1","5.6","0","NA","9.3","1","NA","","3","","","NA","488.6","0.0"
"-89.446","65.879","WAGER BAY (AUT)","2403945","NU","3.2","5","NA","16.3","5","-16.6","4","","","NA","3.2","5","NA","","1","","","NA","370.9","0.0"
"-119.989","74.139","NANGMAGVIK LAKE","2500440","NT","0.8","17","NA","6.5","16","-9.2","14","","","NA","5.7","18","NA","","2","","","NA","223.7","0.0"
"-112.161","74.457","CAPE PROVIDENCE","2501419","NT","0.5","3","NA","9.4","3","-9.7","3","","","NA","","","NA","","","","","NA","472.1","0.0"
"-117.800","70.761","HOLMAN CS","2502505","NT","3.4","3","NA","14.4","3","-9.1","2","","","NA","3.7","3","NA","","2","","","NA","393.5","0.0"
"-125.254","71.993","SACHS HARBOUR CLIMATE","2503648","NT","8.5","29","NA","11.2","29","5.8","29","","","NA","1.1","29","NA","","1","","","NA","9.5","0.0"
"-119.538","73.231","THOMSEN RIVER","2503886","NT","7.2","29","NA","10.7","29","3.6","29","","","NA","0.0","29","NA","","0","","","NA","10.8","0.0"
"-119.347","76.238","MOULD BAY CS","250M001","NT","0.1","5","NA","5.9","5","-8.2","4","","","NA","7.4","5","NA","","1","","","NA","447.2","0.0"
"-112.967","54.283","ABEE AGDM","3010010","AB","14.2","4","NA","27.9","3","1.7","4","","","NA","120.6","5","NA","","9","","","NA","101.1","3.0"
"-111.181","53.113","ALBERT HALL AGCM","3010060","AB","16.2","3","NA","32.0","3","3.7","2","","","NA","67.4","3","NA","","10","","","NA","70.5","21.3"
"-111.779","52.315","ALLIANCE AGCM","3010162","AB","15.9","0","NA","33.8","0","0.8","0","","","NA","48.6","1","NA","","9","","","NA","84.5","21.9"
"-112.279","53.917","ANDREW AGDM","3010237","AB","15.5","2","NA","28.4","2","4.6","1","","","NA","96.6","2","NA","","7","","","NA","86.8","17.9"
"-111.465","52.582","BELLSHILL AGCM","3010650","AB","16.1","6","NA","32.3","6","2.6","5","","","NA","42.5","8","NA","","7","","","NA","66.1","20.8"
"-110.101","52.124","BODO AGDM","3010730","AB","15.9","1","NA","31.7","1","2.6","1","","","NA","92.2","1","NA","","12","","","NA","80.3","18.8"
"-114.441","53.089","BRETON PLOTS","3010816","AB","14.1","2","NA","26.8","2","3.0","1","","","NA","79.5","2","NA","","8","","","NA","112.1","2.8"
"-113.922","53.931","BUSBY AGCM","3010979","AB","15.0","2","NA","28.7","2","0.4","1","","","NA","65.3","2","NA","","8","","","NA","94.9","11.4"
"-110.510","52.334","CADOGAN AGCM","3010992","AB","16.4","2","NA","31.9","2","2.2","2","","","NA","41.9","2","NA","","7","","","NA","68.2","23.3"
"-112.817","53.050","CAMROSE","3011240","AB","15.3","1","0.8","29.1","1","1.3","1","","","NA","33.3","1","NA","","7","","","NA","93.0","13.8"
"-110.713","51.937","CONSORT AGDM","3011815","AB","15.5","2","NA","32.2","2","2.9","2","","","NA","115.2","3","NA","","9","","","NA","82.2","11.0"
"-111.449","52.074","CORONATION CLIMATE","3011887","AB","15.0","2","NA","32.2","2","-0.1","1","","","NA","49.3","2","NA","","10","","","NA","93.7","10.8"
"-113.903","52.733","CRESTOMERE AGCM","3011892","AB","14.4","3","NA","28.5","3","1.7","3","","","NA","55.4","3","NA","","9","","","NA","101.5","3.7"
"-113.176","52.183","DELBURNE AGCM","3012050","AB","15.6","3","NA","27.9","3","4.7","2","","","NA","60.4","4","NA","","8","","","NA","75.6","11.7"
"-110.588","53.659","DEWBERRY AGCM","3012073","AB","15.8","3","NA","29.3","3","5.1","2","","","NA","72.9","3","NA","","7","","","NA","78.6","20.2"
"-110.433","52.778","EDGERTON AGCM","3012192","AB","15.6","10","NA","29.7","10","4.4","10","","","NA","19.9","12","NA","","3","","","NA","59.7","10.8"
"-113.606","53.307","EDMONTON INTERNATIONAL CS","3012206","AB","14.8","1","NA","28.6","1","1.1","1","","","NA","54.6","2","NA","","7","","","NA","102.5","9.0"
"-113.517","53.573","EDMONTON BLATCHFORD","3012209","AB","17.2","1","NA","29.6","1","4.3","1","","","NA","62.2","1","NA","","5","","","NA","60.3","36.8"
"-113.467","53.667","EDMONTON NAMAO AWOS A","3012212","AB","16.3","4","NA","28.7","4","4.5","4","","","NA","85.5","4","NA","","5","","","NA","63.1","20.1"
"-113.579","53.310","EDMONTON INTL A","3012216","AB","14.6","0","NA","28.8","0","1.1","0","0.0","0","NA","75.2","0","NA","","10","","","NA","110.9","9.3"
"-113.538","53.490","EDMONTON SOUTH CAMPUS","3012220","AB","16.8","0","NA","29.6","0","4.7","0","","","NA","51.8","0","NA","","4","","","NA","68.1","31.7"
"-113.856","53.668","EDMONTON VILLENEUVE A","3012229","AB","16.0","10","NA","28.9","10","3.3","10","","","NA","49.5","10","NA","","3","","","NA","54.0","13.6"
"-114.108","53.548","EDMONTON STONY PLAIN","301222F","AB","16.1","0","1.4","28.0","0","5.0","0","0.0","0","NA","77.0","0","96.0","0.0","8","","","NA","79.2","21.6"
"-112.868","53.683","ELK ISLAND NAT PARK","3012275","AB","15.8","3","1.2","29.8","3","3.9","2","","","NA","64.3","3","NA","","6","","","NA","80.3","20.6"
"-111.000","52.967","FABYAN","3012515","AB","16.5","0","1.9","32.0","0","4.0","0","0.0","0","NA","65.8","0","96.0","0.0","12","","","NA","71.0","24.5"
"-112.858","52.744","FERINTOSH AGCM","3012590","AB","14.8","7","NA","28.2","7","1.0","7","","","NA","38.8","8","NA","","6","","","NA","81.9","7.4"
"-111.813","52.041","FLEET AGCM","3012635","AB","15.3","0","NA","31.1","0","1.4","0","","","NA","70.8","0","NA","","11","","","NA","93.4","11.9"
"-112.120","52.467","FORESTBURG PLANT SITE","3012652","AB","16.8","0","1.0","30.5","0","4.0","0","0.0","0","NA","68.8","0","91.0","0.0","11","","","NA","65.7","30.6"
"-112.123","52.548","FORESTBURG AGCM","3012653","AB","16.0","2","NA","32.9","2","1.8","1","","","NA","101.1","2","NA","","9","","","NA","75.5","19.9"
"-113.183","53.717","FORT SASKATCHEWAN","3012710","AB","16.8","9","1.9","30.0","8","0.0","9","0.0","8","NA","13.1","8","NA","0.0","6","","","NA","45.4","21.0"
"-110.621","53.071","GILT EDGE NORTH AGCM","3012790","AB","16.4","9","NA","31.6","8","4.7","8","","","NA","29.0","8","NA","","6","","","NA","52.7","18.4"
"-114.320","53.295","ST. FRANCIS","3012799","AB","15.6","0","NA","27.7","0","4.6","0","","","NA","65.3","0","NA","","7","","","NA","88.9","17.1"
"-112.278","52.987","GLADSTONE AGCM","3012810","AB","15.2","0","NA","30.4","0","1.0","0","","","NA","54.9","0","NA","","9","","","NA","101.5","18.1"
"-114.539","53.833","GLENEVIS AGCM","3012818","AB","15.2","1","NA","28.6","1","2.4","1","","","NA","","","NA","","","","","NA","94.3","12.5"
"-110.803","52.113","GOOSEBERRY LAKE AGCM","3012871","AB","15.3","0","NA","31.7","0","0.4","0","","","NA","70.9","4","NA","","9","","","NA","95.8","15.0"
"-112.164","52.116","HALKIRK AGCM","3012999","AB","15.5","2","NA","29.8","2","1.9","2","","","NA","16.8","21","NA","","4","","","NA","81.7","11.4"
"-111.212","51.780","HEMARUKA AGCM","3013140","AB","15.4","1","NA","31.8","1","0.9","1","","","NA","57.6","6","NA","","6","","","NA","88.5","13.0"
"-112.246","53.185","HOLDEN AGDM","3013340","AB","15.4","0","NA","30.6","0","1.5","0","","","NA","33.3","5","NA","","8","","","NA","97.3","18.9"
"-110.784","52.578","HUGHENDEN AGCM","3013362","AB","16.0","6","NA","31.8","6","2.4","5","","","NA","63.7","6","NA","","11","","","NA","68.4","19.5"
"-111.872","52.848","KILLAM AGDM","3013640","AB","16.0","1","NA","32.5","1","1.9","1","","","NA","","","NA","","","","","NA","78.3","21.7"
"-111.548","53.047","KINSELLA RESEARC STATION","3013647","AB","15.3","0","NA","31.1","0","0.9","0","","","NA","46.7","0","NA","","9","","","NA","100.3","20.2"
"-110.416","53.353","KITSCOTY AGCM","3013660","AB","16.2","3","NA","29.4","2","3.9","3","","","NA","57.3","4","NA","","7","","","NA","73.1","25.3"
"-113.474","54.003","LEGAL AGCM","3013790","AB","16.0","3","NA","28.9","3","3.9","0","","","NA","41.6","3","NA","","5","","","NA","74.3","20.1"
"-110.579","53.943","LINDBERGH AGDM","3013921","AB","15.0","3","NA","28.8","3","3.8","3","","","NA","81.8","4","NA","","7","","","NA","93.0","12.3"
"-110.073","53.309","LLOYDMINSTER","3013959","AB","15.6","2","NA","28.7","2","3.9","2","","","NA","10.8","2","NA","","2","","","NA","84.5","18.4"
"-110.073","53.309","LLOYDMINSTER A","3013961","AB","15.9","0","1.3","29.0","0","4.0","0","0.0","0","NA","80.6","0","114.0","0.0","8","","","NA","85.2","22.0"
"-112.267","53.083","HOLDEN SOUTH","3013C44","AB","","","NA","","","","","0.0","0","0.0","66.4","0","94.0","0.0","13","","","NA","",""
"-111.255","53.456","MANNVILLE AGCM","3014195","AB","15.9","1","NA","29.4","1","2.8","1","","","NA","38.3","1","NA","","7","","","NA","85.5","23.8"
"-110.550","52.017","MONITOR","3014600","AB","","","NA","","","","","0.0","0","NA","114.8","0","149.0","0.0","13","","","NA","",""
"-112.300","53.567","MUNDARE AGDM","3014665","AB","14.6","7","NA","29.2","7","3.8","7","","","NA","35.1","7","NA","","6","","","NA","88.6","10.0"
"-111.114","53.720","MYRNAM AGCM","3014690","AB","15.4","7","NA","30.3","7","2.0","6","","","NA","33.1","7","NA","","4","","","NA","73.1","13.0"
"-113.165","53.262","NEW SAREPTA AGCM","3014795","AB","14.8","8","NA","28.6","7","1.6","4","","","NA","33.2","8","NA","","5","","","NA","77.8","8.1"
"-113.350","53.650","OLIVER AGDM","3014921","AB","15.0","5","NA","28.7","5","1.1","3","","","NA","","","NA","","","","","NA","84.5","9.4"
"-112.879","53.995","RADWAY AGCM","3015346","AB","15.2","1","NA","29.1","1","1.4","1","","","NA","","","NA","","","","","NA","94.1","13.8"
"-111.726","53.425","RANFURLY AUTO","3015401","AB","16.3","1","NA","30.6","1","3.8","1","","","NA","31.7","1","NA","","6","","","NA","78.2","28.9"
"-110.343","52.587","RIBSTONE SOUTH AGCM","3015480","AB","16.0","7","NA","29.4","7","3.4","5","","","NA","35.9","8","NA","","7","","","NA","59.1","12.6"
"-110.102","53.019","RIVERCOURSE AGCM","3015501","AB","16.1","2","NA","30.1","2","5.4","2","","","NA","49.8","2","NA","","6","","","NA","74.3","22.3"
"-114.912","52.421","ROCKY MTN HOUSE (AUT)","3015523","AB","13.1","2","NA","27.0","1","-0.1","2","","","NA","56.7","2","NA","","9","","","NA","138.2","0.2"
"-112.428","52.780","ROSALIND AGCM","3015600","AB","15.4","2","NA","30.0","2","1.2","1","","","NA","39.5","2","NA","","8","","","NA","87.5","14.9"
"-111.453","54.282","ST. LINA AGCM","3015673","AB","15.2","5","NA","28.7","5","2.2","5","","","NA","103.2","6","NA","","9","","","NA","88.9","18.1"
"-111.272","54.011","ST. PAUL AGCM","3015676","AB","16.1","1","NA","30.3","1","3.2","1","","","NA","86.7","2","NA","","9","","","NA","83.5","27.4"
"-110.755","51.590","SEDALIA AGCM","3015797","AB","16.2","1","NA","33.4","1","2.1","1","","","NA","38.0","1","NA","","8","","","NA","72.7","21.0"
"-112.539","53.333","SHONTS AGCM","3015900","AB","15.2","1","NA","30.0","1","1.0","1","","","NA","49.8","1","NA","","8","","","NA","95.3","14.2"
"-112.499","54.278","SMOKY LAKE AGDM","3016022","AB","14.8","1","NA","29.2","1","1.9","1","","","NA","138.8","2","NA","","8","","","NA","106.2","14.0"
"-111.683","51.816","SPONDIN AGCM","3016070","AB","15.3","1","NA","31.8","1","1.8","1","","","NA","77.5","18","NA","","8","","","NA","87.2","8.9"
"-112.596","52.347","STETTLER AGDM","3016124","AB","15.8","3","NA","30.0","3","3.7","1","","","NA","46.9","3","NA","","8","","","NA","75.1","15.2"
"-113.895","53.217","THORSBY AGCM","3016441","AB","14.6","2","NA","28.3","2","1.3","2","","","NA","47.3","3","NA","","6","","","NA","100.2","5.8"
"-114.718","53.439","TOMAHAWK AGDM","3016505","AB","14.6","1","NA","27.3","1","3.8","1","","","NA","71.7","1","NA","","6","","","NA","105.3","5.7"
"-110.081","53.664","TULLIBY LAKE AGCM","3016593","AB","15.2","8","NA","29.3","8","5.2","8","","","NA","50.4","9","NA","","7","","","NA","72.1","10.7"
"-113.033","53.500","UNCAS","3016650","AB","","","NA","","","","","0.0","0","NA","70.6","0","NA","0.0","7","","","NA","",""
"-111.678","53.625","TWO HILLS AGDM","3016655","AB","16.3","3","NA","28.9","3","4.0","1","","","NA","37.1","3","NA","","7","","","NA","72.6","26.2"
"-110.882","53.344","VERMILION AGDM","3016802","AB","16.3","3","NA","30.5","3","4.0","2","","","NA","47.0","3","NA","","9","","","NA","70.8","23.8"
"-111.732","53.182","VIKING AGCM","3016841","AB","16.0","1","NA","31.1","1","4.4","1","","","NA","55.7","2","NA","","8","","","NA","81.5","23.5"
"-111.921","54.130","VILNA AGCM","3016852","AB","15.4","2","NA","29.9","2","2.3","1","","","NA","92.2","3","NA","","6","","","NA","86.6","13.4"
"-115.126","53.144","VIOLET GROVE CS","3016860","AB","14.0","1","NA","26.8","1","1.5","1","","","NA","65.7","2","NA","","8","","","NA","119.4","2.5"
"-112.098","53.505","VEGREVILLE","3016GF0","AB","16.2","3","1.7","30.5","3","4.3","1","","","NA","","","NA","","","","","NA","74.2","24.4"
"-113.444","52.980","WETASKIWIN AGCM","3017282","AB","14.8","2","NA","28.6","2","1.4","2","","","NA","82.1","3","NA","","5","","","NA","96.1","6.0"
"-111.224","51.491","YOUNGSTOWN AGCM","3017705","AB","16.1","0","NA","31.7","0","2.6","0","","","NA","44.0","0","NA","","9","","","NA","79.0","20.6"
"-114.108","53.547","EDMONTON STONY PLAIN CS","301A001","AB","15.5","1","NA","27.6","1","4.6","1","","","NA","62.4","1","NA","","6","","","NA","86.9","15.4"
"-110.206","51.670","ESTHER 1","301B460","AB","15.7","11","NA","29.2","11","0.6","9","","","NA","68.3","11","NA","","5","","","NA","52.3","9.0"
"-113.533","53.517","UNIVERSITY OF ALBERTA METABOLIC CENTRE","301FFNJ","AB","17.3","0","2.2","30.0","0","4.5","0","0.0","0","NA","64.4","0","87.0","0.0","9","","","NA","56.9","36.2"
"-111.096","52.829","WAINWRIGHT CFB AIRFIELD 21","301S001","AB","16.3","2","NA","31.8","2","2.1","2","","","NA","83.3","2","NA","","8","","","NA","72.9","24.9"
"-110.317","51.066","ACADIA VALLEY","3020035","AB","17.1","2","NA","34.4","2","4.8","1","","","NA","60.7","2","NA","","8","","","NA","51.9","26.9"
"-111.006","50.810","ATLEE AGCM","3020405","AB","16.9","1","NA","33.0","1","4.4","1","","","NA","83.6","1","NA","","7","","","NA","60.1","27.3"
"-113.357","51.379","BEISEKER AGCM","3020610","AB","14.7","2","NA","28.9","2","0.6","2","","","NA","49.7","2","NA","","8","","","NA","97.4","3.8"
"-112.803","51.998","BIG VALLEY AGCM","3020679","AB","15.9","1","NA","29.0","1","3.4","1","","","NA","84.5","2","NA","","10","","","NA","77.1","17.2"
"-110.686","50.798","BUFFALO AGCM","3020950","AB","17.0","0","NA","34.1","0","4.2","0","","","NA","92.7","0","NA","","8","","","NA","53.2","23.9"
"-111.221","51.024","CABIN LAKE AGCM","3021000","AB","16.5","0","NA","34.1","0","1.2","0","","","NA","29.4","16","NA","","5","","","NA","70.2","24.5"
"-110.797","51.067","CAPPON","3021200","AB","16.5","0","NA","33.2","0","2.3","0","","","NA","86.6","1","NA","","9","","","NA","70.3","24.6"
"-110.824","51.276","CEREAL AGCM","3021463","AB","16.5","0","NA","34.0","0","3.5","0","","","NA","64.5","1","NA","","10","","","NA","72.9","26.7"
"-112.252","51.775","CRAIGMYLE AGCM","3021912","AB","15.7","1","NA","30.0","1","2.8","1","","","NA","56.7","1","NA","","9","","","NA","83.3","15.8"
"-112.283","51.767","CRAIGMYLE","3021940","AB","15.2","4","0.6","30.5","4","2.0","4","0.0","4","NA","68.4","4","NA","0.0","8","","","NA","83.8","11.9"
"-112.677","51.445","DRUMHELLER EAST","30221LG","AB","16.7","1","NA","30.8","1","4.3","1","","","NA","82.7","1","NA","","12","","","NA","59.1","22.3"
"-112.097","51.053","FINNEGAN AGCM","3022650","AB","15.6","0","NA","30.2","0","2.9","0","","","NA","60.7","11","NA","","10","","","NA","83.4","11.5"
"-112.135","51.453","HAND HILLS AGCM","3022990","AB","14.9","0","NA","29.6","0","2.1","0","","","NA","98.2","0","NA","","10","","","NA","100.6","7.9"
"-114.486","52.310","HESPERO AGCM","3023200","AB","13.6","1","NA","27.2","1","0.6","1","","","NA","54.9","1","NA","","8","","","NA","128.7","0.1"
"-112.500","51.183","HUSSAR AGDM","3023402","AB","14.8","2","NA","27.9","2","3.7","2","","","NA","86.2","2","NA","","10","","","NA","97.8","8.3"
"-110.359","51.913","KIRRIEMUIR AGCM","3023660","AB","16.3","0","NA","32.6","0","2.5","0","","","NA","104.1","0","NA","","13","","","NA","75.4","23.4"
"-113.756","52.449","LACOMBE CDA 2","3023722","AB","14.7","1","NA","28.2","1","2.0","1","","","NA","53.6","1","NA","","7","","","NA","101.9","5.4"
"-114.473","52.553","LEEDALE AGDM","3023740","AB","13.2","1","NA","27.1","1","-0.3","1","","","NA","37.0","4","NA","","7","","","NA","139.5","0.0"
"-113.656","51.619","LINDEN AGCM","3023850","AB","14.3","1","NA","29.2","1","1.8","1","","","NA","81.7","2","NA","","9","","","NA","108.0","1.6"
"-110.341","49.458","LODGE CREEK","3023900","AB","14.3","0","NA","31.2","0","0.0","0","","","NA","27.6","1","NA","","5","","","NA","113.7","3.4"
"-112.675","51.660","MORRIN AGDM","3024668","AB","15.1","1","NA","28.9","1","2.3","1","","","NA","83.6","1","NA","","9","","","NA","94.5","11.5"
"-114.085","51.759","OLDS AGDM","3024925","AB","14.4","5","NA","26.8","5","2.7","3","","","NA","69.1","5","NA","","4","","","NA","89.8","0.0"
"-110.350","51.383","OYEN AGDM","3024965","AB","15.5","11","NA","29.3","11","4.2","10","","","NA","12.6","11","NA","","5","","","NA","52.8","5.4"
"-111.621","50.740","PATRICIA AGCM","3025013","AB","16.5","0","NA","33.5","0","3.3","0","","","NA","38.6","1","NA","","5","","","NA","67.8","23.9"
"-111.705","51.125","POLLOCKVILLE AGDM","3025243","AB","15.8","1","NA","33.2","1","0.5","1","","","NA","59.5","2","NA","","11","","","NA","83.5","19.5"
"-113.600","52.433","PRENTISS","3025297","AB","15.0","1","NA","26.9","1","3.0","1","","","NA","59.2","1","NA","","8","","","NA","94.4","6.7"
"-113.894","52.182","RED DEER REGIONAL A","3025481","AB","14.2","0","NA","27.3","0","1.6","0","","","NA","","","NA","","","","","NA","117.2","2.7"
"-113.620","53.692","ST. ALBERT RESEARCH STATION","3025750","AB","15.2","0","NA","29.3","0","2.6","0","","","NA","83.9","0","NA","","17","","","NA","97.4","14.8"
"-110.091","50.307","SCHULER AGDM","3025768","AB","15.9","2","NA","33.0","2","4.5","1","","","NA","35.4","2","NA","","5","","","NA","69.3","11.3"
"-111.646","51.463","SHEERNESS AGCM","3025890","AB","16.0","0","NA","31.6","0","4.1","0","","","NA","136.5","0","NA","","13","","","NA","80.5","19.4"
"-110.146","51.425","SIBBALD WESTGARD","3025928","AB","17.7","8","NA","34.5","8","2.0","8","0.0","8","NA","84.4","8","NA","0.0","10","","","NA","34.3","27.2"
"-111.388","51.301","SUNNYNOOK AGCM","3026264","AB","15.3","0","NA","32.6","0","0.0","0","","","NA","70.5","0","NA","","12","","","NA","99.0","17.8"
"-113.206","51.768","THREE HILLS","3026479","AB","15.1","1","NA","29.1","1","1.9","1","","","NA","41.1","2","NA","","10","","","NA","89.9","5.2"
"-111.955","50.895","VERGER","3026800","AB","15.6","0","NA","30.8","0","1.5","0","","","NA","46.2","0","NA","","9","","","NA","84.9","14.0"
"-114.683","51.778","SUNDRE A","3026KNQ","AB","12.7","2","NA","26.2","2","-1.8","2","","","NA","76.4","3","NA","","7","","","NA","149.1","0.0"
"-113.591","51.936","WIMBORNE AGCM","3027582","AB","14.8","1","NA","28.0","1","1.6","1","","","NA","65.3","2","NA","","6","","","NA","96.5","3.5"
"-113.434","49.528","ARDENVILLE","3030200","AB","14.3","0","NA","26.5","0","4.0","0","","","NA","73.7","1","NA","","7","","","NA","115.5","3.3"
"-114.013","50.512","AZURE","3030450","AB","14.2","1","NA","28.2","1","1.9","1","","","NA","58.6","1","NA","","7","","","NA","111.2","1.3"
"-112.300","49.800","BARNWELL AGDM","3030525","AB","16.5","2","NA","30.2","2","3.9","2","","","NA","45.8","3","NA","","8","","","NA","58.9","17.9"
"-113.224","50.026","BARONS AGCM","3030529","AB","15.2","1","NA","28.6","1","2.2","1","","","NA","31.4","1","NA","","4","","","NA","84.6","4.4"
"-112.465","50.893","BASSANO AGCM","3030540","AB","15.8","1","NA","29.6","1","2.2","1","","","NA","71.0","2","NA","","8","","","NA","74.9","10.2"
"-114.152","50.707","BLACK DIAMOND","3030680","AB","13.1","3","NA","26.9","3","1.1","3","","","NA","50.2","26","NA","","3","","","NA","131.4","0.0"
"-113.640","50.546","BLACKIE AGCM","3030690","AB","14.2","0","NA","28.0","0","1.6","0","","","NA","45.4","0","NA","","7","","","NA","115.7","2.6"
"-113.050","49.567","BLOOD TRIBE AGDM","3030720","AB","14.6","2","NA","28.2","2","3.2","2","","","NA","37.0","11","NA","","7","","","NA","96.7","2.4"
"-111.450","49.734","BOW ISLAND","3030768","AB","17.2","1","NA","32.7","1","5.7","1","","","NA","33.8","2","NA","","6","","","NA","46.6","23.3"
"-111.383","49.867","BOW ISLAND IRRIGATION AGDM","3030772","AB","17.6","1","NA","34.5","1","5.7","1","","","NA","30.1","1","NA","","7","","","NA","41.9","30.4"
"-113.817","49.617","BROCKET AGDM","3030830","AB","14.5","1","NA","26.6","1","4.8","1","","","NA","36.6","4","NA","","7","","","NA","101.7","0.2"
"-110.484","50.339","BULL SPRINGS AGCM","3030879","AB","17.1","0","NA","34.6","0","5.2","0","","","NA","53.2","0","NA","","6","","","NA","52.9","26.5"
"-111.849","50.555","BROOKS","3030QLP","AB","16.7","2","NA","33.2","2","2.7","2","","","NA","45.8","2","NA","","7","","","NA","60.3","23.1"
"-114.013","51.123","CALGARY INTL A","3031092","AB","15.2","2","NA","27.6","0","3.1","2","0.0","1","NA","67.7","0","NA","","7","","","NA","86.4","8.6"
"-114.000","51.109","CALGARY INT'L CS","3031094","AB","14.8","1","NA","27.4","1","2.8","1","","","NA","63.0","2","NA","","6","","","NA","97.1","3.7"
"-113.286","49.201","CARDSTON","3031322","AB","14.4","2","NA","28.0","2","2.5","1","","","NA","47.3","2","NA","","9","","","NA","108.3","6.5"
"-113.376","49.001","CARWAY","3031402","AB","12.7","1","NA","25.1","1","1.4","1","","","NA","65.8","1","NA","","8","","","NA","153.6","0.1"
"-113.350","50.282","CHAMPION AGDM","3031480","AB","14.9","2","NA","28.5","2","1.1","2","","","NA","48.4","2","NA","","6","","","NA","90.4","4.2"
"-113.639","50.004","CLARESHOLM","3031640","AB","15.0","1","NA","27.8","1","3.0","1","","","NA","28.8","1","NA","","4","","","NA","90.0","1.8"
"-114.222","51.076","COP UPPER","3031875","AB","14.8","2","NA","27.3","2","3.3","1","","","NA","91.6","2","NA","","9","","","NA","94.2","5.5"
"-112.433","50.183","ENCHANT AGDM","3032422","AB","16.9","2","NA","30.3","2","4.9","2","","","NA","54.9","3","NA","","6","","","NA","51.0","19.8"
"-111.054","49.553","ETZIKOM AGCM","3032450","AB","16.5","2","NA","34.4","2","5.1","1","","","NA","39.4","2","NA","","6","","","NA","62.7","20.1"
"-112.033","49.800","FINCASTLE AGDM","3032550","AB","17.0","1","NA","31.5","1","5.4","1","","","NA","35.9","3","NA","","5","","","NA","50.7","21.8"
"-111.486","49.483","FOREMOST AGDM","3032642","AB","17.4","21","NA","30.8","20","4.5","18","","","NA","0.5","21","NA","","0","","","NA","12.9","7.9"
"-113.379","49.786","FORT MACLEOD AGCM","3032683","AB","15.1","1","NA","28.0","1","4.0","1","","","NA","51.7","11","NA","","8","","","NA","87.2","3.8"
"-112.941","50.934","GLEICHEN AGCM","3032801","AB","15.2","1","NA","29.1","1","3.3","1","","","NA","56.3","1","NA","","8","","","NA","88.1","7.0"
"-111.733","49.874","GRASSY LAKE","3032927","AB","17.2","2","NA","33.2","2","5.0","2","","","NA","40.3","4","NA","","5","","","NA","47.6","25.4"
"-112.733","49.900","IRON SPRINGS AGDM","3033498","AB","15.5","5","NA","27.8","5","4.6","5","","","NA","56.2","5","NA","","8","","","NA","68.1","6.3"
"-114.292","50.869","PRIDDIS OBSERVATORY","3033505","AB","13.2","4","NA","26.0","4","1.8","4","","","NA","69.7","14","NA","","5","","","NA","126.6","0.9"
"-110.261","49.989","IRVINE AGCM","3033550","AB","17.2","2","NA","34.3","2","5.7","1","","","NA","34.6","2","NA","","6","","","NA","49.0","26.6"
"-113.631","51.191","KEOMA AGCM","3033620","AB","14.4","0","NA","28.4","0","1.6","0","","","NA","50.5","0","NA","","6","","","NA","110.8","1.8"
"-112.299","50.600","LATHOM AGCM","3033770","AB","16.0","0","NA","30.0","0","3.4","0","","","NA","137.2","4","NA","","10","","","NA","72.7","14.1"
"-112.799","49.630","LETHBRIDGE","3033875","AB","15.8","5","NA","29.2","5","4.2","5","","","NA","45.8","5","NA","","7","","","NA","63.5","8.7"
"-112.763","49.647","LETHBRIDGE AGTECH AGCM","3033877","AB","16.1","0","NA","30.3","0","3.5","0","","","NA","46.6","5","NA","","7","","","NA","68.3","11.4"
"-112.768","49.695","LETHBRIDGE CDA","3033890","AB","","","NA","","","","","","","NA","43.1","0","NA","0.0","8","","","NA","",""
"-112.750","49.683","LETHBRIDGE DEMO FARM AGDM","3033897","AB","15.8","3","NA","28.7","3","5.3","2","","","NA","47.0","3","NA","","9","","","NA","67.3","8.2"
"-110.721","50.019","MEDICINE HAT","3034479","AB","18.0","11","NA","31.3","11","6.0","11","","","NA","21.5","11","NA","","2","","","NA","21.1","21.3"
"-110.717","50.025","MEDICINE HAT RCS","3034485","AB","17.7","3","NA","34.8","3","5.8","2","","","NA","27.5","3","NA","","4","","","NA","39.0","29.9"
"-113.349","50.673","MOSSLEIGH AGCM","3034577","AB","15.0","3","NA","28.9","3","1.7","3","","","NA","72.7","3","NA","","8","","","NA","86.5","6.2"
"-114.099","51.369","NIER AGDM","3034795","AB","13.2","5","NA","26.3","5","1.8","4","","","NA","55.3","5","NA","","7","","","NA","120.0","0.0"
"-113.997","49.521","PINCHER CREEK","3035198","AB","14.2","8","NA","26.5","8","4.5","7","","","NA","41.6","8","NA","","5","","","NA","84.5","1.2"
"-114.005","49.522","PINCHER CREEK CLIMATE","3035208","AB","13.8","4","NA","26.5","4","4.1","3","","","NA","42.6","4","NA","","5","","","NA","109.8","1.0"
"-112.983","50.606","QUEENSTOWN","3035340","AB","14.5","0","-0.3","29.0","0","-0.5","0","0.0","0","NA","67.0","0","87.0","0.0","8","","","NA","105.9","2.3"
"-112.803","50.598","QUEENSTOWN","3035342","AB","15.7","4","NA","29.3","4","2.8","3","","","NA","35.7","4","NA","","6","","","NA","71.2","11.5"
"-112.117","50.367","RAINIER AGCM","3035355","AB","16.5","0","NA","31.3","0","2.1","0","","","NA","58.1","1","NA","","6","","","NA","65.1","20.3"
"-111.213","50.099","RALSTON AGCM","3035362","AB","17.2","0","NA","34.0","0","4.9","0","","","NA","24.5","1","NA","","4","","","NA","52.6","27.8"
"-112.683","49.483","RAYMOND AGDM","3035422","AB","15.7","7","NA","28.9","7","5.1","5","","","NA","34.0","7","NA","","6","","","NA","63.2","11.2"
"-111.701","50.265","ROLLING HILLS AGCM","3035530","AB","16.7","2","NA","33.1","2","3.5","1","","","NA","23.3","3","NA","","4","","","NA","56.1","18.4"
"-112.050","50.833","ROSEMARY AGDM","3035650","AB","15.5","1","NA","30.7","1","0.7","1","","","NA","46.5","2","NA","","8","","","NA","82.5","10.3"
"-110.917","49.917","SEVEN PERSONS AGDM","3035845","AB","16.7","3","NA","34.2","3","3.3","3","","","NA","24.8","3","NA","","3","","","NA","54.8","20.8"
"-110.215","50.732","SOCIAL PLAINS AGCM","3036040","AB","17.1","0","NA","34.8","0","3.6","0","","","NA","42.0","0","NA","","10","","","NA","54.2","26.8"
"-112.982","51.228","STANDARD AGCM","3036086","AB","16.0","1","NA","29.2","1","4.2","1","","","NA","73.9","2","NA","","7","","","NA","71.8","14.5"
"-113.883","50.183","STAVELY AAFC","3036099","AB","13.5","2","NA","24.2","2","3.8","1","","","NA","78.9","2","NA","","8","","","NA","125.1","0.3"
"-113.283","51.033","STRATHMORE AGDM","3036205","AB","15.2","2","NA","27.9","2","3.7","1","","","NA","48.8","11","NA","","3","","","NA","85.0","6.3"
"-112.124","49.792","TABER","3036360","AB","17.7","15","NA","31.5","11","6.5","10","0.0","11","NA","27.5","11","NA","","5","","","NA","15.8","12.0"
"-111.321","50.456","TIDE LAKE AGCM","3036485","AB","16.6","0","NA","33.8","0","3.3","0","","","NA","55.7","0","NA","","8","","","NA","66.4","23.9"
"-112.863","50.304","TRAVERS AGCM","3036500","AB","16.2","1","NA","29.0","1","5.2","1","","","NA","31.5","1","NA","","7","","","NA","64.2","13.2"
"-112.133","50.050","VAUXHALL CDA CS","3036682","AB","16.9","2","NA","31.5","2","4.4","1","","","NA","","","NA","","","","","NA","51.0","19.6"
"-112.117","49.500","WRENTHAM AGDM","3037675","AB","16.8","13","NA","29.7","12","5.9","12","","","NA","16.5","13","NA","","2","","","NA","29.8","9.9"
"-113.961","50.729","OKOTOKS","303M9JM","AB","15.1","0","1.4","29.0","0","0.0","0","0.0","0","NA","77.6","0","63.0","0.0","8","","","NA","94.3","6.4"
"-112.788","49.871","PICTURE BUTTE WEST","303N1G3","AB","16.1","0","NA","30.5","0","4.0","0","0.0","0","NA","60.0","0","NA","0.0","8","","","NA","68.7","11.7"
"-112.817","49.050","DEL BONITA AGDM","3042045","AB","12.6","4","NA","26.9","4","1.7","4","","","NA","89.4","4","NA","","9","","","NA","140.3","0.0"
"-110.678","49.364","MANYBERRIES AGCM","3044203","AB","15.2","1","NA","32.7","1","0.6","1","","","NA","39.4","3","NA","","3","","","NA","95.1","15.1"
"-111.652","49.137","MASINASIN AGDM","3044232","AB","15.8","7","NA","32.5","6","4.5","4","","","NA","47.7","9","NA","","5","","","NA","59.1","9.5"
"-112.050","49.133","MILK RIVER","3044533","AB","15.1","2","NA","30.6","2","2.6","1","","","NA","56.0","2","NA","","8","","","NA","92.9","11.0"
"-110.467","49.117","ONEFOUR CDA","3044923","AB","16.1","0","NA","33.0","0","2.8","0","","","NA","52.8","0","NA","","5","","","NA","71.5","14.7"
"-111.126","49.225","PAKOWKI LAKE AGCM","3045000","AB","16.3","2","NA","33.2","2","5.0","1","","","NA","38.4","3","NA","","7","","","NA","65.8","18.5"
"-111.025","49.029","PINHORN AGCM","3045100","AB","15.4","0","NA","30.9","0","5.3","0","","","NA","50.7","1","NA","","8","","","NA","87.3","9.8"
"-112.160","49.283","WARNER AGCM","3046951","AB","15.1","0","NA","29.4","0","3.5","0","","","NA","50.2","2","NA","","7","","","NA","97.6","10.3"
"-115.552","51.193","BANFF CS","3050519","AB","11.9","3","NA","27.7","3","-0.1","2","","","NA","47.8","3","NA","","10","","","NA","165.0","0.0"
"-114.175","49.468","BEAVER MINES","3050602","AB","12.9","3","NA","25.7","3","2.1","3","","","NA","43.6","4","NA","","6","","","NA","136.4","0.0"
"-115.067","51.083","BOW VALLEY","3050778","AB","12.8","1","NA","27.5","1","-2.1","1","","","NA","88.3","1","NA","","9","","","NA","152.1","0.2"
"-114.482","49.628","CROWSNEST","3051R4R","AB","11.5","6","NA","27.0","6","-0.6","6","","","NA","28.0","7","NA","","8","","","NA","156.3","0.0"
"-118.030","52.926","JASPER WARDEN","3053536","AB","13.7","3","NA","32.7","3","0.8","3","","","NA","40.6","3","NA","","7","","","NA","120.1","4.0"
"-115.035","51.028","KANANASKIS","3053600","AB","12.9","0","1.4","27.0","0","0.0","0","0.0","0","0.0","105.5","0","88.0","0.0","12","","","NA","154.4","0.0"
"-115.120","50.713","KANANASKIS POCATERRA","3053604","AB","","","","19.0","27","0.0","27","0.0","27","NA","9.7","27","NA","","1","","","NA","",""
"-116.040","52.492","NORDEGG CS","3054843","AB","11.5","3","NA","27.7","3","-2.9","3","","","NA","54.9","3","NA","","7","","","NA","174.9","0.0"
"-114.416","50.368","PEKISKO","3055119","AB","11.8","3","NA","25.0","3","-1.1","2","","","NA","84.1","3","NA","","7","","","NA","168.3","0.0"
"-113.809","49.131","WATERTON PARK GATE","3056214","AB","13.2","2","NA","26.6","2","1.2","2","","","NA","44.4","3","NA","","5","","","NA","137.7","2.4"
"-115.190","50.943","NAKISKA RIDGETOP","305MGFF","AB","5.6","1","NA","17.2","1","-3.6","1","","","NA","","","NA","","","","","NA","358.5","0.0"
"-113.382","54.635","ATHABASCA AGCM","3060330","AB","15.1","1","NA","28.3","1","2.0","1","","","NA","127.0","6","NA","","12","","","NA","100.5","16.5"
"-112.825","54.782","ATMORE AGDM","3060406","AB","14.4","3","NA","28.7","3","0.6","2","","","NA","109.4","3","NA","","9","","","NA","106.0","9.0"
"-114.448","54.095","BARRHEAD CS","3060535","AB","15.6","2","NA","29.3","2","2.3","1","","","NA","66.5","2","NA","","6","","","NA","81.7","15.5"
"-117.867","53.350","BRULE BLACK CAT","3060903","AB","13.5","2","1.5","30.5","2","-1.0","1","0.0","0","NA","43.6","0","53.0","0.0","7","","","NA","127.8","2.1"
"-114.678","54.131","CAMPSIE AUTO","3061201","AB","14.7","1","NA","28.2","1","1.2","1","","","NA","69.3","1","NA","","6","","","NA","104.5","7.7"
"-115.894","53.623","CARROT CREEK","3061350","AB","13.3","0","NA","28.7","0","0.8","0","","","NA","79.1","0","NA","","9","","","NA","142.4","1.7"
"-113.950","54.317","DAPP AGDM","3061975","AB","14.7","5","NA","27.7","5","1.1","4","","","NA","97.7","5","NA","","10","","","NA","90.0","8.5"
"-116.465","53.579","EDSON","3062239","AB","13.5","7","NA","27.9","7","0.3","6","","","NA","66.8","7","NA","","7","","","NA","104.0","0.2"
"-116.453","53.580","EDSON CLIMATE","3062246","AB","13.9","1","NA","28.5","1","1.2","1","","","NA","66.0","1","NA","","7","","","NA","122.1","4.1"
"-114.983","53.600","ENTWISTLE","3062451","AB","15.4","4","1.1","29.0","4","3.0","4","0.0","4","NA","82.4","4","NA","0.0","8","","","NA","78.0","10.4"
"-115.062","53.614","EVANSBURG2 AGCM","3062476","AB","13.6","2","NA","28.2","2","-1.2","2","","","NA","54.8","2","NA","","6","","","NA","123.9","1.0"
"-114.769","54.410","FORT ASSINIBOINE AGCM","3062660","AB","14.7","5","NA","28.4","5","2.6","3","","","NA","24.3","5","NA","","6","","","NA","89.4","7.6"
"-111.213","56.651","FORT MCMURRAY CS","3062696","AB","16.5","2","NA","34.6","2","-0.4","1","","","NA","113.7","2","NA","","11","","","NA","87.3","46.0"
"-111.223","56.653","FORT MCMURRAY A","3062697","AB","17.0","10","NA","34.7","10","4.0","10","","","NA","80.1","10","NA","","10","","","NA","58.0","37.0"
"-118.447","53.795","HENDRICKSON CREEK","3063135","AB","9.2","3","NA","28.0","3","-6.3","2","","","NA","","","NA","","","","","NA","236.7","0.0"
"-113.543","54.821","ISLAND LAKE SOUTH","3063600","AB","14.8","0","NA","28.3","0","3.3","0","","","NA","109.2","1","NA","","12","","","NA","113.5","16.0"
"-112.981","54.563","KINIKINIK","3063640","AB","15.3","0","NA","29.5","0","0.6","0","","","NA","124.6","2","NA","","10","","","NA","102.2","20.0"
"-112.024","54.769","LAC LA BICHE CLIMATE","3063686","AB","15.7","2","NA","29.9","2","2.4","2","","","NA","119.0","2","NA","","9","","","NA","87.5","22.8"
"-111.559","57.041","MILDRED LAKE","3064528","AB","16.9","1","NA","35.3","1","2.0","1","","","NA","110.7","1","NA","","14","","","NA","88.0","56.8"
"-113.321","54.964","PLEASANT VIEW","3065200","AB","14.7","0","NA","28.3","0","2.5","0","","","NA","91.3","0","NA","","9","","","NA","116.7","17.0"
"-111.700","54.500","RICH LAKE AGDM","3065475","AB","14.3","1","NA","28.7","1","1.9","1","","","NA","79.1","1","NA","","12","","","NA","118.2","10.5"
"-111.835","53.851","ISPAS","3065712","AB","16.2","2","NA","28.5","2","3.9","2","","","NA","83.4","2","NA","","9","","","NA","74.8","23.2"
"-114.777","55.293","SLAVE LAKE","3065995","AB","15.8","7","NA","30.0","7","4.5","7","","","NA","55.8","7","NA","","5","","","NA","63.5","14.0"
"-114.777","55.293","SLAVE LAKE RCS","3065997","AB","14.6","2","NA","29.7","2","3.2","2","","","NA","107.5","2","NA","","5","","","NA","107.3","11.9"
"-113.520","54.300","TAWATINAW AGCM","3066367","AB","16.1","9","NA","28.5","7","2.9","5","","","NA","41.4","9","NA","","5","","","NA","58.9","18.0"
"-115.787","54.144","WHITECOURT A","3067373","AB","","","NA","27.7","0","","","","","NA","","","NA","","","","","NA","",""
"-118.348","53.386","WILLOW CREEK 1","306GE70","AB","10.1","2","NA","28.8","2","-6.6","1","","","NA","16.5","2","NA","","5","","","NA","220.9","0.0"
"-117.236","55.577","BALLATER AGCM","3070495","AB","14.7","0","NA","31.9","0","-8.6","0","","","NA","44.5","2","NA","","10","","","NA","121.6","22.1"
"-119.396","55.197","BEAVERLODGE RCS","3070600","AB","14.3","1","NA","31.1","1","0.3","1","","","NA","47.6","1","NA","","7","","","NA","121.1","13.6"
"-117.886","56.118","BROWNVALE AGCM","3070800","AB","14.8","1","NA","32.4","1","1.1","1","","","NA","44.2","15","NA","","8","","","NA","112.5","18.8"
"-117.933","56.529","CLEAR HILLS AGCM","3071661","AB","13.9","1","NA","32.0","1","0.5","1","","","NA","65.1","13","NA","","7","","","NA","134.7","16.3"
"-117.543","56.715","DEADWOOD AGCM","3071957","AB","14.7","0","NA","32.7","0","1.8","0","","","NA","104.2","2","NA","","10","","","NA","125.7","25.9"
"-117.887","55.808","EAGLESHAM AGCM","3072151","AB","15.4","1","NA","32.7","1","1.6","1","","","NA","45.6","1","NA","","9","","","NA","99.9","23.3"
"-110.439","58.981","EGG ISLAND","3072246","AB","16.6","29","NA","19.2","29","7.4","23","","","NA","","","NA","","","","","NA","1.4","0.0"
"-118.439","56.081","FAIRVIEW AGDM","3072525","AB","15.0","1","NA","32.2","1","1.5","1","","","NA","76.7","2","NA","","9","","","NA","108.9","22.6"
"-111.117","58.767","FORT CHIPEWYAN","3072655","AB","17.8","10","NA","32.8","10","-0.1","9","","","NA","51.3","10","NA","","9","","","NA","45.8","41.1"
"-111.117","58.767","FORT CHIPEWYAN RCS","3072659","AB","16.0","1","NA","32.9","1","-0.4","1","","","NA","54.0","1","NA","","9","","","NA","100.5","42.5"
"-116.040","58.382","FORT VERMILION","3072723","AB","15.5","1","NA","33.4","1","1.3","1","","","NA","103.3","1","NA","","12","","","NA","109.0","37.1"
"-118.885","55.180","GRANDE PRAIRIE A","3072921","AB","14.7","0","NA","31.7","0","0.6","0","0.0","0","NA","103.2","0","NA","","13","","","NA","116.3","18.1"
"-117.298","57.265","HAWK HILLS AGCM","3073071","AB","14.8","1","NA","33.2","1","1.5","1","","","NA","35.6","4","NA","","8","","","NA","119.9","27.4"
"-117.165","58.622","HIGH LEVEL","3073140","AB","14.7","2","NA","33.5","2","0.2","1","","","NA","94.0","1","NA","","12","","","NA","122.3","29.9"
"-117.165","58.621","HIGH LEVEL A","3073146","AB","14.4","0","0.1","33.5","0","0.0","0","0.0","0","0.0","123.8","0","241.0","0.0","17","","","NA","136.8","30.2"
"-117.120","55.913","JEAN COTE AGCM","3073535","AB","15.1","2","NA","32.4","2","0.6","1","","","NA","83.3","2","NA","","7","","","NA","108.9","26.7"
"-117.677","57.788","KEG RIVER AGCM","3073644","AB","14.1","0","NA","34.0","0","0.0","0","","","NA","103.5","12","NA","","9","","","NA","139.8","24.2"
"-116.343","58.172","LA CRETE AGCM","3073730","AB","16.0","2","NA","35.0","1","1.4","2","","","NA","85.0","3","NA","","11","","","NA","99.0","42.0"
"-119.255","55.422","LA GLACE AGCM","3073740","AB","13.9","1","NA","30.8","1","-1.0","1","","","NA","38.0","1","NA","","8","","","NA","130.8","11.9"
"-117.451","56.974","MANNING AGDM","3074190","AB","18.3","14","NA","33.1","14","0.0","14","","","NA","","","NA","","","","","NA","27.0","32.4"
"-119.745","56.314","CLEARDALE AGDM","3074935","AB","14.6","1","NA","32.9","1","-0.3","1","","","NA","42.3","12","NA","","9","","","NA","118.4","20.6"
"-117.448","56.227","PEACE RIVER A","3075041","AB","14.7","0","NA","31.9","0","1.9","0","0.0","0","NA","75.6","0","NA","","13","","","NA","119.7","20.9"
"-118.293","55.621","PEORIA AGDM","3075160","AB","14.7","16","NA","30.7","15","4.7","16","","","NA","31.4","16","NA","","6","","","NA","55.9","10.0"
"-115.278","56.552","RED EARTH","3075488","AB","14.6","2","NA","33.5","2","0.2","2","","","NA","158.6","3","NA","","18","","","NA","120.2","23.7"
"-116.481","58.452","ROCKY LANE AGCM","3075550","AB","15.0","0","NA","35.7","0","1.1","0","","","NA","104.8","1","NA","","13","","","NA","125.0","35.9"
"-118.668","55.777","RYCROFT AGCM","3075601","AB","15.1","3","NA","32.8","3","2.1","3","","","NA","30.0","4","NA","","9","","","NA","96.5","18.9"
"-119.345","56.076","SAVANNA AGCM","3075770","AB","14.2","11","NA","28.3","11","4.7","9","","","NA","35.3","11","NA","","8","","","NA","79.8","8.4"
"-111.997","58.853","SWEETGRASS LANDING","3076330","AB","","","NA","","","","","","","NA","81.3","1","NA","","16","","","NA","",""
"-118.408","55.352","TEEPEE CREEK AGCM","3076366","AB","14.6","1","NA","31.8","1","-0.3","1","","","NA","28.4","2","NA","","9","","","NA","111.4","12.9"
"-116.848","58.021","TOMPKINS LANDING AGCM","3076530","AB","14.9","0","NA","34.4","0","0.0","0","","","NA","114.1","4","NA","","10","","","NA","130.2","37.9"
"-117.199","55.098","VALLEYVIEW AGDM","3076680","AB","14.9","1","NA","31.4","1","1.1","1","","","NA","54.0","2","NA","","9","","","NA","110.8","21.1"
"-110.283","54.417","COLD LAKE A","3081680","AB","16.3","0","1.3","30.4","0","4.1","0","0.0","0","NA","107.2","0","147.0","","10","","","NA","84.9","32.8"
"-110.868","54.367","DUPRE AGCM","3081690","AB","15.5","2","NA","30.2","2","2.7","2","","","NA","99.4","3","NA","","10","","","NA","91.4","21.2"
"-104.710","50.201","BRATT'S LAKE CLIMATE","4010811","SK","16.7","2","NA","27.8","2","4.7","1","","","NA","103.0","2","NA","","5","","","NA","48.3","11.4"
"-102.571","50.368","BROADVIEW","4010879","SK","16.6","1","1.3","30.7","1","3.4","1","","","NA","167.3","1","NA","","12","","","NA","58.9","19.5"
"-105.383","50.550","BUFFALO POUND LAKE","4010984","SK","18.0","0","NA","30.0","0","6.5","0","0.0","0","NA","50.6","0","NA","0.0","4","","","NA","29.3","30.4"
"-104.267","50.850","CUPAR","4011980","SK","17.5","2","1.7","29.0","1","4.0","1","0.0","1","NA","81.6","1","NA","","7","","","NA","41.0","26.0"
"-104.867","51.183","DUVAL","4012300","SK","18.1","0","1.9","29.0","0","6.0","0","0.0","0","NA","41.0","0","53.0","0.0","4","","","NA","36.7","41.0"
"-102.966","49.210","ESTEVAN A","4012401","SK","18.2","2","NA","30.2","2","5.1","0","0.0","0","NA","136.2","1","NA","","12","","","NA","25.8","32.3"
"-102.967","49.217","ESTEVAN","4012410","SK","18.2","0","NA","29.4","0","5.3","0","","","NA","110.0","1","NA","","11","","","NA","25.8","32.6"
"-103.650","50.550","INDIAN HEAD CDA","4013480","SK","16.5","1","0.8","31.1","1","3.9","1","","","NA","89.5","1","NA","","7","","","NA","58.2","16.1"
"-103.753","51.257","KELLIHER","4013660","SK","17.3","0","2.1","29.5","0","1.0","0","0.0","0","0.0","78.0","0","100.0","0.0","10","","","NA","50.5","30.7"
"-102.733","50.200","KIPLING","4014040","SK","17.6","0","2.1","29.5","0","5.0","0","0.0","0","0.0","148.6","0","165.0","0.0","12","","","NA","42.0","29.3"
"-101.717","50.900","LANGENBURG","4014145","SK","17.8","0","2.1","30.0","0","5.0","0","0.0","0","NA","170.8","0","208.0","0.0","10","","","NA","39.2","32.3"
"-105.250","51.417","LAST MOUNTAIN CS","4014156","SK","16.6","1","1.0","29.0","1","3.6","1","","","NA","76.6","2","NA","","5","","","NA","61.0","20.6"
"-104.633","52.000","LEROY","4014322","SK","17.2","0","1.6","30.5","0","5.0","0","0.0","0","0.0","31.4","0","44.0","0.0","3","","","NA","54.3","29.9"
"-103.889","51.152","LIPTON 2","4014481","SK","16.9","5","1.7","30.5","5","5.0","5","0.0","5","NA","91.0","5","NA","0.0","7","","","NA","44.2","15.9"
"-105.538","50.332","MOOSE JAW CS","4015322","SK","17.6","2","NA","29.9","2","4.7","2","","","NA","47.0","2","NA","","6","","","NA","30.4","19.2"
"-105.000","52.333","MUENSTER","4015440","SK","16.0","15","0.7","30.0","15","5.5","15","0.0","15","NA","41.0","15","NA","","5","","","NA","42.3","12.3"
"-102.117","49.317","OXBOW","4015800","SK","17.6","3","NA","31.5","3","4.0","3","0.0","3","NA","194.4","3","NA","","8","","","NA","34.6","24.5"
"-103.983","50.567","QU'APPELLE 1","4016322","SK","17.4","0","1.8","29.0","0","6.0","0","0.0","0","0.0","60.8","0","73.0","0.0","6","","","NA","42.8","24.7"
"-104.667","50.433","REGINA RCS","4016699","SK","17.2","5","NA","30.8","5","4.3","3","","","NA","41.4","6","NA","","2","","","NA","42.2","23.1"
"-105.400","51.667","WATROUS EAST","4018642","SK","16.8","2","NA","30.0","2","3.9","1","","","NA","49.7","2","NA","","4","","","NA","55.8","23.1"
"-104.183","49.817","YELLOW GRASS NORTH","4019041","SK","17.4","1","NA","29.8","1","5.8","1","","","NA","126.5","1","NA","","8","","","NA","39.8","21.7"
"-102.464","51.265","YORKTON","4019073","SK","17.3","1","NA","31.3","1","4.5","1","","","NA","116.2","2","NA","","8","","","NA","47.9","29.0"
"-102.462","51.265","YORKTON","4019075","SK","17.6","5","NA","31.4","5","5.1","5","","","NA","120.1","5","NA","","10","","","NA","38.9","30.1"
"-104.200","51.767","WYNYARD (AUT)","40190LN","SK","16.7","6","NA","31.2","6","5.5","5","","","NA","31.5","6","NA","","4","","","NA","57.3","26.3"
"-103.800","49.700","WEYBURN","401HP5R","SK","17.7","3","NA","29.8","3","6.6","2","","","NA","90.7","3","NA","","7","","","NA","32.8","25.9"
"-106.848","51.289","CUTBANK","401JR89","SK","","","NA","","","","","","","NA","1.3","28","NA","","1","","","NA","",""
"-105.946","49.729","ASSINIBOIA AIRPORT","4020286","SK","17.2","2","NA","30.2","2","6.6","2","","","NA","50.5","2","NA","","9","","","NA","39.6","16.1"
"-107.311","50.832","BEECHY","4020560","SK","17.7","0","1.5","32.5","0","5.0","0","0.0","0","0.0","42.4","0","58.0","0.0","7","","","NA","38.7","29.8"
"-106.583","51.133","ELBOW CS","4022359","SK","17.2","1","NA","30.0","1","5.0","1","","","NA","33.6","1","NA","","5","","","NA","43.8","19.8"
"-106.550","51.167","ELBOW 2 NE","4022363","SK","17.8","8","2.6","30.0","8","5.0","8","0.0","8","NA","25.2","8","NA","","3","","","NA","24.2","20.2"
"-107.150","50.950","LUCKY LAKE","4024714","SK","17.2","1","NA","31.5","1","5.7","1","","","NA","23.6","1","NA","","4","","","NA","41.9","20.1"
"-109.466","49.903","MAPLE CREEK","4024919","SK","16.7","3","NA","32.9","3","5.0","2","","","NA","80.3","3","NA","","9","","","NA","51.2","15.9"
"-107.263","51.154","ROCK POINT","4026847","SK","17.9","0","2.2","29.0","0","5.5","0","0.0","0","0.0","37.4","0","47.0","0.0","5","","","NA","35.3","33.0"
"-107.800","50.600","STEWART VALLEY","4027775","SK","18.4","11","2.3","30.0","11","1.5","11","0.0","11","NA","22.4","11","NA","","6","","","NA","18.9","26.6"
"-107.691","50.292","SWIFT CURRENT","4028038","SK","17.1","7","NA","32.0","7","4.4","7","","","NA","23.6","7","NA","","4","","","NA","36.4","14.9"
"-107.733","50.267","SWIFT CURRENT CDA","4028060","SK","16.9","0","1.5","32.5","0","4.5","0","","","NA","20.2","1","NA","","4","","","NA","50.9","19.2"
"-109.501","50.909","LEADER AIRPORT","402DAF0","SK","17.2","4","NA","34.8","4","4.3","3","","","NA","36.1","4","NA","","6","","","NA","44.7","24.2"
"-105.483","49.050","CORONACH SPC","40318MN","SK","16.9","2","0.9","30.1","2","3.8","2","","","NA","57.7","2","NA","","9","","","NA","47.0","15.5"
"-109.514","49.641","CYPRESS HILLS PARK","4031999","SK","14.3","3","NA","28.5","3","1.1","3","","","NA","45.8","3","NA","","7","","","NA","104.4","4.9"
"-108.989","49.438","EASTEND CYPRESS (AUT)","4032322","SK","15.4","2","NA","31.6","2","1.7","1","","","NA","34.4","2","NA","","9","","","NA","82.3","9.4"
"-107.024","49.099","MANKOTA","4034910","SK","16.3","0","0.9","31.5","0","1.5","0","","","NA","55.9","1","NA","","6","","","NA","65.0","13.2"
"-105.979","49.168","ROCKGLEN (AUT)","4036844","SK","17.0","4","NA","30.5","4","4.7","4","","","NA","13.2","5","NA","","3","","","NA","44.8","17.8"
"-107.586","49.058","VAL MARIE SOUTHEAST","4038412","SK","16.5","1","NA","32.6","1","0.7","1","","","NA","13.8","1","NA","","5","","","NA","57.7","14.7"
"-108.407","51.294","BICKLEIGH","4040587","SK","18.0","0","2.1","33.0","0","5.5","0","0.0","0","NA","33.8","0","49.0","0.0","7","","","NA","35.3","34.7"
"-109.200","53.450","BUTTE ST PIERRE","4041000","SK","15.7","2","1.3","29.0","1","1.0","2","0.0","1","NA","122.4","1","NA","0.0","10","","","NA","87.5","22.2"
"-109.181","51.515","KINDERSLEY A","4043901","SK","17.1","0","NA","33.7","0","3.9","0","0.0","0","NA","53.6","0","NA","","8","","","NA","59.1","31.8"
"-108.256","52.772","NORTH BATTLEFORD RCS","4045607","SK","16.4","1","NA","30.3","1","2.5","1","","","NA","47.8","2","NA","","6","","","NA","69.0","23.0"
"-108.244","52.769","NORTH BATTLEFORD","4045695","SK","17.4","12","NA","30.2","12","4.7","11","","","NA","41.4","12","NA","","3","","","NA","30.6","19.1"
"-107.917","51.567","ROSETOWN EAST","4046884","SK","16.8","3","NA","32.6","3","3.2","2","","","NA","38.1","3","NA","","7","","","NA","57.4","24.8"
"-108.835","52.360","SCOTT CDA","4047240","SK","16.1","5","0.8","30.4","4","5.1","3","","","NA","29.4","5","NA","","6","","","NA","65.4","18.1"
"-107.767","52.317","SONNINGDALE","4047644","SK","16.1","9","NA","28.5","9","5.0","9","0.0","9","NA","80.6","9","NA","0.0","8","","","NA","51.5","12.3"
"-109.405","53.131","WASECA RCS","4048521","SK","15.9","3","NA","28.7","3","6.0","3","","","NA","84.7","3","NA","","7","","","NA","72.4","15.1"
"-105.783","52.850","HOEY","4053264","SK","","","NA","","","","","0.0","25","NA","21.0","25","NA","0.0","5","","","NA","",""
"-104.600","52.817","MELFORT","4055079","SK","16.7","1","NA","31.5","1","4.7","1","","","NA","46.6","1","NA","","6","","","NA","64.4","26.4"
"-107.050","51.483","OUTLOOK PFRA","4055736","SK","17.4","2","1.3","30.4","2","6.0","2","","","NA","12.9","2","NA","","3","","","NA","41.8","26.2"
"-105.150","52.417","PILGER","4056121","SK","17.1","2","NA","30.3","2","5.7","2","","","NA","37.7","3","NA","","5","","","NA","48.1","24.0"
"-105.673","53.214","PRINCE ALBERT A","4056241","SK","16.6","0","NA","32.3","0","1.9","0","0.0","0","NA","41.0","0","NA","","10","","","NA","70.3","28.0"
"-105.677","53.210","PRINCE ALBERT GLASS FIELD","4056243","SK","16.3","3","NA","31.8","3","1.0","3","","","NA","25.5","4","NA","","6","","","NA","67.8","23.1"
"-106.719","52.174","SASKATOON RCS","4057165","SK","17.3","2","NA","31.1","2","4.3","2","","","NA","18.8","2","NA","","5","","","NA","49.6","30.2"
"-108.421","55.841","BUFFALO NARROWS (AUT)","4060983","SK","16.4","2","NA","32.7","2","4.6","1","","","NA","106.3","2","NA","","12","","","NA","88.0","42.0"
"-104.483","58.083","CIGAR LAKE","4061570","SK","13.5","0","1.0","31.0","0","-2.0","0","0.0","0","NA","86.5","0","145.0","0.0","15","","","NA","152.5","16.0"
"-103.678","58.229","COLLINS BAY SK","4061620","SK","12.7","3","NA","29.9","3","-2.2","3","","","NA","63.9","4","NA","","8","","","NA","151.0","7.8"
"-103.700","58.183","COLLINS BAY CAMECO","4061632","SK","15.1","6","NA","30.5","5","-3.0","1","41.6","1","NA","114.6","1","NA","0.0","12","","","NA","79.4","10.0"
"-102.350","55.533","ISLAND FALLS (AUT)","4063605","SK","15.8","1","NA","31.7","1","1.3","1","","","NA","44.6","1","NA","","8","","","NA","90.1","25.6"
"-109.962","54.908","JIMMY LAKE AWOS","4063623","SK","15.3","3","NA","30.2","3","4.3","1","","","NA","83.5","4","NA","","13","","","NA","96.6","22.4"
