"Long","Lat","Stn_Name","Clim_ID","Prov","Tm","DwTm","D","Tx","DwTx","Tn","DwTn","S","DwS","S%N","P","DwP","P%N","S_G","Pd","BS","DwBS","BS%","HDD","CDD"
"-123.742","48.935","CHEMAINUS","1011500","BC","4.3","0","NA","14.0","0","-4.5","0","12.4","0","NA","81.1","0","NA","0.0","11","","","NA","382.9","0.0"
"-124.133","48.824","COWICHAN LAKE FORESTRY","1012040","BC","1.9","0","-2.1","12.0","0","-9.5","0","21.0","0","81.0","137.0","0","55.0","0.0","14","","","NA","450.7","0.0"
"-124.052","48.829","LAKE COWICHAN","1012055","BC","2.6","14","-1.5","12.0","10","-9.0","10","3.8","26","NA","112.4","14","NA","","10","","","NA","215.8","0.0"
"-123.226","48.425","DISCOVERY ISLAND","1012475","BC","","","NA","12.5","1","","","","","NA","","","NA","","","","","NA","",""
"-123.439","48.432","ESQUIMALT HARBOUR","1012710","BC","5.2","1","NA","11.9","1","-1.8","1","","","NA","68.4","9","NA","","8","","","NA","346.7","0.0"
"-123.573","48.985","GALIANO NORTH","10130MN","BC","4.4","8","NA","13.0","8","-3.5","8","5.2","8","NA","56.2","8","NA","","10","","","NA","272.9","0.0"
"-123.530","48.575","MALAHAT","1014820","BC","2.6","0","NA","11.1","0","-5.8","0","","","NA","31.0","16","NA","","6","","","NA","430.7","0.0"
"-123.561","48.374","METCHOSIN","1015105","BC","","","NA","","","","","11.6","7","NA","102.2","7","NA","0.0","13","","","NA","",""
"-123.718","48.824","NORTH COWICHAN","1015628","BC","","","NA","","","","","4.8","0","49.0","56.8","0","45.0","0.0","11","","","NA","",""
"-123.719","48.824","NORTH COWICHAN","1015630","BC","3.7","0","NA","13.7","0","-6.4","0","","","NA","","","NA","0.0","","","","NA","399.3","0.0"
"-123.287","48.764","NORTH PENDER ISLAND","1015638","BC","4.2","7","NA","13.0","7","-3.5","7","15.4","7","NA","60.3","7","NA","","8","","","NA","290.5","0.0"
"-123.531","48.298","RACE ROCKS","1016640","BC","5.6","1","NA","11.4","1","-1.2","0","","","NA","","","NA","","","","","NA","334.9","0.0"
"-123.419","48.622","SAANICHTON CDA","1016940","BC","4.9","5","-0.4","13.0","4","-4.0","4","5.0","4","NA","32.9","4","NA","0.0","11","","","NA","302.1","0.0"
"-123.546","48.888","SALTSPRING ST MARY'S L","1016995","BC","4.7","0","-0.3","13.0","0","-4.0","0","2.2","0","71.0","49.0","0","50.0","0.0","7","","","NA","371.3","0.0"
"-123.427","48.598","SAANICHTON MT NEWTON","1016RM0","BC","","","NA","","","","","5.0","21","NA","48.8","21","NA","","6","","","NA","",""
"-123.128","48.775","SATURNA CAPMON CS","1017099","BC","3.5","1","NA","10.7","1","-3.8","1","","","NA","74.0","1","NA","0.0","13","","","NA","390.7","0.0"
"-123.045","48.784","SATURNA ISLAND CS","1017101","BC","5.4","1","NA","12.8","1","-1.2","1","","","NA","68.0","6","NA","","12","","","NA","338.9","0.0"
"-123.626","48.647","SHAWNIGAN LAKE","1017230","BC","3.4","0","-0.7","13.0","0","-5.0","0","6.0","0","43.0","56.8","0","42.0","0.0","13","","","NA","409.2","0.0"
"-123.921","48.377","SHERINGHAM POINT","1017254","BC","5.2","3","NA","11.6","3","-2.7","2","","","NA","76.6","8","NA","","15","","","NA","320.9","0.0"
"-123.305","48.457","VICTORIA UNIVERSITY CS","1018598","BC","4.5","0","NA","13.7","0","-4.0","0","","","NA","77.3","0","NA","","11","","","NA","378.3","0.0"
"-123.325","48.413","VICTORIA GONZALES CS","1018611","BC","5.1","1","NA","12.8","1","-2.2","1","","","NA","69.8","8","NA","","10","","","NA","349.4","0.0"
"-123.426","48.647","VICTORIA INTL A","1018621","BC","4.3","0","NA","13.5","0","-5.5","0","2.5","0","NA","43.5","0","NA","","9","","","NA","384.8","0.0"
"-123.539","48.340","WILLIAM HEAD","1018935","BC","5.8","0","-0.3","12.5","0","-3.5","0","8.0","0","223.0","92.0","0","94.0","0.0","14","","","NA","340.8","0.0"
"-124.160","49.350","BALLENAS ISLAND","1020590","BC","4.9","0","NA","11.5","0","-1.8","0","","","NA","56.4","5","NA","","11","","","NA","367.8","0.0"
"-125.273","49.952","CAMPBELL RIVER A","1021261","BC","1.8","2","-1.5","11.0","2","-9.5","2","19.8","2","NA","132.6","2","NA","0.0","16","","","NA","421.9","0.0"
"-125.195","49.998","CAPE MUDGE","1021330","BC","4.0","0","-0.6","11.0","0","-3.0","0","10.8","0","170.0","148.8","0","105.0","0.0","17","","","NA","391.6","0.0"
"-124.683","49.472","CHROME ISLAND","1021500","BC","4.7","0","NA","13.5","0","-3.5","0","26.4","0","NA","69.8","0","NA","0.0","11","","","NA","372.8","0.0"
"-124.900","49.717","COMOX A","1021830","BC","3.3","0","-1.0","10.5","0","-5.8","0","18.4","0","308.0","82.2","0","72.0","","12","","","NA","411.5","0.0"
"-124.949","50.071","CORTES ISLAND TIBER BAY","1021960","BC","3.2","1","NA","12.0","1","-7.0","1","5.8","1","NA","136.4","1","NA","0.0","15","","","NA","400.1","0.0"
"-124.999","49.763","COURTENAY GRANTHAM","1021988","BC","3.8","25","NA","8.5","25","-4.0","25","1.0","25","NA","2.2","25","NA","","2","","","NA","42.7","0.0"
"-125.033","49.686","COURTENAY PUNTLEDGE","1021989","BC","2.3","6","NA","11.0","3","-8.0","4","6.0","3","NA","82.3","3","NA","0.0","11","","","NA","346.0","0.0"
"-123.811","49.209","ENTRANCE ISLAND","1022689","BC","5.0","0","NA","11.7","0","-1.9","0","","","NA","43.8","5","NA","","9","","","NA","364.0","0.0"
"-125.993","50.454","FANNY ISLAND","1022795","BC","3.9","0","NA","9.1","0","-2.4","0","","","NA","176.6","7","NA","","17","","","NA","393.7","0.0"
"-125.203","50.099","HERIOT BAY SE","1023462","BC","3.4","0","NA","10.5","0","-4.5","0","6.2","0","NA","163.6","0","NA","0.0","16","","","NA","409.5","0.0"
"-124.512","49.353","LITTLE QUALICUM HATCHERY","1024638","BC","2.3","7","-1.4","11.5","7","-10.0","7","5.0","6","NA","43.8","6","NA","0.0","9","","","NA","329.2","0.0"
"-123.870","49.054","NANAIMO A","1025369","BC","3.2","0","NA","15.0","0","-10.0","0","20.0","0","NA","79.9","0","NA","0.0","12","","","NA","414.2","0.0"
"-123.988","49.199","NANAIMO CITY YARD","10253G0","BC","","","NA","","","","","27.0","0","340.0","86.1","0","75.0","0.0","14","","","NA","",""
"-127.728","50.976","PINE ISLAND","1026170","BC","4.6","0","-1.3","10.0","0","-2.5","0","0.0","0","0.0","297.8","0","177.0","0.0","18","","","NA","374.1","0.0"
"-127.367","50.681","PORT HARDY A","1026271","BC","2.5","1","NA","10.8","1","-6.0","0","9.8","0","NA","222.7","0","NA","","19","","","NA","418.0","0.0"
"-124.394","49.337","QUALICUM BEACH AIRPORT","1026562","BC","3.0","0","NA","12.6","0","-7.3","0","","","NA","58.8","0","NA","","12","","","NA","419.0","0.0"
"-124.617","49.394","QUALICUM R FISH RESEARCH","1026565","BC","3.2","0","-0.9","13.0","0","-10.0","0","15.0","0","170.0","71.1","0","51.0","0.0","9","","","NA","413.1","0.0"
"-125.304","50.016","QUINSAM RIVER HATCHERY","1026639","BC","2.9","0","-0.8","11.0","0","-6.0","0","16.4","0","163.0","189.0","0","118.0","0.0","15","","","NA","422.2","0.0"
"-124.435","49.487","SISTERS ISLAND","1027403","BC","5.1","1","NA","11.9","1","-1.2","0","","","NA","","","NA","","","","","NA","347.9","0.0"
"-123.809","49.209","ENTRANCE ISLAND","102BFHH","BC","4.7","0","NA","10.5","0","-2.5","0","8.0","0","NA","87.5","0","NA","0.0","12","","","NA","372.9","0.0"
"-124.982","49.337","ALBERNI ROBERTSON CREEK","1030230","BC","2.8","0","-0.2","13.0","0","-8.0","0","30.0","0","177.0","117.2","0","49.0","0.0","13","","","NA","424.7","0.0"
"-125.216","48.786","CAPE BEALE LIGHT","1031316","BC","5.3","0","-0.8","10.0","0","-4.0","0","4.0","0","98.0","232.7","0","87.0","0.0","19","","","NA","355.5","0.0"
"-126.543","49.383","ESTEVAN POINT","1032730","BC","5.2","1","-0.8","10.5","1","-3.0","1","10.0","1","NA","213.6","1","NA","0.0","18","","","NA","346.8","0.0"
"-126.543","49.383","ESTEVAN POINT CS","1032731","BC","4.9","1","NA","10.2","1","-3.3","1","","","NA","221.2","1","NA","","19","","","NA","354.3","0.0"
"-125.923","49.111","LENNARD ISLAND","1034600","BC","4.4","0","NA","9.5","0","-4.5","0","8.8","0","173.0","237.8","0","75.0","0.0","19","","","NA","382.0","0.0"
"-124.655","48.859","NITINAT RIVER HATCHERY","1035612","BC","3.6","0","-1.1","14.0","0","-6.0","0","29.0","0","216.0","254.2","0","66.0","0.0","18","","","NA","402.0","0.0"
"-126.617","49.600","NOOTKA LIGHTSTATION","1035614","BC","4.8","0","-1.0","9.5","0","0.0","0","1.4","0","28.0","275.4","0","85.0","0.0","18","","","NA","368.7","0.0"
"-125.097","48.723","PACHENA POINT","1035940","BC","4.4","0","-1.6","11.5","0","-4.0","0","4.6","0","100.0","169.8","0","57.0","0.0","20","","","NA","379.5","0.0"
"-124.752","49.202","PORT ALBERNI COX LAKE","1036208","BC","3.3","0","-0.5","11.5","0","-8.5","0","28.6","0","206.0","104.2","0","48.0","0.0","16","","","NA","411.8","0.0"
"-127.653","50.534","QUATSINO","1036570","BC","3.4","6","-1.6","10.0","6","-4.5","6","2.0","6","NA","146.0","6","NA","0.0","14","","","NA","322.1","0.0"
"-124.927","49.317","PORT ALBERNI (AUT)","1036B06","BC","1.7","8","NA","12.4","8","-10.0","7","","","NA","58.6","8","NA","0.0","9","","","NA","325.4","0.0"
"-128.908","50.821","SARTINE ISLAND (AUT)","1037090","BC","5.0","4","NA","8.6","4","-1.3","2","","","NA","161.8","7","NA","","17","","","NA","311.9","0.0"
"-127.940","50.112","SOLANDER ISLAND (AUT)","1037553","BC","5.1","4","NA","8.6","4","-1.3","2","","","NA","134.2","7","NA","","17","","","NA","309.9","0.0"
"-126.654","49.932","TAHSIS VILLAGE NORTH","1037899","BC","3.1","18","NA","9.0","18","-5.0","18","","","NA","94.1","22","NA","","6","","","NA","149.2","0.0"
"-125.773","49.082","TOFINO A","1038205","BC","4.2","0","-1.3","10.5","0","-5.5","0","6.0","0","69.0","248.8","0","74.0","0.0","17","","","NA","386.9","0.0"
"-125.527","48.945","UCLUELET KENNEDY CAMP","1038332","BC","4.3","0","-1.2","10.5","0","-6.0","0","4.6","0","50.0","236.6","0","67.0","0.0","19","","","NA","382.6","0.0"
"-126.779","50.053","ZEBALLOS MURAUDE CREEK","1039035","BC","3.2","1","NA","10.0","0","-5.5","1","26.4","0","NA","214.5","0","NA","2.0","18","","","NA","398.7","0.0"
"-123.402","49.360","BOWEN ISLAND SUNSET PARK","104091B","BC","","","NA","","","","","39.0","16","NA","121.2","16","NA","10.0","11","","","NA","",""
"-123.541","49.386","GIBSONS GOWER POINT","1043152","BC","3.9","0","-1.3","11.5","0","-5.5","0","31.8","0","521.0","122.2","0","98.0","0.0","14","","","NA","394.5","0.0"
"-123.913","49.468","MERRY ISLAND LIGHTSTATION","1045100","BC","4.9","0","-0.8","12.5","0","-2.0","0","2.0","0","53.0","84.5","0","92.0","0.0","15","","","NA","367.3","0.0"
"-123.299","49.488","HOWE SOUND - PAM ROCKS","10459NN","BC","4.1","0","NA","12.6","0","-2.3","0","","","NA","71.6","7","NA","","14","","","NA","390.5","0.0"
"-124.032","49.634","PENDER HARBOUR","1046115","BC","","","NA","","","","","14.6","0","NA","93.4","0","NA","0.0","13","","","NA","",""
"-123.496","49.526","PORT MELLON","1046332","BC","2.4","4","NA","16.0","4","-7.1","2","","","NA","189.7","4","NA","9.0","14","","","NA","374.3","0.0"
"-124.500","49.834","POWELL RIVER A","1046391","BC","2.3","0","-1.6","11.5","0","-9.5","0","20.6","0","265.0","106.0","0","97.0","0.0","14","","","NA","438.7","0.0"
"-124.497","49.835","POWELL RIVER","1046392","BC","2.2","0","NA","12.0","0","-8.9","0","","","NA","","","NA","","","","","NA","442.4","0.0"
"-123.715","49.458","SECHELT AUT","1047172","BC","2.8","0","NA","11.8","0","-7.5","0","","","NA","84.9","0","NA","0.0","14","","","NA","426.0","0.0"
"-123.161","49.783","SQUAMISH AIRPORT","10476F0","BC","1.9","0","NA","12.8","0","-9.5","0","","","NA","155.2","0","NA","11.0","16","","","NA","450.6","0.0"
"-122.955","50.129","WHISTLER","1048898","BC","-2.4","0","-1.9","7.5","0","-18.0","0","80.0","0","125.0","93.0","0","89.0","87.0","16","","","NA","571.1","0.0"
"-131.016","51.936","CAPE ST JAMES","1051351","BC","4.6","4","NA","8.1","4","0.2","2","","","NA","","","NA","","","","","NA","321.3","0.0"
"-132.772","53.316","KINDAKUN ROCKS (AUT)","1054222","BC","4.7","4","NA","8.9","4","-0.2","2","","","NA","148.2","5","NA","","17","","","NA","318.1","0.0"
"-133.058","54.255","LANGARA","1054500","BC","3.3","0","-0.8","7.5","0","-1.0","0","3.0","0","23.0","168.6","0","120.0","0.0","20","","","NA","412.4","0.0"
"-131.661","54.159","ROSE SPIT (AUT)","1056869","BC","2.8","0","NA","8.5","0","-4.7","0","","","NA","151.8","0","NA","","19","","","NA","425.4","0.0"
"-131.813","53.249","SANDSPIT AIRPORT AUTO","1057051","BC","3.4","1","NA","9.2","1","-4.2","0","","","NA","115.4","2","NA","","13","","","NA","395.5","0.0"
"-131.814","53.254","SANDSPIT","1057052","BC","3.9","12","NA","9.1","12","-2.0","12","","","NA","90.6","12","NA","","9","","","NA","226.4","0.0"
"-127.864","51.604","ADDENBROKE ISLAND","1060080","BC","3.6","0","-1.4","10.0","0","-4.0","0","0.0","0","0.0","422.2","0","159.0","0.0","18","","","NA","403.7","0.0"
"-128.157","52.185","BELLA BELLA","1060815","BC","2.0","7","NA","9.4","7","-9.5","7","","","NA","326.2","7","NA","","15","","","NA","335.8","0.0"
"-126.587","52.389","BELLA COOLA AIRPORT","1060844","BC","-0.6","0","NA","8.2","0","-11.5","0","","","NA","139.8","0","NA","1.0","13","","","NA","519.8","0.0"
"-128.524","52.643","BOAT BLUFF","1060901","BC","3.3","0","-0.6","10.0","0","-3.5","0","7.6","0","27.0","490.8","0","115.0","0.0","19","","","NA","412.0","0.0"
"-130.638","53.493","BONILLA ISLAND","1060902","BC","3.9","0","-1.1","8.5","0","-1.0","0","0.2","0","2.0","149.4","0","85.0","0.0","18","","","NA","394.2","0.0"
"-130.639","53.493","BONILLA ISLAND (AUT)","1060R0K","BC","4.0","19","NA","7.9","19","-0.7","13","","","NA","39.2","19","NA","","6","","","NA","126.1","0.0"
"-127.471","52.187","CATHEDRAL POINT (AUT)","1061458","BC","1.7","4","NA","9.3","4","-4.0","2","","","NA","145.6","18","NA","","9","","","NA","392.2","0.0"
"-131.602","53.030","CUMSHEWA ISLAND","1062251","BC","4.7","4","NA","9.7","4","-0.1","2","","","NA","32.2","5","NA","","8","","","NA","320.4","0.0"
"-128.112","52.185","DRYAD POINT","1062544","BC","3.3","0","-1.3","10.0","0","-3.5","0","1.6","0","10.0","277.3","0","132.0","0.0","17","","","NA","410.9","0.0"
"-127.835","51.247","EGG ISLAND","1062646","BC","4.0","0","-1.1","10.0","0","-2.5","0","17.6","0","159.0","295.2","0","135.0","0.0","18","","","NA","391.9","0.0"
"-130.708","54.569","GREEN ISLAND","1063298","BC","2.0","0","-1.8","8.0","0","-3.0","0","22.4","0","207.0","120.7","0","69.0","0.0","14","","","NA","448.5","0.0"
"-130.698","54.580","GREY ISLET (AUT)","1063303","BC","2.5","3","NA","13.9","3","-2.6","2","","","NA","135.2","14","NA","","11","","","NA","386.6","0.0"
"-127.632","50.940","HERBERT ISLAND (AUT)","1063461","BC","4.8","0","NA","10.5","0","-1.4","0","","","NA","198.0","3","NA","","19","","","NA","370.3","0.0"
"-130.361","54.172","HOLLAND ROCK","1063496","BC","2.7","0","NA","7.9","0","-3.0","0","","","NA","121.8","9","NA","","16","","","NA","429.2","0.0"
"-128.407","52.270","IVORY ISLAND","1063690","BC","3.6","0","-1.3","10.5","0","-4.0","0","0.2","0","2.0","267.8","0","138.0","0.0","17","","","NA","403.3","0.0"
"-127.943","53.563","KEMANO","1064020","BC","-2.8","2","-3.1","4.5","1","-14.0","1","79.0","1","NA","261.5","1","NA","78.0","15","","","NA","540.7","0.0"
"-128.634","54.054","KITIMAT TOWNSITE","1064320","BC","-3.1","1","-3.4","5.0","1","-15.0","1","107.0","1","NA","153.2","1","NA","0.0","11","","","NA","570.5","0.0"
"-128.705","54.010","KITIMAT 2","1064321","BC","-2.7","2","-3.6","6.0","2","-19.0","2","78.0","2","NA","181.3","2","NA","0.0","16","","","NA","539.4","0.0"
"-130.609","54.296","LUCY ISLAND LIGHTSTATION","1064728","BC","2.8","0","NA","8.8","0","-2.0","0","","","NA","","","NA","","","","","NA","425.3","0.0"
"-128.719","52.262","MCINNES ISLAND","1065010","BC","4.4","0","-0.6","9.0","0","-3.0","0","0.0","0","0.0","213.2","0","101.0","0.0","20","","","NA","380.1","0.0"
"-130.445","54.286","PRINCE RUPERT","1066482","BC","1.5","7","NA","7.4","7","-5.8","7","","","NA","173.7","6","NA","","13","","","NA","345.9","0.0"
"-130.290","54.320","PRINCE RUPERT MONT CIRC","1066488","BC","","","NA","","","","","18.2","11","NA","246.4","11","NA","4.0","13","","","NA","",""
"-128.625","54.502","TERRACE PCC","1068131","BC","-3.9","1","-4.1","5.0","1","-21.0","1","87.0","1","NA","106.2","1","NA","42.0","14","","","NA","590.6","0.0"
"-128.578","54.469","TERRACE A","1068134","BC","-5.2","0","NA","3.0","0","-18.9","0","136.6","0","NA","131.4","0","NA","43.0","14","","","NA","648.8","0.0"
"-130.880","54.295","TRIPLE ISLAND","1068250","BC","3.0","1","NA","8.5","1","-1.5","1","0.0","1","NA","113.0","1","NA","0.0","16","","","NA","404.1","0.0"
"-126.277","54.199","EQUITY SILVER","1072692","BC","-11.0","0","-4.3","0.5","0","-26.0","0","130.4","0","321.0","130.4","0","320.0","0.0","12","","","NA","812.4","0.0"
"-126.668","54.396","HOUSTON","1073615","BC","-9.7","8","NA","4.0","8","-30.5","8","39.0","12","NA","39.0","12","NA","67.0","3","","","NA","553.8","0.0"
"-127.183","54.825","SMITHERS","1077499","BC","-10.2","1","NA","4.2","1","-28.9","1","","","NA","23.5","1","NA","","5","","","NA","761.8","0.0"
"-127.183","54.825","SMITHERS A","1077500","BC","-9.7","0","-5.3","4.5","0","-29.0","0","73.8","0","314.0","59.2","0","254.0","67.0","8","","","NA","775.6","0.0"
"-127.189","54.824","SMITHERS AIRPORT AUTO","1077501","BC","-10.6","0","NA","4.2","0","-30.9","0","","","NA","65.0","0","NA","67.0","10","","","NA","801.0","0.0"
"-127.171","55.289","SUSKWA VALLEY","107G879","BC","-10.6","5","-7.1","1.0","5","-25.5","5","45.8","5","NA","45.8","5","NA","71.0","9","","","NA","656.8","0.0"
"-125.997","53.772","OOTSA LAKESKINS LAKE CLIMATE","1085836","BC","-11.3","0","NA","5.5","0","-32.0","0","","","NA","113.9","17","NA","33.0","10","","","NA","819.8","0.0"
"-122.734","50.306","PEMBERTON AIRPORT CS","1086082","BC","-1.0","0","NA","6.7","0","-14.7","0","","","NA","62.6","0","NA","32.0","13","","","NA","532.8","0.0"
"-124.136","52.114","PUNTZI MOUNTAIN (AUT)","1086558","BC","-12.0","1","NA","6.2","1","-37.4","1","","","NA","30.5","1","NA","47.0","7","","","NA","810.6","0.0"
"-124.403","51.675","TATLAYOKO LAKE RCS","1088015","BC","-6.3","0","NA","9.1","0","-27.5","0","","","NA","17.4","0","NA","31.0","6","","","NA","679.2","0.0"
"-125.959","54.383","BURNS LAKE DECKER LAKE","1091174","BC","-13.4","0","NA","3.6","0","-34.2","0","","","NA","53.6","0","NA","78.0","9","","","NA","878.4","0.0"
"-124.286","54.455","FORT ST JAMES","1092970","BC","-13.1","13","-6.3","3.0","13","-35.5","13","46.0","13","NA","46.0","13","NA","59.0","8","","","NA","466.4","0.0"
"-124.286","54.455","FORT ST JAMES AUTO","1092975","BC","-13.7","0","NA","3.8","0","-36.6","0","","","NA","62.1","0","NA","59.0","11","","","NA","886.4","0.0"
"-122.286","52.531","MCLEESE LAKE GRANITE MT","1095018","BC","-11.4","17","NA","5.0","12","-26.0","12","63.6","12","NA","63.6","12","NA","85.0","11","","","NA","323.2","0.0"
"-122.678","53.884","PRINCE GEORGE","1096439","BC","-15.6","14","NA","1.2","14","-32.9","14","","","NA","26.1","14","NA","","3","","","NA","469.7","0.0"
"-122.672","53.889","PRINCE GEORGE AIRPORT AUTO","1096453","BC","-13.1","0","NA","1.8","0","-33.1","0","","","NA","50.2","0","NA","59.0","7","","","NA","871.2","0.0"
"-122.768","53.880","PRINCE GEORGE STP","1096468","BC","-10.7","2","-7.1","5.0","2","-28.0","2","92.8","1","NA","92.8","1","NA","63.0","14","","","NA","746.6","0.0"
"-122.510","53.026","QUESNEL","1096629","BC","-10.4","0","NA","4.8","0","-29.8","0","","","NA","0.0","0","NA","","0","","","NA","795.6","0.0"
"-122.506","53.027","QUESNEL AIRPORT AUTO","1096631","BC","-10.3","0","NA","5.4","0","-29.4","0","","","NA","67.1","0","NA","68.0","7","","","NA","792.5","0.0"
"-121.686","52.184","SPOKIN LAKE 4E","1097646","BC","-12.2","0","-6.8","9.0","0","-35.0","0","87.6","0","389.0","96.0","0","384.0","64.0","15","","","NA","845.8","0.0"
"-122.054","52.183","WILLIAMS LAKE A","1098941","BC","-10.2","0","NA","2.4","0","-25.4","0","84.6","0","NA","83.6","0","NA","64.0","17","","","NA","790.3","0.0"
"-124.017","54.033","VANDERHOOF","1098D90","BC","-12.5","0","-7.0","5.5","0","-33.0","0","98.0","0","461.0","98.0","0","368.0","0.0","10","","","NA","853.3","0.0"
"-121.263","51.623","108 MILE HOUSE ABEL LAKE","109E7R6","BC","-13.9","0","NA","5.5","0","-33.0","0","22.0","0","NA","22.0","0","NA","26.0","8","","","NA","894.2","0.0"
"-122.360","49.025","ABBOTSFORD A","1100031","BC","3.1","0","NA","13.3","0","-6.6","0","34.2","0","NA","136.7","0","NA","0.0","19","","","NA","416.6","0.0"
"-121.760","49.243","AGASSIZ RCS","1100119","BC","2.8","0","-3.0","12.7","0","-6.6","0","","","NA","218.8","0","NA","0.0","17","","","NA","424.7","0.0"
"-121.760","49.243","AGASSIZ CDA","1100120","BC","2.4","2","-2.7","12.0","1","-7.0","1","30.0","1","NA","238.2","1","NA","","17","","","NA","406.7","0.0"
"-122.955","50.129","WHISTLER - NESTERS","1100875","BC","-2.3","0","NA","8.2","0","-17.1","0","","","NA","100.9","0","NA","68.0","17","","","NA","569.5","0.0"
"-122.936","50.102","BLACKCOMB BASE SLIDING CENTER","1100881","BC","-3.2","0","NA","6.6","0","-16.2","0","","","NA","69.6","0","NA","125.0","15","","","NA","593.9","0.0"
"-122.918","49.278","BURNABY SIMON FRASER U","1101158","BC","4.8","26","0.5","13.0","26","-2.0","26","0.0","26","NA","1.7","26","NA","","1","","","NA","26.5","0.0"
"-123.111","50.144","CALLAGHAN VALLEY","1101300","BC","-2.9","0","NA","6.6","0","-17.0","0","","","NA","141.1","0","NA","198.0","16","","","NA","585.4","0.0"
"-123.002","49.126","DELTA BURNS BOG","1102415","BC","2.8","1","NA","14.0","1","-11.5","0","","","NA","103.5","1","NA","","12","","","NA","411.4","0.0"
"-123.093","49.011","DELTA TSAWWASSEN BEACH","1102425","BC","3.3","0","-2.5","12.5","0","-8.0","0","19.4","0","590.0","105.9","0","132.0","0.0","13","","","NA","410.8","0.0"
"-122.551","49.145","FORT LANGLEY TELEGRAPH TRAIL","1102912","BC","3.1","0","NA","12.0","0","-8.0","0","41.6","0","NA","167.6","0","NA","0.0","16","","","NA","415.9","0.0"
"-122.573","49.264","HANEY UBC RF ADMIN","1103332","BC","2.6","8","-1.7","11.0","8","-8.5","8","36.0","8","NA","194.1","8","NA","0.0","14","","","NA","308.8","0.0"
"-122.507","49.211","MAPLE RIDGE KANAKA CREEK","1104R02","BC","4.5","13","0.5","10.0","13","-4.0","13","21.0","13","NA","163.0","13","NA","","10","","","NA","202.6","0.0"
"-122.271","49.153","MISSION WEST ABBEY","1105192","BC","2.1","0","-2.5","10.5","0","-7.5","0","49.0","0","366.0","186.2","0","116.0","5.0","19","","","NA","444.5","0.0"
"-123.078","49.182","RICHMOND OPERATIONS CENTRE","1105210","BC","","","NA","","","","","","","NA","110.6","0","NA","","13","","","NA","",""
"-123.078","49.381","N VANC GROUSE MTN RESORT","1105658","BC","-2.7","2","-2.7","5.0","2","-14.0","2","197.0","2","NA","291.4","2","NA","","18","","","NA","539.4","0.0"
"-123.115","49.315","N VANCOUVER WHARVES","1105669","BC","","","NA","","","","","26.0","3","NA","207.1","3","NA","","16","","","NA","",""
"-122.690","49.208","PITT MEADOWS CS","1106178","BC","3.0","0","NA","13.3","0","-9.0","0","","","NA","191.2","0","NA","1.0","20","","","NA","419.0","0.0"
"-123.265","49.330","POINT ATKINSON","1106200","BC","4.3","1","NA","11.4","1","-3.6","0","","","NA","152.2","1","NA","","16","","","NA","369.1","0.0"
"-123.087","49.179","RICHMOND DALLYN 2","1106764","BC","","","NA","","","","","35.4","0","NA","129.2","0","NA","0.0","15","","","NA","",""
"-122.881","49.279","PORT MOODY GLENAYRE","1106CL2","BC","2.7","3","-1.9","10.0","3","-7.0","3","45.0","3","NA","195.0","3","NA","0.0","14","","","NA","383.0","0.0"
"-123.093","49.171","RICHMOND NATURE PARK","1106PF7","BC","3.9","0","-1.0","14.0","0","-8.0","0","26.0","0","371.0","116.0","0","101.0","0.0","16","","","NA","394.9","0.0"
"-123.303","49.106","SANDHEADS CS","1107010","BC","4.6","0","NA","12.4","0","-2.7","0","","","NA","","","NA","","","","","NA","375.4","0.0"
"-122.110","49.113","SUMAS CANAL","1107785","BC","4.4","20","NA","14.0","14","-6.0","14","0.0","14","NA","150.0","14","NA","0.0","11","","","NA","108.6","0.0"
"-123.187","49.183","VANCOUVER SEA ISLAND CCG","1108380","BC","3.8","1","NA","13.0","1","-6.9","0","","","NA","101.1","1","NA","","13","","","NA","383.2","0.0"
"-123.184","49.195","VANCOUVER INTL A","1108395","BC","3.4","0","NA","12.4","0","-7.5","0","25.8","0","NA","105.8","0","NA","","14","","","NA","410.1","0.0"
"-123.122","49.295","VANCOUVER HARBOUR CS","1108446","BC","4.2","0","NA","10.7","0","-4.1","0","","","NA","130.7","0","NA","","16","","","NA","387.6","0.0"
"-123.193","49.347","WEST VANCOUVER AUT","1108824","BC","3.2","0","NA","11.8","0","-7.2","0","","","NA","","","NA","","","","","NA","414.3","0.0"
"-122.947","50.068","WHISTLER ROUNDHOUSE","1108906","BC","-7.4","0","NA","3.0","0","-21.0","0","147.2","0","NA","152.0","0","NA","296.0","19","","","NA","711.1","0.0"
"-122.784","49.018","WHITE ROCK CAMPBELL SCIENTIFIC","1108910","BC","4.5","1","NA","12.1","1","-4.7","1","","","NA","","","NA","","","","","NA","365.3","0.0"
"-122.967","49.438","N VAN SEYMOUR HATCHERY","110N666","BC","1.0","0","-1.9","10.0","0","-9.0","0","104.8","0","455.0","247.0","0","67.0","60.0","21","","","NA","475.7","0.0"
"-121.498","49.368","HOPE A","1113542","BC","1.6","5","NA","11.4","5","-9.5","5","","","NA","280.6","5","NA","","16","","","NA","376.2","0.0"
"-121.493","49.370","HOPE AIRPORT","1113543","BC","1.8","0","NA","12.0","0","-9.7","0","","","NA","303.9","0","NA","1.0","18","","","NA","454.7","0.0"
"-121.233","49.267","HOPE SLIDE","1113581","BC","-2.8","0","-2.4","5.0","0","-16.0","0","144.0","0","322.0","221.0","0","211.0","78.0","21","","","NA","581.4","0.0"
"-121.934","50.684","LILLOOET","1114619","BC","-1.1","1","NA","12.8","1","-14.6","1","","","NA","","","NA","","","","","NA","516.9","0.0"
"-121.582","50.224","LYTTON A","1114738","BC","-1.9","14","NA","9.1","14","-13.7","14","","","NA","7.8","14","NA","","4","","","NA","278.7","0.0"
"-121.582","50.224","LYTTON RCS","1114746","BC","-0.9","0","NA","11.8","0","-14.0","0","","","NA","20.2","0","NA","0.0","7","","","NA","528.3","0.0"
"-120.333","49.673","JELLICOE","1123721","BC","-5.0","3","NA","7.5","3","-25.5","3","56.6","3","NA","66.4","3","NA","65.0","14","","","NA","574.3","0.0"
"-119.378","49.957","KELOWNA","1123939","BC","-4.9","9","NA","9.7","9","-20.7","9","","","NA","10.9","9","NA","","4","","","NA","434.8","0.0"
"-119.400","49.941","KELOWNA UBCO","1123996","BC","-3.2","0","NA","11.2","0","-19.4","0","","","NA","25.3","0","NA","13.0","7","","","NA","592.8","0.0"
"-120.778","50.113","MERRITT","1125073","BC","-4.3","0","NA","11.9","0","-25.1","0","","","NA","","","NA","","","","","NA","623.6","0.0"
"-120.801","50.114","MERRITT STP","1125079","BC","-3.9","0","-3.4","12.0","0","-22.0","0","26.8","0","323.0","27.2","0","141.0","0.0","8","","","NA","613.1","0.0"
"-119.445","50.056","OKANAGAN CENTRE","1125700","BC","-1.5","0","-2.5","11.0","0","-13.0","0","56.0","0","724.0","68.8","0","302.0","11.0","12","","","NA","545.0","0.0"
"-119.545","49.179","OLIVER STP","1125766","BC","-0.2","9","-1.7","15.5","9","-14.5","9","3.0","9","NA","8.8","9","NA","0.0","4","","","NA","346.7","0.0"
"-119.441","49.028","OSOYOOS CS","1125852","BC","-0.3","0","-2.2","13.2","0","-14.5","0","","","NA","18.0","0","NA","1.0","6","","","NA","512.0","0.0"
"-119.717","49.783","PEACHLAND","1126070","BC","-1.2","0","-2.6","15.5","0","-15.0","0","40.0","0","396.0","57.2","0","236.0","13.0","12","","","NA","538.9","0.0"
"-119.602","49.463","PENTICTON A","1126146","BC","-1.5","0","NA","15.2","0","-18.6","0","24.3","0","NA","31.9","0","NA","2.0","8","","","NA","545.2","0.0"
"-120.513","49.468","PRINCETON A","1126510","BC","-5.0","0","-2.7","9.0","0","-24.5","0","37.0","0","228.0","36.2","0","176.0","38.0","9","","","NA","642.7","0.0"
"-119.194","50.223","VERNON AUTO","1128582","BC","-4.7","0","NA","4.6","0","-21.5","0","","","NA","48.8","0","NA","","12","","","NA","636.5","0.0"
"-119.271","50.344","VERNON NORTH","1128583","BC","-3.9","0","-3.7","6.5","0","-17.5","0","62.2","0","462.0","63.6","0","253.0","48.0","11","","","NA","613.9","0.0"
"-119.056","50.359","VERNON SILVER STAR LODGE","1128584","BC","-8.7","0","NA","3.0","0","-21.5","0","174.0","0","NA","174.0","0","NA","214.0","19","","","NA","747.7","0.0"
"-120.510","49.465","PRINCETON CS","112FN0M","BC","-5.1","0","NA","9.2","0","-25.1","0","","","NA","31.8","0","NA","41.0","10","","","NA","647.4","0.0"
"-119.649","49.563","SUMMERLAND CS","112G8L1","BC","-2.2","0","-3.1","14.0","0","-17.1","0","","","NA","31.4","0","NA","","8","","","NA","565.1","0.0"
"-118.772","49.004","MIDWAY","1135126","BC","-3.7","2","-2.3","11.5","2","-25.0","2","44.0","2","NA","46.8","2","NA","40.0","7","","","NA","563.6","0.0"
"-118.228","49.017","BILLINGS","1140876","BC","-3.3","0","-2.5","9.5","0","-20.0","0","49.0","0","257.0","56.2","0","171.0","50.0","13","","","NA","597.1","0.0"
"-117.633","49.296","CASTLEGAR A","1141455","BC","-2.6","0","-2.5","11.0","0","-20.5","0","68.2","0","266.0","51.0","0","100.0","34.0","11","","","NA","577.1","0.0"
"-117.774","49.343","CASTLEGAR BCHPA DAM","1141457","BC","-2.5","6","-2.7","5.5","3","-14.0","3","32.0","3","NA","59.5","3","NA","5.0","14","","","NA","450.4","0.0"
"-116.972","50.239","DUNCAN LAKE DAM","1142574","BC","-4.8","0","-3.4","4.5","0","-23.0","0","46.6","0","190.0","70.8","0","126.0","66.0","15","","","NA","639.4","0.0"
"-116.921","49.913","KASLO","1143900","BC","-2.8","0","-2.2","10.0","0","-19.0","0","54.6","0","259.0","99.2","0","164.0","46.0","17","","","NA","582.9","0.0"
"-117.817","50.269","NAKUSP CS","1145297","BC","-2.8","0","NA","7.4","0","-17.0","0","","","NA","102.0","0","NA","70.0","15","","","NA","581.5","0.0"
"-117.206","49.586","NELSON NE","1145442","BC","-1.1","0","NA","12.0","0","-13.5","0","59.0","0","NA","98.0","0","NA","47.0","14","","","NA","535.4","0.0"
"-117.370","49.996","NEW DENVER","1145460","BC","-2.5","0","-2.2","5.5","0","-18.0","0","70.0","0","344.0","114.8","0","201.0","54.0","14","","","NA","575.3","0.0"
"-117.305","49.491","NELSON CS","1145M29","BC","-0.9","1","NA","10.7","1","-13.1","0","","","NA","50.2","1","NA","11.0","14","","","NA","509.7","0.0"
"-117.739","49.112","WARFIELD RCS","1148705","BC","-3.0","1","NA","10.5","1","-17.1","0","","","NA","52.9","1","NA","56.0","13","","","NA","566.7","0.0"
"-116.501","49.082","CRESTON CAMPBELL SCIENTIFIC","114B1F0","BC","-1.9","1","NA","14.6","1","-15.9","0","","","NA","37.8","1","NA","20.0","8","","","NA","538.5","0.0"
"-117.399","49.512","NELSON RIXEN CREEK","114EMDM","BC","-3.3","0","NA","9.5","0","-17.0","0","81.4","0","NA","97.4","0","NA","87.0","18","","","NA","596.5","0.0"
"-115.782","49.612","CRANBROOK A","1152105","BC","-8.5","1","NA","9.8","0","-26.8","1","30.6","0","NA","27.2","0","NA","26.0","5","","","NA","715.6","0.0"
"-115.789","49.618","CRANBROOK AIRPORT AUTO","1152106","BC","-8.0","0","NA","11.3","0","-25.7","0","","","NA","25.2","0","NA","43.0","5","","","NA","728.8","0.0"
"-115.073","49.489","FERNIE","1152850","BC","-7.7","5","-3.9","11.0","5","-32.0","5","50.0","5","NA","75.8","5","NA","96.0","13","","","NA","591.8","0.0"
"-115.461","49.524","FT STEELE DANDY CRK","1153034","BC","-7.4","20","NA","10.0","19","-23.0","18","7.0","19","NA","7.0","19","NA","","2","","","NA","203.2","0.0"
"-115.962","49.632","KIMBERLEY PCC","1154203","BC","-7.2","9","-3.1","10.0","9","-28.5","9","19.6","9","NA","77.1","9","NA","47.0","5","","","NA","479.3","0.0"
"-116.061","50.631","KOOTENAY NP WEST GATE","1154410","BC","-9.9","3","-5.8","2.0","3","-27.0","3","41.6","3","NA","41.6","3","NA","39.0","9","","","NA","698.5","0.0"
"-114.883","49.745","SPARWOOD","1157630","BC","-10.6","0","-6.1","4.0","0","-30.5","0","47.0","0","127.0","38.4","0","94.0","35.0","8","","","NA","800.6","0.0"
"-114.884","49.745","SPARWOOD CS","1157631","BC","-10.6","0","NA","3.9","0","-30.7","0","","","NA","","","NA","37.0","","","","NA","800.2","0.0"
"-121.281","50.708","ASHCROFT","1160515","BC","-4.5","0","NA","5.6","0","-18.0","0","","","NA","10.2","0","NA","","4","","","NA","630.5","0.0"
"-119.290","52.129","BLUE RIVER A","1160899","BC","-10.0","0","-5.6","3.5","0","-30.0","0","162.8","0","329.0","135.6","0","252.0","112.0","14","","","NA","783.2","0.0"
"-119.290","52.129","BLUE RIVER CS","1160H99","BC","-10.5","1","NA","3.1","1","-31.3","0","","","NA","112.4","1","NA","119.0","14","","","NA","769.2","0.0"
"-120.082","51.653","CLEARWATER AUTO","1161650","BC","-7.6","0","NA","3.9","0","-24.8","0","","","NA","","","NA","15.0","","","","NA","715.9","0.0"
"-121.685","51.266","CLINTON A","1161662","BC","-12.5","8","NA","4.2","8","-31.9","8","","","NA","18.9","8","NA","","5","","","NA","609.1","0.0"
"-121.505","51.144","CLINTON RCS","1161663","BC","-9.3","0","NA","4.3","0","-24.6","0","","","NA","44.4","0","NA","49.0","10","","","NA","765.2","0.0"
"-120.728","51.030","CRISS CREEK","1162177","BC","-10.4","0","-5.1","4.5","0","-29.5","0","69.4","0","418.0","75.4","0","427.0","61.0","15","","","NA","794.2","0.0"
"-120.183","51.292","DARFIELD","1162265","BC","-0.3","27","1.5","2.5","25","-7.5","25","21.0","25","NA","30.0","25","NA","","3","","","NA","18.3","0.0"
"-120.449","50.703","KAMLOOPS A","1163781","BC","-5.7","0","NA","4.9","0","-20.4","0","50.0","0","NA","51.9","0","NA","19.0","12","","","NA","663.2","0.0"
"-120.442","50.702","KAMLOOPS AUT","1163842","BC","-5.8","3","NA","5.2","3","-21.1","1","","","NA","42.7","3","NA","16.0","10","","","NA","595.0","0.0"
"-121.217","51.681","100 MILE HOUSE 6NE","1165793","BC","-10.2","0","NA","3.0","0","-31.0","0","94.4","0","NA","97.0","0","NA","77.0","16","","","NA","788.2","0.0"
"-120.800","50.935","RED LAKE","1166658","BC","-8.5","0","-4.4","6.0","0","-23.0","0","72.8","0","326.0","77.0","0","328.0","59.0","14","","","NA","740.6","0.0"
"-119.350","50.545","SILVER CREEK","1167337","BC","-5.7","0","-4.5","4.5","0","-23.5","0","81.8","0","502.0","90.4","0","291.0","66.0","14","","","NA","662.3","0.0"
"-119.911","50.903","SUN PEAKS MOUNTAIN","1168204","BC","-10.7","2","NA","-1.0","1","-24.0","1","85.0","1","NA","85.0","1","NA","174.0","19","","","NA","747.1","0.0"
"-119.778","51.576","VAVENBY","1168520","BC","-8.5","0","-5.9","3.5","0","-25.5","0","74.4","0","634.0","80.2","0","358.0","58.0","13","","","NA","743.0","0.0"
"-120.172","50.630","KAMLOOPS PRATT ROAD","116C8P0","BC","-6.1","0","NA","6.0","0","-20.0","0","60.0","0","NA","77.6","0","NA","43.0","13","","","NA","673.7","0.0"
"-119.291","50.703","SALMON ARM CS","116FRMN","BC","-5.4","2","-5.4","6.8","2","-24.7","1","","","NA","43.9","5","NA","47.0","12","","","NA","607.5","0.0"
"-119.883","50.887","SUN PEAKS LOWER","116Q20D","BC","-9.3","0","NA","2.0","0","-23.5","0","74.0","0","NA","74.0","0","NA","98.0","18","","","NA","765.1","0.0"
"-119.918","50.902","SUN PEAKS UPPER","116QK0M","BC","-11.8","0","NA","-2.0","0","-22.5","0","137.0","0","NA","137.0","0","NA","217.0","19","","","NA","834.0","0.0"
"-116.982","51.299","GOLDEN A","1173210","BC","-11.2","0","-6.2","2.0","0","-29.0","0","51.6","0","249.0","36.0","0","149.0","57.0","9","","","NA","818.7","0.0"
"-116.984","51.300","GOLDEN AIRPORT","1173220","BC","-11.3","0","NA","1.8","0","-29.4","0","","","NA","37.9","0","NA","58.0","11","","","NA","819.5","0.0"
"-118.425","51.630","GOLDSTREAM RIVER","1173242","BC","-7.4","0","-3.3","3.0","0","-24.0","0","121.0","0","195.0","121.0","0","182.0","128.0","14","","","NA","711.0","0.0"
"-118.585","52.053","MICA DAM","1175122","BC","-7.8","4","-4.5","2.0","2","-21.0","2","191.2","2","NA","191.2","2","NA","178.0","18","","","NA","620.0","0.0"
"-118.183","50.967","REVELSTOKE A","1176745","BC","-4.7","9","NA","2.0","9","-19.2","9","","","NA","58.4","9","NA","","9","","","NA","430.4","0.0"
"-118.176","50.958","REVELSTOKE AIRPORT AUTO","1176755","BC","-5.0","0","NA","2.1","0","-20.1","0","","","NA","112.2","0","NA","106.0","14","","","NA","645.0","0.0"
"-116.345","51.443","YOHO PARK","11790J1","BC","-14.1","1","NA","-1.3","1","-32.7","1","","","NA","11.2","1","NA","137.0","5","","","NA","865.5","0.0"
"-116.337","51.356","YOHO NP OHARA LAKE","117R00H","BC","-14.4","0","NA","-2.0","0","-33.0","0","108.0","0","NA","108.0","0","NA","120.0","14","","","NA","907.2","0.0"
"-121.627","55.687","CHETWYND A","1181508","BC","-12.2","0","-5.0","2.5","0","-36.0","0","65.0","0","287.0","26.6","0","164.0","25.0","5","","","NA","844.3","0.0"
"-120.183","55.742","DAWSON CREEK A","1182289","BC","-14.9","6","NA","1.8","6","-38.9","6","","","NA","19.9","16","NA","","2","","","NA","724.6","0.0"
"-120.740","56.238","FORT ST. JOHN A","1183001","BC","-13.5","0","NA","1.7","0","-33.7","0","36.8","0","NA","37.8","0","NA","31.0","8","","","NA","881.5","0.0"
"-123.133","55.299","MACKENZIE","1184791","BC","-15.6","9","NA","2.1","9","-34.7","9","","","NA","10.4","9","NA","","4","","","NA","638.6","0.0"
"-123.138","55.305","MACKENZIE AIRPORT AUTO","1184793","BC","-14.7","0","NA","2.6","0","-34.1","0","","","NA","37.8","0","NA","88.0","8","","","NA","915.1","0.0"
"-130.031","58.422","DEASE LAKE A","1192341","BC","-18.8","9","NA","-1.1","9","-38.2","8","","","NA","13.9","9","NA","","3","","","NA","699.9","0.0"
"-122.597","58.836","FORT NELSON A","1192946","BC","-15.1","0","NA","3.1","0","-31.7","0","28.9","0","NA","20.5","0","NA","60.0","7","","","NA","925.7","0.0"
"-122.574","58.841","FORT NELSON","1192948","BC","-14.5","1","NA","3.5","1","-30.9","0","","","NA","14.8","1","NA","52.0","7","","","NA","878.2","0.0"
"-130.025","58.426","DEASE LAKE (AUT)","119BLM0","BC","-16.6","2","NA","0.5","2","-38.0","0","","","NA","32.2","2","NA","47.0","8","","","NA","899.1","0.0"
"-133.700","59.567","ATLIN","1200560","BC","-17.5","4","-6.8","2.0","4","-37.0","4","17.0","4","NA","17.0","4","NA","13.0","6","","","NA","851.8","0.0"
"-136.367","59.450","PLEASANT CAMP","1206197","BC","-7.0","0","-1.6","5.0","0","-22.0","0","26.0","0","23.0","26.0","0","19.0","0.0","5","","","NA","699.5","0.0"
"-139.040","61.371","BURWASH A","2100181","YT","-19.3","8","NA","-1.2","8","-39.5","8","","","NA","5.6","8","NA","","3","","","NA","745.4","0.0"
"-139.017","61.367","BURWASH AIRPORT AUTO BC","2100184","YT","-19.3","1","NA","-1.4","1","-40.0","0","","","NA","15.0","1","NA","22.0","5","","","NA","1007.3","0.0"
"-136.192","62.115","CARMACKS CS","2100301","YT","-22.9","0","NA","-3.3","0","-45.4","0","","","NA","13.4","0","NA","39.0","7","","","NA","1143.9","0.0"
"-133.376","62.208","FARO (AUT)","2100518","YT","-22.1","0","NA","-3.8","0","-44.0","0","","","NA","0.0","0","NA","","0","","","NA","1122.7","0.0"
"-137.580","60.773","HAINES JUNCTION","2100630","YT","-17.5","0","NA","5.3","0","-41.4","0","","","NA","6.3","0","NA","30.0","1","","","NA","993.3","0.0"
"-140.150","69.164","IVVAVIK NAT. PARK","2100660","YT","-20.8","3","NA","-9.1","3","-33.2","2","","","NA","7.8","4","NA","14.0","2","","","NA","970.3","0.0"
"-140.197","69.612","KOMAKUK BEACH","2100682","YT","-16.4","1","NA","0.0","0","-33.9","1","","","NA","","","NA","","","","","NA","928.8","0.0"
"-135.868","63.616","MAYO A","2100701","YT","-24.7","2","NA","-4.2","2","-43.8","0","12.2","3","NA","7.3","7","NA","33.0","3","","","NA","1111.1","0.0"
"-139.839","67.571","OLD CROW RCS","2100805","YT","-22.6","1","NA","-1.9","1","-38.8","1","","","NA","15.9","2","NA","6.0","2","","","NA","1096.8","0.0"
"-136.218","66.981","ROCK RIVER","2100935","YT","-18.2","3","NA","-8.2","3","-28.9","2","","","NA","0.0","3","NA","","0","","","NA","904.3","0.0"
"-137.217","68.950","SHINGLE POINT A","2100950","YT","-16.4","0","NA","-1.1","0","-35.7","0","","","NA","","","NA","","","","","NA","962.5","0.0"
"-139.127","64.061","DAWSON","2100LRP","YT","-25.7","0","NA","-4.6","0","-44.9","0","","","NA","21.1","0","NA","56.0","4","","","NA","1223.9","0.0"
"-132.733","60.167","TESLIN (AUT)","2101102","YT","-18.7","0","NA","-0.2","0","-40.3","0","","","NA","26.0","0","NA","55.0","8","","","NA","1026.3","0.0"
"-128.832","60.116","WATSON LAKE (AUT)","2101204","YT","-25.5","7","NA","-4.2","7","-46.1","6","","","NA","8.6","7","NA","","2","","","NA","913.5","0.0"
"-135.067","60.709","WHITEHORSE A","2101303","YT","-18.3","0","NA","2.0","0","-38.3","0","","","NA","","","NA","","","","","NA","1017.3","0.0"
"-135.098","60.733","WHITEHORSE AUTO","2101310","YT","-17.6","0","NA","0.2","0","-37.8","0","","","NA","40.6","0","NA","44.0","11","","","NA","995.5","0.0"
"-124.717","70.167","CAPE PARRY A","2200675","NT","-22.0","1","NA","-10.3","1","-31.8","1","","","NA","","","NA","","","","","NA","1081.3","0.0"
"-123.433","65.209","DELINE CS","2201022","NT","-19.8","1","NA","-4.0","0","-35.8","1","","","NA","","","NA","","","","","NA","1021.1","0.0"
"-124.468","61.257","DEADMEN VALLEY","22010H0","NT","-21.1","5","NA","-1.1","4","-44.3","4","","","NA","","","NA","","","","","NA","898.4","0.0"
"-128.644","66.242","FORT GOOD HOPE CS","2201450","NT","-18.2","1","NA","-0.9","0","-37.3","1","","","NA","27.9","1","NA","","8","","","NA","978.1","0.0"
"-123.467","60.233","FORT LIARD","2201579","NT","-16.3","0","NA","5.9","0","-37.8","0","","","NA","","","NA","58.0","","","","NA","960.6","0.0"
"-117.602","61.317","FORT PROVIDENCE","2201799","NT","-18.9","1","NA","-1.5","0","-38.7","1","","","NA","","","NA","","","","","NA","996.5","0.0"
"-109.168","62.711","FORT RELIANCE (AUT)","2201903","NT","-25.8","3","NA","-6.9","3","-42.6","2","","","NA","13.8","3","NA","36.0","3","","","NA","1095.1","0.0"
"-121.237","61.760","FORT SIMPSON CLIMATE","2202102","NT","-18.7","1","NA","-0.6","0","-38.3","1","","","NA","3.0","1","NA","31.0","1","","","NA","992.1","0.0"
"-121.237","61.760","FORT SIMPSON A","2202103","NT","-18.5","0","NA","-0.3","0","-37.8","0","12.4","0","NA","6.4","0","NA","38.0","2","","","NA","1021.5","0.0"
"-111.962","60.020","FORT SMITH A","2202201","NT","-20.9","1","NA","-2.8","1","-39.1","0","14.8","0","NA","9.2","0","NA","50.0","5","","","NA","1049.4","0.0"
"-111.929","60.026","FORT SMITH CLIMATE","2202202","NT","-20.6","0","NA","-1.9","0","-38.6","0","","","NA","30.3","0","NA","61.0","15","","","NA","1080.8","0.0"
"-105.133","63.600","HANBURY RIVER","2202351","NT","-29.3","4","NA","-12.2","3","-44.3","3","","","NA","5.3","5","NA","18.0","1","","","NA","1134.4","0.0"
"-115.783","60.840","HAY RIVER A","2202401","NT","-19.3","1","NA","-3.3","0","-40.1","1","6.4","0","NA","6.0","0","NA","45.0","2","","","NA","1007.6","0.0"
"-115.777","60.839","HAY RIVER CLIMATE","2202402","NT","-18.7","1","NA","-2.6","1","-39.6","0","","","NA","3.1","1","NA","29.0","0","","","NA","991.8","0.0"
"-113.726","61.920","INNER WHALEBACKS","2202560","NT","","","NA","","","","","","","NA","3.5","3","NA","","1","","","NA","",""
"-133.517","68.317","INUVIK CLIMATE","2202578","NT","-18.0","1","NA","-2.0","0","-35.8","1","","","NA","17.5","1","NA","49.0","4","","","NA","972.4","0.0"
"-117.245","63.134","LAC LA MARTRE","2202678","NT","-22.1","1","NA","-3.9","0","-39.3","1","","","NA","","","NA","","","","","NA","1083.4","0.0"
"-126.799","65.281","NORMAN WELLS A","2202801","NT","-18.8","0","NA","-1.7","0","-40.3","0","42.6","0","NA","39.6","0","NA","39.0","10","","","NA","1030.4","0.0"
"-126.753","65.288","NORMAN WELLS CLIMATE","2202810","NT","-18.7","0","NA","-1.5","0","-40.1","0","","","NA","37.6","0","NA","50.0","9","","","NA","1026.4","0.0"
"-124.083","69.358","PAULATUK","2203058","NT","-21.8","1","NA","-8.5","0","-34.2","1","","","NA","16.1","1","NA","1.0","6","","","NA","1075.3","0.0"
"-135.444","69.633","PELLY ISLAND","2203095","NT","-20.5","3","NA","-8.7","3","-35.1","2","","","NA","0.0","3","NA","","0","","","NA","962.0","0.0"
"-127.209","61.963","RABBIT KETTLE","2203342","NT","-24.6","4","NA","-5.9","4","-48.0","2","","","NA","","","NA","","","","","NA","1021.6","0.0"
"-117.328","64.112","RAE LAKES","2203359","NT","-23.2","1","NA","-7.5","0","-40.4","1","","","NA","5.3","1","NA","27.0","1","","","NA","1112.5","0.0"
"-122.359","69.199","TUKTUT NOGAIT","2203918","NT","-25.9","3","NA","-15.1","3","-36.7","2","","","NA","","","NA","","","","","NA","1096.6","0.0"
"-114.440","62.463","YELLOWKNIFE A","2204101","NT","-23.2","0","NA","-8.3","0","-40.9","0","19.6","0","NA","14.4","0","NA","39.0","7","","","NA","1154.0","0.0"
"-114.383","62.450","YELLOWKNIFE-HENDERSON","2204110","NT","-18.3","0","NA","1.0","0","-32.0","0","6.6","0","NA","7.4","0","NA","28.0","4","","","NA","1017.0","0.0"
"-123.742","61.242","YOHIN","2204300","NT","-16.0","9","NA","3.9","8","-40.7","4","","","NA","","","NA","32.0","","","","NA","646.0","0.0"
"-130.911","69.604","LIVERPOOL BAY","220B68C","NT","-21.9","0","NA","-5.2","0","-35.5","0","","","NA","","","NA","","","","","NA","1117.2","0.0"
"-122.851","61.125","LINDBURG LANDING","220N003","NT","-15.3","17","NA","1.6","17","-30.1","13","","","NA","3.1","17","NA","52.0","1","","","NA","366.0","0.0"
"-113.863","63.603","LOWER CARP LAKE","220N004","NT","-25.4","10","NA","-10.8","10","-39.8","7","","","NA","","","NA","23.0","","","","NA","782.0","0.0"
"-133.502","68.746","TRAIL VALLEY","220N005","NT","-19.6","3","NA","-6.6","3","-36.8","2","","","NA","7.2","3","NA","32.0","3","","","NA","939.1","0.0"
"-94.072","61.094","ARVIAT A","2300427","NU","-29.7","5","NA","-9.4","5","-43.5","5","","","NA","7.2","5","NA","","1","","","NA","1097.6","0.0"
"-96.000","64.317","BAKER LAKE CLIMATE","2300501","NU","-33.5","5","NA","-12.2","4","-45.7","5","","","NA","3.1","5","NA","1.0","0","","","NA","1184.2","0.0"
"-96.078","64.299","BAKER LAKE A","2300503","NU","-33.4","0","NA","-12.2","0","-45.1","0","5.0","0","NA","16.3","0","NA","19.0","4","","","NA","1439.7","0.0"
"-108.015","66.838","BATHURST INLET","2300551","NU","-25.3","4","NA","-12.0","4","-38.4","2","","","NA","2.9","4","NA","13.0","0","","","NA","1038.4","0.0"
"-115.144","67.817","KUGLUKTUK A","2300903","NU","-23.6","0","NA","-11.7","0","-41.5","0","36.0","0","NA","12.2","0","NA","18.0","4","","","NA","1163.8","0.0"
"-115.135","67.817","KUGLUKTUK CLIMATE","2300904","NU","-23.4","1","NA","-11.7","0","-41.5","1","","","NA","5.7","1","NA","31.0","1","","","NA","1117.4","0.0"
"-83.359","64.193","CORAL HARBOUR A","2301002","NU","-35.1","4","NA","-22.3","2","-48.3","2","0.2","1","NA","0.4","1","NA","49.0","0","","","NA","1273.8","0.0"
"-83.350","64.183","CORAL HARBOUR RCS","2301010","NU","-35.0","4","NA","-21.5","3","-47.6","3","","","NA","7.2","5","NA","21.0","1","","","NA","1271.7","0.0"
"-100.884","61.132","ENNADAI LAKE (AUT)","2301102","NU","-29.5","7","NA","-5.2","5","-41.6","4","","","NA","1.8","7","NA","14.0","0","","","NA","996.8","0.0"
"-94.067","61.100","ARVIAT CLIMATE","2301153","NU","-31.1","0","NA","-9.7","0","-44.8","0","","","NA","7.2","0","NA","11.0","2","","","NA","1375.0","0.0"
"-95.850","68.636","GJOA HAVEN A","2302337","NU","-37.6","9","NA","-27.6","9","-46.2","8","","","NA","0.0","11","NA","","0","","","NA","1056.1","0.0"
"-95.850","68.636","GJOA HAVEN CLIMATE","2302340","NU","-34.5","16","NA","-15.1","15","-46.6","15","","","NA","10.7","5","NA","","3","","","NA","630.3","0.0"
"-89.726","68.437","CAM FOUR","2303093","NU","-38.7","15","NA","-33.9","15","-43.0","15","","","NA","","","NA","","","","","NA","737.0","0.0"
"-89.796","68.538","KUGAARUK CLIMATE","2303094","NU","-39.1","9","NA","-24.9","8","-51.8","6","","","NA","1.0","11","NA","","0","","","NA","1084.1","0.0"
"-92.115","62.811","RANKIN INLET A","2303405","NU","-33.5","0","NA","-11.9","0","-45.5","0","10.2","0","NA","10.6","0","NA","31.0","4","","","NA","1443.1","0.0"
"-79.260","56.537","SANIKILUAQ","2303668","NU","-25.5","4","NA","-9.7","4","-36.0","2","","","NA","3.2","4","NA","","1","","","NA","1043.3","0.0"
"-119.219","69.276","CROKER RIVER","230J01Q","NU","-21.7","1","NA","-9.9","0","-37.7","1","","","NA","","","NA","","","","","NA","1071.8","0.0"
"-111.246","65.755","LUPIN CS","230N002","NU","-28.3","7","NA","-18.3","5","-41.4","4","","","NA","1.8","8","NA","31.0","0","","","NA","972.8","0.0"
"-62.333","82.500","ALERT CLIMATE","2400305","NU","-24.8","0","NA","-4.7","0","-36.8","0","","","NA","14.0","0","NA","15.0","3","","","NA","1199.3","0.0"
"-62.333","82.500","ALERT UA","2400306","NU","","","NA","","","","","7.2","1","NA","6.2","1","NA","15.0","3","","","NA","",""
"-85.012","72.993","ARCTIC BAY CS","2400404","NU","-35.8","3","NA","-14.3","3","-45.8","2","","","NA","0.8","3","NA","1.0","0","","","NA","1346.1","0.0"
"-64.146","63.340","BREVOORT ISLAND","2400565","NU","-25.6","1","NA","-3.2","1","-35.9","1","","","NA","","","NA","","","","","NA","1176.6","0.0"
"-63.789","67.536","FOX FIVE","2400570","NU","-28.7","1","NA","-4.7","0","-37.1","1","","","NA","","","NA","","","","","NA","1260.3","0.0"
"-64.033","67.547","QIKIQTARJUAQ CLIMATE","2400573","NU","-31.7","1","NA","-11.7","1","-44.1","1","","","NA","3.9","1","NA","102.0","0","","","NA","1343.2","0.0"
"-64.032","67.547","QIKIQTARJUAQ A","2400577","NU","-31.6","10","NA","-11.3","10","-43.9","10","","","NA","0.0","10","NA","","0","","","NA","893.5","0.0"
"-105.137","69.108","CAMBRIDGE BAY A","2400601","NU","-32.5","0","NA","-15.1","0","-44.9","0","2.0","0","NA","2.0","0","NA","26.0","0","","","NA","1413.3","0.0"
"-105.138","69.108","CAMBRIDGE BAY GSN","2400602","NU","-32.0","2","NA","-15.0","1","-44.2","1","","","NA","7.0","2","NA","2.0","2","","","NA","1300.0","0.0"
"-76.530","64.231","CAPE DORSET CLIMATE","2400636","NU","-27.8","1","NA","-13.2","1","-37.5","1","","","NA","34.5","1","NA","","12","","","NA","1237.2","0.0"
"-76.525","64.230","CAPE DORSET A","2400637","NU","-27.7","9","NA","-12.8","9","-37.1","9","","","NA","0.2","9","NA","","0","","","NA","868.7","0.0"
"-66.815","68.473","CAPE HOOPER","2400660","NU","-29.0","1","NA","-4.2","0","-36.9","1","","","NA","","","NA","","","","","NA","1269.7","0.0"
"-107.823","69.036","CAPE PEEL WEST","2400697","NU","-30.3","0","NA","-14.7","0","-40.1","0","","","NA","","","NA","","","","","NA","1352.5","0.0"
"-68.517","70.486","CLYDE RIVER A","2400804","NU","-32.0","11","NA","-9.9","11","-41.8","11","","","NA","2.1","12","NA","","1","","","NA","850.0","0.0"
"-63.578","64.958","CAPE MERCY","2400F63","NU","-28.3","1","NA","-6.8","0","-38.5","1","","","NA","","","NA","","","","","NA","1251.1","0.0"
"-71.167","68.650","DEWAR LAKES","2401030","NU","-31.4","0","NA","-7.7","0","-40.5","0","","","NA","","","NA","","","","","NA","1382.3","0.0"
"-85.934","79.989","EUREKA CLIMATE","2401199","NU","-34.1","1","NA","-18.9","0","-45.6","1","","","NA","1.2","1","NA","9.0","0","","","NA","1407.9","0.0"
"-85.812","79.994","EUREKA A","2401203","NU","-33.2","0","NA","-17.7","0","-43.4","0","1.0","0","NA","0.4","0","NA","12.0","0","","","NA","1433.5","0.0"
"-94.198","72.018","FORT ROSS","2402051","NU","-33.2","3","NA","-22.0","3","-42.0","2","","","NA","3.0","3","NA","27.0","0","","","NA","1280.9","0.0"
"-82.902","76.423","GRISE FIORD CLIMATE","2402351","NU","-31.5","3","NA","-15.4","3","-41.8","2","","","NA","4.9","3","NA","1.0","1","","","NA","1237.8","0.0"
"-81.244","68.776","HALL BEACH CLIMATE","2402353","NU","-35.0","1","NA","-19.4","1","-49.6","1","","","NA","2.6","1","NA","","0","","","NA","1429.7","0.0"
"-81.243","68.776","HALL BEACH A","2402354","NU","-38.3","15","NA","-23.8","15","-48.5","15","","","NA","0.0","17","NA","","0","","","NA","732.2","0.0"
"-68.544","63.747","IQALUIT CLIMATE","2402592","NU","-27.9","0","NA","-4.0","0","-41.4","0","","","NA","2.6","0","NA","21.0","1","","","NA","1283.8","0.0"
"-65.711","66.143","PANGNIRTUNG","2403049","NU","-28.1","0","NA","-0.3","0","-41.6","0","","","NA","2.6","0","NA","5.0","0","","","NA","1289.5","0.0"
"-77.958","72.693","POND INLET CLIMATE","2403204","NU","-36.3","0","NA","-18.2","0","-45.4","0","","","NA","1.9","0","NA","6.0","0","","","NA","1520.3","0.0"
"-77.969","72.689","POND INLET A","2403206","NU","-36.3","6","NA","-17.7","6","-44.2","6","","","NA","0.0","7","NA","","0","","","NA","1195.1","0.0"
"-94.969","74.717","RESOLUTE BAY A","2403498","NU","-31.9","1","NA","-18.8","1","-39.6","0","2.0","0","NA","2.4","1","NA","28.0","0","","","NA","1348.0","0.0"
"-94.983","74.716","RESOLUTE CS","2403505","NU","-31.5","1","NA","-18.4","0","-39.2","1","","","NA","3.0","1","NA","4.0","1","","","NA","1336.2","0.0"
"-64.650","61.583","RESOLUTION ISLAND","2403602","NU","-24.4","1","NA","-6.0","0","-32.5","1","","","NA","","","NA","","","","","NA","1145.3","0.0"
"-79.033","69.083","ROWLEY ISLAND","2403625","NU","-30.7","0","NA","-16.0","0","-39.7","0","","","NA","","","NA","","","","","NA","1364.9","0.0"
"-105.296","73.766","STEFANSSON ISLAND","2403756","NU","-32.9","9","NA","-17.9","8","-43.0","7","","","NA","1.4","11","NA","","0","","","NA","967.5","0.0"
"-91.816","81.161","SVARTEVAEG","2403833","NU","-30.9","0","NA","-20.8","0","-37.5","0","","","NA","","","NA","21.0","","","","NA","1368.1","0.0"
"-93.577","69.547","TALOYOAK A","2403855","NU","-36.9","0","NA","-15.0","0","-48.8","0","3.8","0","NA","4.0","0","NA","20.0","0","","","NA","1536.0","0.0"
"-89.446","65.879","WAGER BAY (AUT)","2403945","NU","-34.8","3","NA","-16.3","3","-45.1","2","","","NA","5.6","4","NA","","1","","","NA","1318.8","0.0"
"-119.989","74.139","NANGMAGVIK LAKE","2500440","NT","-24.7","16","NA","-14.4","12","-34.6","11","","","NA","4.1","22","NA","","1","","","NA","511.9","0.0"
"-112.161","74.457","CAPE PROVIDENCE","2501419","NT","-27.1","3","NA","-17.0","3","-36.5","3","","","NA","","","NA","","","","","NA","1126.7","0.0"
"-117.800","70.761","HOLMAN CS","2502505","NT","-25.3","1","NA","-16.3","0","-37.1","1","","","NA","15.1","1","NA","16.0","2","","","NA","1167.8","0.0"
"-119.347","76.238","MOULD BAY CS","250M001","NT","-27.4","3","NA","-16.8","3","-40.6","2","","","NA","1.6","4","NA","","0","","","NA","1136.2","0.0"
"-112.967","54.283","ABEE AGDM","3010010","AB","-16.3","7","NA","2.7","5","-35.6","5","","","NA","9.8","7","NA","","4","","","NA","719.9","0.0"
"-111.181","53.113","ALBERT HALL AGCM","3010060","AB","-17.1","1","NA","4.4","1","-33.3","1","","","NA","8.3","1","NA","","3","","","NA","948.3","0.0"
"-111.779","52.315","ALLIANCE AGCM","3010162","AB","-15.6","1","NA","4.9","0","-31.4","1","","","NA","9.2","1","NA","","3","","","NA","908.0","0.0"
"-112.279","53.917","ANDREW AGDM","3010237","AB","-16.0","5","NA","3.7","5","-33.7","2","","","NA","5.5","5","NA","","2","","","NA","782.2","0.0"
"-111.465","52.582","BELLSHILL AGCM","3010650","AB","-13.4","10","NA","4.9","10","-30.1","3","","","NA","1.4","10","NA","","0","","","NA","565.4","0.0"
"-110.101","52.124","BODO AGDM","3010730","AB","-15.9","4","NA","4.8","4","-32.9","2","","","NA","6.0","4","NA","","2","","","NA","814.5","0.0"
"-114.441","53.089","BRETON PLOTS","3010816","AB","-12.7","1","NA","6.0","1","-29.6","1","","","NA","27.1","1","NA","","7","","","NA","828.3","0.0"
"-113.922","53.931","BUSBY AGCM","3010979","AB","-15.0","1","NA","4.0","1","-30.7","1","","","NA","11.1","1","NA","","4","","","NA","890.9","0.0"
"-110.510","52.334","CADOGAN AGCM","3010992","AB","-15.9","1","NA","4.9","0","-31.3","1","","","NA","5.2","2","NA","","2","","","NA","916.5","0.0"
"-112.817","53.050","CAMROSE","3011240","AB","-15.3","1","-5.7","4.4","1","-32.3","0","","","NA","10.2","1","NA","24.0","2","","","NA","899.8","0.0"
"-110.713","51.937","CONSORT AGDM","3011815","AB","-17.1","10","NA","1.3","9","-32.4","5","","","NA","1.3","10","NA","","0","","","NA","632.0","0.0"
"-111.449","52.074","CORONATION CLIMATE","3011887","AB","-13.6","17","NA","-1.0","17","-29.0","16","","","NA","0.3","17","NA","4.0","0","","","NA","347.1","0.0"
"-113.903","52.733","CRESTOMERE AGCM","3011892","AB","-13.9","3","NA","6.8","3","-34.3","2","","","NA","17.9","3","NA","","6","","","NA","796.8","0.0"
"-113.176","52.183","DELBURNE AGCM","3012050","AB","-13.9","3","NA","8.9","3","-29.5","2","","","NA","13.1","3","NA","","5","","","NA","798.5","0.0"
"-110.588","53.659","DEWBERRY AGCM","3012073","AB","-17.1","6","NA","3.7","6","-32.4","3","","","NA","6.5","6","NA","","2","","","NA","772.1","0.0"
"-110.433","52.778","EDGERTON AGCM","3012192","AB","-15.8","5","NA","4.6","5","-32.0","2","","","NA","5.5","6","NA","","1","","","NA","776.7","0.0"
"-113.606","53.307","EDMONTON INTERNATIONAL CS","3012206","AB","-15.7","1","NA","3.9","0","-40.1","1","","","NA","34.4","2","NA","","11","","","NA","910.9","0.0"
"-113.517","53.573","EDMONTON BLATCHFORD","3012209","AB","-12.3","0","NA","4.6","0","-30.7","0","","","NA","12.1","0","NA","25.0","2","","","NA","848.2","0.0"
"-113.467","53.667","EDMONTON NAMAO AWOS A","3012212","AB","-13.8","2","NA","4.1","1","-27.9","1","","","NA","8.5","2","NA","","5","","","NA","827.7","0.0"
"-113.579","53.310","EDMONTON INTL A","3012216","AB","-15.4","0","NA","3.8","0","-39.3","0","16.2","0","NA","16.2","0","NA","22.0","2","","","NA","935.1","0.0"
"-113.856","53.668","EDMONTON VILLENEUVE A","3012229","AB","-12.9","5","NA","3.4","5","-33.4","5","","","NA","4.3","5","NA","","1","","","NA","711.2","0.0"
"-114.108","53.548","EDMONTON STONY PLAIN","301222F","AB","-11.8","0","-4.4","5.0","0","-27.5","0","18.8","0","120.0","15.8","0","108.0","17.0","3","","","NA","835.2","0.0"
"-112.868","53.683","ELK ISLAND NAT PARK","3012275","AB","-14.0","1","-4.8","7.2","0","-32.0","1","","","NA","20.5","1","NA","39.0","7","","","NA","864.7","0.0"
"-111.000","52.967","FABYAN","3012515","AB","-16.7","2","-5.3","19.5","1","-37.0","1","2.6","1","NA","4.6","1","NA","0.0","2","","","NA","902.9","0.0"
"-112.858","52.744","FERINTOSH AGCM","3012590","AB","-16.3","6","NA","4.2","5","-33.2","4","","","NA","10.6","6","NA","","3","","","NA","753.7","0.0"
"-112.120","52.467","FORESTBURG PLANT SITE","3012652","AB","-14.7","0","-7.3","5.5","0","-35.0","0","11.4","0","123.0","11.4","0","122.0","0.0","2","","","NA","916.7","0.0"
"-112.123","52.548","FORESTBURG AGCM","3012653","AB","-15.6","1","NA","5.8","0","-31.9","1","","","NA","7.6","1","NA","","2","","","NA","905.9","0.0"
"-113.183","53.717","FORT SASKATCHEWAN","3012710","AB","-11.1","20","-1.7","5.0","20","-26.0","16","0.0","16","NA","0.0","16","NA","0.0","0","","","NA","232.5","0.0"
"-110.621","53.071","GILT EDGE NORTH AGCM","3012790","AB","-18.8","12","NA","4.1","12","-30.8","5","","","NA","6.8","12","NA","","3","","","NA","588.8","0.0"
"-114.539","53.833","GLENEVIS AGCM","3012818","AB","-11.9","1","NA","5.7","0","-26.1","1","","","NA","","","NA","","","","","NA","807.4","0.0"
"-112.164","52.116","HALKIRK AGCM","3012999","AB","-16.2","1","NA","4.6","0","-32.8","1","","","NA","7.0","18","NA","","3","","","NA","923.2","0.0"
"-111.212","51.780","HEMARUKA AGCM","3013140","AB","-17.9","1","NA","1.7","0","-35.6","1","","","NA","3.2","20","NA","","1","","","NA","969.7","0.0"
"-112.246","53.185","HOLDEN AGDM","3013340","AB","-15.9","6","NA","3.9","4","-31.7","4","","","NA","15.7","6","NA","","5","","","NA","746.2","0.0"
"-110.784","52.578","HUGHENDEN AGCM","3013362","AB","-18.6","13","NA","4.0","10","-33.5","7","","","NA","4.6","15","NA","","2","","","NA","548.5","0.0"
"-111.872","52.848","KILLAM AGDM","3013640","AB","-19.2","12","NA","3.7","12","-34.0","9","","","NA","18.6","13","NA","","9","","","NA","595.9","0.0"
"-110.416","53.353","KITSCOTY AGCM","3013660","AB","-16.7","3","NA","2.5","3","-33.0","2","","","NA","3.9","3","NA","","2","","","NA","868.7","0.0"
"-113.474","54.003","LEGAL AGCM","3013790","AB","-13.6","5","NA","3.7","4","-29.4","4","","","NA","8.6","6","NA","","3","","","NA","727.6","0.0"
"-110.579","53.943","LINDBERGH AGDM","3013921","AB","-17.0","3","NA","2.9","3","-32.1","2","","","NA","6.4","4","NA","","1","","","NA","874.2","0.0"
"-110.073","53.309","LLOYDMINSTER","3013959","AB","-15.2","9","NA","2.5","9","-30.0","9","","","NA","12.2","9","NA","","1","","","NA","630.3","0.0"
"-110.073","53.309","LLOYDMINSTER A","3013961","AB","-16.6","0","-4.8","2.5","0","-30.0","0","8.0","0","81.0","8.2","0","83.0","19.0","3","","","NA","967.8","0.0"
"-112.267","53.083","HOLDEN SOUTH","3013C44","AB","","","NA","","","","","17.4","9","NA","17.8","9","NA","","5","","","NA","",""
"-111.255","53.456","MANNVILLE AGCM","3014195","AB","-15.9","0","NA","3.4","0","-30.2","0","","","NA","8.5","0","NA","","2","","","NA","949.4","0.0"
"-110.550","52.017","MONITOR","3014600","AB","","","NA","","","","","8.4","0","97.0","8.4","0","95.0","0.0","1","","","NA","",""
"-112.300","53.567","MUNDARE AGDM","3014665","AB","-14.9","3","NA","4.3","3","-29.1","2","","","NA","9.6","3","NA","12.0","4","","","NA","821.9","0.0"
"-111.114","53.720","MYRNAM AGCM","3014690","AB","-17.0","5","NA","4.9","4","-35.0","3","","","NA","6.7","5","NA","","2","","","NA","804.3","0.0"
"-113.165","53.262","NEW SAREPTA AGCM","3014795","AB","-12.8","8","NA","4.2","8","-30.8","2","","","NA","5.4","8","NA","","1","","","NA","615.0","0.0"
"-113.350","53.650","OLIVER AGDM","3014921","AB","-12.9","7","NA","4.5","6","-29.1","3","","","NA","","","NA","","","","","NA","649.1","0.0"
"-112.879","53.995","RADWAY AGCM","3015346","AB","-15.7","1","NA","4.6","0","-33.3","1","","","NA","","","NA","","","","","NA","909.5","0.0"
"-111.726","53.425","RANFURLY AUTO","3015401","AB","-16.2","1","NA","4.1","1","-30.5","0","","","NA","10.0","1","NA","15.0","3","","","NA","923.9","0.0"
"-110.343","52.587","RIBSTONE SOUTH AGCM","3015480","AB","-15.5","5","NA","4.6","5","-33.2","2","","","NA","5.0","5","NA","","2","","","NA","771.2","0.0"
"-110.102","53.019","RIVERCOURSE AGCM","3015501","AB","-16.5","7","NA","3.4","5","-32.0","5","","","NA","4.9","7","NA","","1","","","NA","724.4","0.0"
"-114.912","52.421","ROCKY MTN HOUSE (AUT)","3015523","AB","-15.7","1","NA","5.7","0","-38.1","1","","","NA","24.2","1","NA","32.0","5","","","NA","908.9","0.0"
"-112.428","52.780","ROSALIND AGCM","3015600","AB","-16.2","1","NA","4.3","1","-32.3","1","","","NA","9.4","4","NA","","2","","","NA","922.9","0.0"
"-111.453","54.282","ST. LINA AGCM","3015673","AB","-15.5","8","NA","3.7","8","-30.5","2","","","NA","7.0","6","NA","","3","","","NA","669.9","0.0"
"-111.272","54.011","ST. PAUL AGCM","3015676","AB","-17.2","1","NA","2.8","0","-33.5","1","","","NA","5.6","22","NA","","1","","","NA","951.0","0.0"
"-110.755","51.590","SEDALIA AGCM","3015797","AB","-17.6","1","NA","0.8","0","-34.7","1","","","NA","5.9","2","NA","","2","","","NA","962.4","0.0"
"-112.539","53.333","SHONTS AGCM","3015900","AB","-15.7","1","NA","4.9","0","-32.2","1","","","NA","11.1","1","NA","","4","","","NA","909.4","0.0"
"-112.499","54.278","SMOKY LAKE AGDM","3016022","AB","-15.4","1","NA","3.4","0","-31.2","1","","","NA","9.8","2","NA","","2","","","NA","902.9","0.0"
"-111.683","51.816","SPONDIN AGCM","3016070","AB","-17.4","1","NA","3.9","0","-33.1","1","","","NA","7.9","16","NA","","3","","","NA","956.5","0.0"
"-112.596","52.347","STETTLER AGDM","3016124","AB","-15.4","5","NA","4.2","4","-29.4","3","","","NA","10.8","5","NA","","3","","","NA","767.7","0.0"
"-113.895","53.217","THORSBY AGCM","3016441","AB","-13.2","6","NA","6.2","6","-32.8","3","","","NA","13.3","6","NA","","3","","","NA","685.9","0.0"
"-114.718","53.439","TOMAHAWK AGDM","3016505","AB","-11.9","3","NA","3.9","2","-29.5","1","","","NA","22.6","4","NA","","7","","","NA","748.6","0.0"
"-110.081","53.664","TULLIBY LAKE AGCM","3016593","AB","-18.2","7","NA","3.2","5","-36.5","5","","","NA","5.3","7","NA","","2","","","NA","759.7","0.0"
"-113.033","53.500","UNCAS","3016650","AB","","","NA","","","","","16.2","0","NA","16.8","0","NA","30.0","5","","","NA","",""
"-111.678","53.625","TWO HILLS AGDM","3016655","AB","-15.7","3","NA","3.6","3","-28.8","2","","","NA","7.5","4","NA","","1","","","NA","843.6","0.0"
"-110.882","53.344","VERMILION AGDM","3016802","AB","-16.0","7","NA","3.8","6","-32.1","5","","","NA","7.2","8","NA","","2","","","NA","713.9","0.0"
"-111.732","53.182","VIKING AGCM","3016841","AB","-14.8","8","NA","4.3","8","-30.0","2","","","NA","7.0","8","NA","","3","","","NA","656.0","0.0"
"-111.921","54.130","VILNA AGCM","3016852","AB","-15.4","4","NA","3.0","3","-29.1","3","","","NA","7.3","4","NA","","2","","","NA","801.2","0.0"
"-115.126","53.144","VIOLET GROVE CS","3016860","AB","","","NA","","","-23.8","27","","","NA","","","NA","","","","","NA","",""
"-112.098","53.505","VEGREVILLE","3016GF0","AB","-16.7","1","-5.9","4.8","0","-35.0","1","","","NA","","","NA","","","","","NA","937.4","0.0"
"-113.444","52.980","WETASKIWIN AGCM","3017282","AB","-13.5","9","NA","4.9","9","-33.5","2","","","NA","13.6","8","NA","","4","","","NA","598.0","0.0"
"-114.108","53.547","EDMONTON STONY PLAIN CS","301A001","AB","-12.4","2","NA","5.0","1","-27.8","1","","","NA","14.0","2","NA","17.0","3","","","NA","790.8","0.0"
"-110.206","51.670","ESTHER 1","301B460","AB","-16.0","1","NA","3.4","1","-31.1","0","","","NA","4.1","1","NA","","1","","","NA","917.4","0.0"
"-113.533","53.517","UNIVERSITY OF ALBERTA METABOLIC CENTRE","301FFNJ","AB","-12.0","0","-3.6","4.5","0","-29.0","0","15.0","0","152.0","15.0","0","152.0","0.0","4","","","NA","840.8","0.0"
"-111.096","52.829","WAINWRIGHT CFB AIRFIELD 21","301S001","AB","-16.2","3","NA","3.7","3","-32.4","3","","","NA","6.5","3","NA","","2","","","NA","856.1","0.0"
"-110.317","51.066","ACADIA VALLEY","3020035","AB","-16.4","1","NA","3.4","0","-36.4","1","","","NA","11.1","2","NA","","3","","","NA","928.6","0.0"
"-111.006","50.810","ATLEE AGCM","3020405","AB","-17.0","1","NA","2.5","0","-35.6","1","","","NA","16.7","2","NA","","4","","","NA","945.5","0.0"
"-113.357","51.379","BEISEKER AGCM","3020610","AB","-15.1","1","NA","6.9","1","-36.7","1","","","NA","16.2","2","NA","","3","","","NA","892.6","0.0"
"-112.803","51.998","BIG VALLEY AGCM","3020679","AB","-15.3","1","NA","7.0","0","-33.0","1","","","NA","8.8","2","NA","","3","","","NA","899.0","0.0"
"-112.252","51.775","CRAIGMYLE AGCM","3021912","AB","-15.9","1","NA","4.3","0","-31.4","1","","","NA","12.1","1","NA","","4","","","NA","915.7","0.0"
"-112.283","51.767","CRAIGMYLE","3021940","AB","-16.6","0","-7.8","5.0","0","-33.0","0","22.8","0","183.0","22.8","0","181.0","0.0","7","","","NA","967.5","0.0"
"-112.677","51.445","DRUMHELLER EAST","30221LG","AB","-16.6","1","NA","4.9","0","-35.9","1","","","NA","","","NA","","","","","NA","933.6","0.0"
"-114.486","52.310","HESPERO AGCM","3023200","AB","-15.8","1","NA","6.3","0","-38.2","1","","","NA","14.9","1","NA","","4","","","NA","912.0","0.0"
"-112.500","51.183","HUSSAR AGDM","3023402","AB","-14.2","3","NA","5.9","3","-27.6","2","","","NA","8.0","3","NA","","2","","","NA","805.9","0.0"
"-113.756","52.449","LACOMBE CDA 2","3023722","AB","-15.5","1","NA","7.5","0","-33.4","1","","","NA","18.5","1","NA","57.0","7","","","NA","904.9","0.0"
"-114.473","52.553","LEEDALE AGDM","3023740","AB","-16.4","4","NA","3.1","4","-38.4","2","","","NA","19.4","4","NA","1.0","5","","","NA","824.9","0.0"
"-113.656","51.619","LINDEN AGCM","3023850","AB","-16.4","1","NA","6.1","0","-40.2","1","","","NA","16.7","3","NA","","4","","","NA","929.1","0.0"
"-112.675","51.660","MORRIN AGDM","3024668","AB","-16.8","6","NA","2.8","5","-32.8","4","","","NA","24.0","6","NA","","9","","","NA","764.6","0.0"
"-114.085","51.759","OLDS AGDM","3024925","AB","-13.7","4","NA","6.7","4","-29.7","2","","","NA","16.9","4","NA","","5","","","NA","761.8","0.0"
"-110.350","51.383","OYEN AGDM","3024965","AB","-16.6","5","NA","0.8","4","-31.5","3","","","NA","6.5","5","NA","","2","","","NA","796.4","0.0"
"-111.705","51.125","POLLOCKVILLE AGDM","3025243","AB","-18.1","6","NA","1.5","6","-38.2","3","","","NA","8.2","6","NA","","2","","","NA","794.5","0.0"
"-113.600","52.433","PRENTISS","3025297","AB","-13.8","4","NA","7.1","4","-29.5","2","","","NA","12.7","9","NA","","4","","","NA","762.5","0.0"
"-113.894","52.182","RED DEER REGIONAL A","3025481","AB","-16.5","1","NA","5.4","1","-35.3","1","","","NA","","","NA","","","","","NA","932.3","0.0"
"-110.091","50.307","SCHULER AGDM","3025768","AB","-15.2","7","NA","2.7","6","-29.2","3","","","NA","12.3","8","NA","","3","","","NA","698.1","0.0"
"-110.146","51.425","SIBBALD WESTGARD","3025928","AB","-17.9","6","NA","-0.5","6","-35.0","6","9.0","6","NA","9.0","6","NA","5.0","3","","","NA","789.4","0.0"
"-113.206","51.768","THREE HILLS","3026479","AB","-15.9","1","NA","7.0","0","-34.7","1","","","NA","16.2","3","NA","","6","","","NA","915.3","0.0"
"-114.683","51.778","SUNDRE A","3026KNQ","AB","-16.0","1","NA","9.4","0","-39.2","1","","","NA","44.8","1","NA","29.0","8","","","NA","918.6","0.0"
"-113.591","51.936","WIMBORNE AGCM","3027582","AB","-14.1","1","NA","7.1","0","-34.1","1","","","NA","10.8","1","NA","","4","","","NA","866.7","0.0"
"-114.013","50.512","AZURE","3030450","AB","-12.6","1","NA","7.2","0","-30.0","1","","","NA","13.5","9","NA","","5","","","NA","825.5","0.0"
"-112.300","49.800","BARNWELL AGDM","3030525","AB","-11.8","13","NA","4.2","11","-35.7","7","","","NA","6.1","13","NA","","3","","","NA","447.4","0.0"
"-113.224","50.026","BARONS AGCM","3030529","AB","-15.2","1","NA","5.6","1","-34.4","1","","","NA","13.6","3","NA","","4","","","NA","896.5","0.0"
"-112.465","50.893","BASSANO AGCM","3030540","AB","-16.9","1","NA","4.4","0","-37.0","1","","","NA","10.5","2","NA","","2","","","NA","943.2","0.0"
"-114.152","50.707","BLACK DIAMOND","3030680","AB","-13.9","1","NA","7.2","0","-32.2","1","","","NA","5.7","17","NA","","1","","","NA","862.0","0.0"
"-113.050","49.567","BLOOD TRIBE AGDM","3030720","AB","-12.6","3","NA","3.6","3","-33.3","2","","","NA","25.4","11","NA","","6","","","NA","766.0","0.0"
"-111.450","49.734","BOW ISLAND","3030768","AB","-14.9","1","NA","5.4","0","-37.0","1","","","NA","33.6","1","NA","","8","","","NA","888.9","0.0"
"-111.383","49.867","BOW ISLAND IRRIGATION AGDM","3030772","AB","-15.2","1","NA","5.5","0","-36.9","1","","","NA","25.4","1","NA","","7","","","NA","897.4","0.0"
"-113.817","49.617","BROCKET AGDM","3030830","AB","-11.8","4","NA","4.7","4","-28.4","2","","","NA","30.7","4","NA","","7","","","NA","716.0","0.0"
"-111.849","50.555","BROOKS","3030QLP","AB","-16.2","1","NA","3.6","0","-37.7","1","","","NA","15.7","1","NA","11.0","5","","","NA","923.8","0.0"
"-114.013","51.123","CALGARY INTL A","3031092","AB","-11.6","1","NA","9.7","0","-30.6","1","43.3","0","NA","37.8","0","NA","3.0","6","","","NA","800.4","0.0"
"-114.000","51.109","CALGARY INT'L CS","3031094","AB","-12.8","0","NA","9.0","0","-31.6","0","","","NA","27.4","0","NA","2.0","6","","","NA","861.2","0.0"
"-113.286","49.201","CARDSTON","3031322","AB","-10.5","1","NA","7.8","0","-32.8","1","","","NA","36.2","1","NA","","10","","","NA","770.3","0.0"
"-113.376","49.001","CARWAY","3031402","AB","-11.2","1","NA","8.9","0","-28.7","1","","","NA","25.4","1","NA","20.0","9","","","NA","787.1","0.0"
"-113.350","50.282","CHAMPION AGDM","3031480","AB","-15.1","1","NA","6.2","0","-33.3","1","","","NA","15.1","1","NA","","5","","","NA","893.4","0.0"
"-113.639","50.004","CLARESHOLM","3031640","AB","-12.9","1","NA","6.9","0","-34.1","1","","","NA","24.5","1","NA","1.0","8","","","NA","834.9","0.0"
"-114.222","51.076","COP UPPER","3031875","AB","-11.7","1","NA","9.0","0","-27.0","1","","","NA","","","NA","","","","","NA","801.0","0.0"
"-112.433","50.183","ENCHANT AGDM","3032422","AB","-14.4","8","NA","3.0","7","-35.2","3","","","NA","10.6","7","NA","","4","","","NA","647.3","0.0"
"-111.054","49.553","ETZIKOM AGCM","3032450","AB","-16.7","1","NA","4.6","0","-39.1","1","","","NA","20.5","4","NA","","5","","","NA","936.8","0.0"
"-112.033","49.800","FINCASTLE AGDM","3032550","AB","-13.9","1","NA","5.3","0","-36.2","1","","","NA","26.6","5","NA","","6","","","NA","861.3","0.0"
"-111.486","49.483","FOREMOST AGDM","3032642","AB","-14.5","7","NA","4.0","7","-35.3","3","","","NA","21.2","8","NA","","5","","","NA","682.4","0.0"
"-113.379","49.786","FORT MACLEOD AGCM","3032683","AB","-12.9","1","NA","5.5","0","-32.3","1","","","NA","17.8","3","NA","","5","","","NA","833.8","0.0"
"-112.941","50.934","GLEICHEN AGCM","3032801","AB","-15.4","1","NA","4.9","0","-33.9","1","","","NA","13.0","2","NA","","5","","","NA","900.7","0.0"
"-111.733","49.874","GRASSY LAKE","3032927","AB","-12.3","7","NA","4.9","7","-36.0","2","","","NA","21.1","10","NA","","6","","","NA","635.4","0.0"
"-112.733","49.900","IRON SPRINGS AGDM","3033498","AB","-13.2","6","NA","2.6","6","-31.6","2","","","NA","26.8","8","NA","","7","","","NA","685.5","0.0"
"-110.261","49.989","IRVINE AGCM","3033550","AB","-14.8","1","NA","4.9","0","-34.9","1","","","NA","13.7","4","NA","","4","","","NA","885.7","0.0"
"-112.799","49.630","LETHBRIDGE","3033875","AB","-13.0","9","NA","2.0","9","-30.6","9","","","NA","7.6","9","NA","","1","","","NA","589.2","0.0"
"-112.768","49.695","LETHBRIDGE CDA","3033890","AB","","","NA","","","","","","","NA","52.6","0","NA","11.0","7","","","NA","",""
"-112.750","49.683","LETHBRIDGE DEMO FARM AGDM","3033897","AB","-12.7","1","NA","5.1","0","-33.2","1","","","NA","25.0","4","NA","","7","","","NA","829.5","0.0"
"-110.721","50.019","MEDICINE HAT","3034479","AB","-13.0","13","NA","2.9","13","-33.5","13","","","NA","1.7","14","NA","","1","","","NA","464.3","0.0"
"-110.717","50.025","MEDICINE HAT RCS","3034485","AB","-14.9","1","NA","5.0","0","-36.7","1","","","NA","23.0","1","NA","19.0","6","","","NA","888.8","0.0"
"-113.349","50.673","MOSSLEIGH AGCM","3034577","AB","-15.0","1","NA","6.3","0","-37.0","1","","","NA","25.9","4","NA","","7","","","NA","891.5","0.0"
"-114.099","51.369","NIER AGDM","3034795","AB","-11.7","8","NA","6.1","6","-30.3","4","","","NA","2.7","13","NA","","1","","","NA","594.3","0.0"
"-113.997","49.521","PINCHER CREEK","3035198","AB","-13.1","11","NA","3.4","11","-30.6","11","","","NA","2.2","11","NA","","1","","","NA","528.0","0.0"
"-114.005","49.522","PINCHER CREEK CLIMATE","3035208","AB","-11.9","1","NA","4.5","0","-30.6","1","","","NA","43.6","1","NA","5.0","10","","","NA","806.9","0.0"
"-112.983","50.606","QUEENSTOWN","3035340","AB","-15.0","0","-9.4","6.0","0","-34.0","0","44.0","0","277.0","44.0","0","275.0","0.0","8","","","NA","923.0","0.0"
"-112.803","50.598","QUEENSTOWN","3035342","AB","-14.6","3","NA","4.5","3","-29.5","2","","","NA","20.7","3","NA","","5","","","NA","814.5","0.0"
"-112.683","49.483","RAYMOND AGDM","3035422","AB","-12.3","6","NA","5.0","5","-34.3","4","","","NA","20.0","13","NA","","7","","","NA","666.6","0.0"
"-111.701","50.265","ROLLING HILLS AGCM","3035530","AB","-16.1","1","NA","4.5","0","-39.0","1","","","NA","12.2","4","NA","","5","","","NA","919.7","0.0"
"-112.050","50.833","ROSEMARY AGDM","3035650","AB","-17.5","1","NA","5.2","0","-40.6","1","","","NA","13.8","11","NA","","5","","","NA","957.4","0.0"
"-110.917","49.917","SEVEN PERSONS AGDM","3035845","AB","-15.5","1","NA","4.3","0","-35.0","1","","","NA","15.6","5","NA","","4","","","NA","905.3","0.0"
"-112.982","51.228","STANDARD AGCM","3036086","AB","-13.0","1","NA","8.3","0","-29.7","1","","","NA","13.0","1","NA","","4","","","NA","836.0","0.0"
"-113.883","50.183","STAVELY AAFC","3036099","AB","-10.1","1","NA","6.9","0","-22.8","1","","","NA","25.1","1","NA","","9","","","NA","759.7","0.0"
"-113.283","51.033","STRATHMORE AGDM","3036205","AB","-14.1","1","NA","9.7","0","-30.9","1","","","NA","7.9","7","NA","","4","","","NA","866.6","0.0"
"-112.124","49.792","TABER","3036360","AB","-13.7","15","NA","6.0","10","-32.0","10","61.0","10","NA","61.0","10","NA","","6","","","NA","412.4","0.0"
"-112.863","50.304","TRAVERS AGCM","3036500","AB","-13.9","1","NA","3.6","0","-29.6","1","","","NA","21.4","2","NA","","5","","","NA","862.1","0.0"
"-112.133","50.050","VAUXHALL CDA CS","3036682","AB","-15.4","1","NA","4.8","0","-38.5","1","","","NA","","","NA","","","","","NA","900.9","0.0"
"-112.117","49.500","WRENTHAM AGDM","3037675","AB","-13.6","7","NA","2.1","6","-33.6","4","","","NA","21.2","7","NA","","5","","","NA","663.0","0.0"
"-113.961","50.729","OKOTOKS","303M9JM","AB","-12.8","0","-7.8","8.5","0","-30.5","0","36.0","0","209.0","36.0","0","208.0","12.0","8","","","NA","861.2","0.0"
"-112.817","49.050","DEL BONITA AGDM","3042045","AB","-12.0","3","NA","3.7","3","-29.2","2","","","NA","21.1","3","NA","","7","","","NA","750.1","0.0"
"-110.678","49.364","MANYBERRIES AGCM","3044203","AB","-17.3","1","NA","4.8","0","-39.7","1","","","NA","21.4","5","NA","","7","","","NA","953.6","0.0"
"-111.652","49.137","MASINASIN AGDM","3044232","AB","-13.9","6","NA","4.8","6","-33.4","2","","","NA","24.7","6","NA","0.0","6","","","NA","701.9","0.0"
"-112.050","49.133","MILK RIVER","3044533","AB","-14.0","1","NA","6.0","0","-34.4","1","","","NA","27.1","1","NA","17.0","7","","","NA","863.5","0.0"
"-110.467","49.117","ONEFOUR CDA","3044923","AB","-17.1","1","NA","4.2","0","-34.3","1","","","NA","21.9","1","NA","33.0","6","","","NA","946.6","0.0"
"-111.126","49.225","PAKOWKI LAKE AGCM","3045000","AB","-16.0","1","NA","5.0","0","-36.5","1","","","NA","22.5","7","NA","","5","","","NA","918.1","0.0"
"-115.552","51.193","BANFF CS","3050519","AB","-13.5","1","NA","1.1","0","-33.2","1","","","NA","25.2","1","NA","32.0","5","","","NA","851.8","0.0"
"-114.175","49.468","BEAVER MINES","3050602","AB","-11.1","1","NA","4.5","0","-31.7","1","","","NA","59.6","1","NA","0.0","11","","","NA","786.0","0.0"
"-115.067","51.083","BOW VALLEY","3050778","AB","-13.0","1","NA","5.4","0","-33.9","1","","","NA","57.7","1","NA","","11","","","NA","836.1","0.0"
"-114.482","49.628","CROWSNEST","3051R4R","AB","-12.0","1","NA","4.5","0","-35.0","1","","","NA","","","NA","","","","","NA","808.9","0.0"
"-118.030","52.926","JASPER WARDEN","3053536","AB","-13.3","0","NA","4.4","0","-34.9","0","","","NA","22.7","0","NA","","5","","","NA","876.0","0.0"
"-115.035","51.028","KANANASKIS","3053600","AB","-11.6","0","-6.9","7.5","0","-31.5","0","39.6","0","167.0","33.2","0","158.0","0.0","5","","","NA","829.7","0.0"
"-116.040","52.492","NORDEGG CS","3054843","AB","-13.5","1","NA","6.7","0","-35.0","1","","","NA","34.7","1","NA","44.0","7","","","NA","851.3","0.0"
"-114.416","50.368","PEKISKO","3055119","AB","-12.7","4","NA","6.9","4","-32.8","2","","","NA","40.3","4","NA","53.0","10","","","NA","737.5","0.0"
"-113.809","49.131","WATERTON PARK GATE","3056214","AB","-10.8","1","NA","5.7","0","-34.7","1","","","NA","44.1","1","NA","","10","","","NA","777.1","0.0"
"-115.190","50.943","NAKISKA RIDGETOP","305MGFF","AB","-14.6","4","NA","-2.4","4","-27.7","1","","","NA","","","NA","","","","","NA","783.0","0.0"
"-113.382","54.635","ATHABASCA AGCM","3060330","AB","-13.8","1","NA","3.1","0","-27.3","1","","","NA","6.7","15","NA","","3","","","NA","858.4","0.0"
"-112.825","54.782","ATMORE AGDM","3060406","AB","-16.5","9","NA","2.4","9","-32.0","2","","","NA","7.6","7","NA","40.0","3","","","NA","654.9","0.0"
"-114.448","54.095","BARRHEAD CS","3060535","AB","-13.9","1","NA","5.1","0","-32.9","1","","","NA","12.8","1","NA","22.0","3","","","NA","861.2","0.0"
"-117.867","53.350","BRULE BLACK CAT","3060903","AB","-18.8","18","-12.2","-6.5","18","-34.0","17","38.2","18","NA","38.2","18","NA","","5","","","NA","367.9","0.0"
"-114.678","54.131","CAMPSIE AUTO","3061201","AB","-14.0","0","NA","5.1","0","-36.4","0","","","NA","13.2","0","NA","23.0","3","","","NA","895.9","0.0"
"-113.950","54.317","DAPP AGDM","3061975","AB","-16.7","5","NA","4.1","4","-37.4","3","","","NA","15.0","5","NA","","7","","","NA","798.7","0.0"
"-116.465","53.579","EDSON","3062239","AB","-15.5","7","NA","2.5","7","-32.4","7","","","NA","18.8","7","NA","","2","","","NA","703.2","0.0"
"-116.453","53.580","EDSON CLIMATE","3062246","AB","-13.7","0","NA","6.2","0","-35.0","0","","","NA","36.6","0","NA","38.0","6","","","NA","886.9","0.0"
"-114.983","53.600","ENTWISTLE","3062451","AB","-12.0","0","-4.5","6.5","0","-32.0","0","33.0","0","214.0","33.0","0","209.0","35.0","7","","","NA","839.7","0.0"
"-115.062","53.614","EVANSBURG2 AGCM","3062476","AB","-15.2","1","NA","6.4","0","-37.6","1","","","NA","22.8","2","NA","","6","","","NA","896.0","0.0"
"-114.769","54.410","FORT ASSINIBOINE AGCM","3062660","AB","-13.7","4","NA","5.2","3","-31.2","3","","","NA","9.4","4","NA","","2","","","NA","760.1","0.0"
"-111.213","56.651","FORT MCMURRAY CS","3062696","AB","-16.9","1","NA","2.6","0","-40.2","1","","","NA","6.7","1","NA","39.0","1","","","NA","941.0","0.0"
"-111.223","56.653","FORT MCMURRAY A","3062697","AB","-15.8","5","NA","2.6","5","-37.5","5","","","NA","0.0","5","NA","","0","","","NA","776.6","0.0"
"-118.447","53.795","HENDRICKSON CREEK","3063135","AB","-15.7","0","NA","4.7","0","-35.9","0","","","NA","","","NA","67.0","","","","NA","943.9","0.0"
"-113.543","54.821","ISLAND LAKE SOUTH","3063600","AB","-13.9","1","NA","3.4","1","-30.1","1","","","NA","9.4","1","NA","14.0","3","","","NA","862.6","0.0"
"-112.024","54.769","LAC LA BICHE CLIMATE","3063686","AB","-15.2","10","NA","3.3","9","-31.4","8","","","NA","5.1","10","NA","16.0","1","","","NA","598.2","0.0"
"-111.559","57.041","MILDRED LAKE","3064528","AB","-15.8","1","NA","3.6","0","-33.4","1","","","NA","10.4","1","NA","44.0","5","","","NA","912.3","0.0"
"-111.700","54.500","RICH LAKE AGDM","3065475","AB","-16.3","1","NA","2.9","0","-34.5","1","","","NA","10.4","1","NA","","3","","","NA","925.2","0.0"
"-114.777","55.293","SLAVE LAKE","3065995","AB","-14.7","10","NA","1.8","10","-30.2","10","","","NA","0.5","11","NA","","0","","","NA","588.0","0.0"
"-114.777","55.293","SLAVE LAKE RCS","3065997","AB","-14.3","0","NA","2.8","0","-30.6","0","","","NA","31.6","1","NA","15.0","13","","","NA","905.1","0.0"
"-113.520","54.300","TAWATINAW AGCM","3066367","AB","-15.5","7","NA","1.9","6","-28.9","3","","","NA","8.7","8","NA","","2","","","NA","703.9","0.0"
"-115.787","54.144","WHITECOURT A","3067373","AB","","","NA","4.2","0","","","","","NA","","","NA","","","","","NA","",""
"-118.348","53.386","WILLOW CREEK 1","306GE70","AB","-16.2","5","NA","4.0","5","-39.1","2","","","NA","31.4","5","NA","48.0","6","","","NA","785.5","0.0"
"-119.396","55.197","BEAVERLODGE RCS","3070600","AB","-13.4","1","NA","3.3","0","-31.9","1","","","NA","33.2","1","NA","25.0","6","","","NA","846.8","0.0"
"-117.886","56.118","BROWNVALE AGCM","3070800","AB","-16.5","12","NA","0.2","11","-31.8","5","","","NA","10.3","13","NA","","3","","","NA","552.7","0.0"
"-117.887","55.808","EAGLESHAM AGCM","3072151","AB","-15.6","1","NA","2.7","1","-35.2","1","","","NA","13.9","1","NA","","5","","","NA","907.2","0.0"
"-118.439","56.081","FAIRVIEW AGDM","3072525","AB","-16.2","1","NA","1.9","0","-33.5","1","","","NA","12.2","3","NA","","5","","","NA","924.7","0.0"
"-111.117","58.767","FORT CHIPEWYAN","3072655","AB","-19.0","5","NA","-0.3","5","-40.2","5","","","NA","0.0","5","NA","","0","","","NA","851.5","0.0"
"-111.117","58.767","FORT CHIPEWYAN RCS","3072659","AB","-21.2","1","NA","-0.4","0","-40.7","1","","","NA","36.3","1","NA","41.0","15","","","NA","1058.1","0.0"
"-116.040","58.382","FORT VERMILION","3072723","AB","-17.6","0","NA","-0.9","0","-36.9","0","","","NA","3.5","0","NA","46.0","2","","","NA","997.7","0.0"
"-118.885","55.180","GRANDE PRAIRIE A","3072921","AB","-15.4","0","NA","3.7","0","-41.1","0","39.2","0","NA","33.6","0","NA","30.0","7","","","NA","935.3","0.0"
"-117.298","57.265","HAWK HILLS AGCM","3073071","AB","-16.8","1","NA","1.7","0","-36.6","1","","","NA","5.7","1","NA","","1","","","NA","939.2","0.0"
"-117.165","58.622","HIGH LEVEL","3073140","AB","-16.7","3","NA","2.8","3","-36.9","3","","","NA","2.3","3","NA","","1","","","NA","867.4","0.0"
"-117.165","58.621","HIGH LEVEL A","3073146","AB","-17.2","0","-0.3","3.0","0","-39.0","0","2.8","0","13.0","1.2","0","7.0","35.0","0","","","NA","984.9","0.0"
"-117.120","55.913","JEAN COTE AGCM","3073535","AB","-15.6","1","NA","2.2","0","-31.9","1","","","NA","12.5","1","NA","","4","","","NA","908.3","0.0"
"-116.343","58.172","LA CRETE AGCM","3073730","AB","-16.4","1","NA","0.1","0","-33.4","1","","","NA","8.3","1","NA","","3","","","NA","928.5","0.0"
"-119.255","55.422","LA GLACE AGCM","3073740","AB","-16.6","1","NA","2.2","0","-40.8","1","","","NA","24.6","1","NA","","5","","","NA","935.0","0.0"
"-117.644","56.951","MANNING","3074182","AB","","","","","","-32.5","21","2.0","21","NA","2.0","21","NA","","1","","","NA","",""
"-117.451","56.974","MANNING AGDM","3074190","AB","-21.9","15","NA","1.0","13","-34.2","13","","","NA","","","NA","","","","","NA","518.3","0.0"
"-119.745","56.314","CLEARDALE AGDM","3074935","AB","-12.7","9","NA","3.2","8","-36.3","3","","","NA","9.1","9","NA","","4","","","NA","584.1","0.0"
"-117.448","56.227","PEACE RIVER A","3075041","AB","-16.4","0","NA","2.4","0","-34.4","0","12.4","0","NA","8.6","0","NA","26.0","2","","","NA","962.4","0.0"
"-118.293","55.621","PEORIA AGDM","3075160","AB","-13.9","11","NA","2.6","11","-38.3","3","","","NA","34.0","11","NA","","12","","","NA","542.3","0.0"
"-115.278","56.552","RED EARTH","3075488","AB","-15.7","3","NA","2.2","3","-36.0","2","","","NA","36.7","3","NA","42.0","19","","","NA","843.2","0.0"
"-118.668","55.777","RYCROFT AGCM","3075601","AB","-16.9","8","NA","3.8","8","-35.8","3","","","NA","17.2","8","NA","","4","","","NA","698.0","0.0"
"-119.345","56.076","SAVANNA AGCM","3075770","AB","-13.3","10","NA","2.4","9","-25.6","5","","","NA","15.0","11","NA","","5","","","NA","562.6","0.0"
"-117.741","54.425","SIMONETTE","3075937","AB","-12.3","6","-5.4","7.0","3","-32.0","3","24.0","3","NA","24.0","3","NA","0.0","8","","","NA","665.5","0.0"
"-119.230","55.695","SPIRIT RIVER AUTO STATION","3076069","AB","-12.8","5","NA","1.3","5","-28.4","3","","","NA","48.5","5","NA","66.0","10","","","NA","709.4","0.0"
"-118.408","55.352","TEEPEE CREEK AGCM","3076366","AB","-13.4","11","NA","1.4","10","-41.3","10","","","NA","17.5","11","NA","","4","","","NA","534.1","0.0"
"-117.199","55.098","VALLEYVIEW AGDM","3076680","AB","-14.5","1","NA","3.1","0","-32.4","1","","","NA","20.8","1","NA","","6","","","NA","878.0","0.0"
"-110.283","54.417","COLD LAKE A","3081680","AB","-15.5","0","-3.7","2.4","0","-32.8","0","6.8","0","45.0","6.2","0","57.0","23.0","2","","","NA","937.5","0.0"
"-110.868","54.367","DUPRE AGCM","3081690","AB","-14.9","6","NA","3.5","5","-35.1","5","","","NA","2.7","7","NA","","1","","","NA","724.7","0.0"
"-104.710","50.201","BRATT'S LAKE CLIMATE","4010811","SK","-17.9","4","NA","1.0","4","-34.0","4","","","NA","3.1","4","NA","2.0","1","","","NA","862.4","0.0"
"-102.571","50.368","BROADVIEW","4010879","SK","-17.5","1","-4.9","0.3","1","-33.3","1","","","NA","8.6","2","NA","5.0","2","","","NA","957.7","0.0"
"-105.383","50.550","BUFFALO POUND LAKE","4010984","SK","-16.5","0","NA","2.5","0","-33.0","0","7.2","0","NA","7.2","0","NA","0.0","1","","","NA","965.1","0.0"
"-104.267","50.850","CUPAR","4011980","SK","-20.1","11","-7.3","2.0","10","-35.0","10","0.0","10","NA","0.0","10","NA","0.0","0","","","NA","648.0","0.0"
"-104.867","51.183","DUVAL","4012300","SK","-12.3","16","-1.1","0.0","16","-28.0","16","1.0","16","NA","1.0","16","NA","0.0","1","","","NA","363.0","0.0"
"-102.966","49.210","ESTEVAN A","4012401","SK","-17.5","0","NA","2.3","0","-35.2","0","4.6","0","NA","8.4","0","NA","5.0","3","","","NA","993.4","0.0"
"-102.967","49.217","ESTEVAN","4012410","SK","-17.2","0","NA","2.8","0","-35.0","0","","","NA","8.7","0","NA","5.0","3","","","NA","985.2","0.0"
"-103.650","50.550","INDIAN HEAD CDA","4013480","SK","-17.9","0","-5.9","0.3","0","-33.3","0","","","NA","4.8","0","34.0","0.0","2","","","NA","1005.0","0.0"
"-103.753","51.257","KELLIHER","4013660","SK","-18.2","0","-5.7","0.5","0","-32.5","0","5.4","0","37.0","5.4","0","36.0","18.0","3","","","NA","1014.3","0.0"
"-102.733","50.200","KIPLING","4014040","SK","-17.2","0","-5.3","1.0","0","-33.0","0","9.0","0","66.0","9.0","0","60.0","0.0","4","","","NA","986.7","0.0"
"-101.717","50.900","LANGENBURG","4014145","SK","-20.8","14","-7.1","1.5","14","-33.0","14","2.0","14","NA","2.0","14","NA","20.0","2","","","NA","543.3","0.0"
"-105.250","51.417","LAST MOUNTAIN CS","4014156","SK","-17.9","1","-5.9","1.2","1","-33.1","1","","","NA","2.9","1","NA","7.0","1","","","NA","970.5","0.0"
"-104.633","52.000","LEROY","4014322","SK","-18.4","0","-5.0","0.0","0","-33.5","0","1.2","0","11.0","1.2","0","10.0","15.0","0","","","NA","1020.3","0.0"
"-103.889","51.152","LIPTON 2","4014481","SK","-17.2","6","-3.4","0.5","6","-31.0","6","5.2","6","NA","5.2","6","NA","14.0","1","","","NA","774.6","0.0"
"-105.538","50.332","MOOSE JAW CS","4015322","SK","-16.3","0","NA","1.2","0","-33.4","0","","","NA","7.1","0","NA","7.0","2","","","NA","961.0","0.0"
"-105.000","52.333","MUENSTER","4015440","SK","-17.1","17","-4.1","12.5","17","-32.0","17","0.0","17","NA","0.0","17","NA","","0","","","NA","386.2","0.0"
"-102.117","49.317","OXBOW","4015800","SK","-17.3","2","NA","2.5","2","-35.0","2","13.0","2","NA","13.0","2","NA","0.0","3","","","NA","918.3","0.0"
"-103.983","50.567","QU'APPELLE 1","4016322","SK","-16.0","0","-4.6","1.5","0","-31.0","0","4.2","0","38.0","4.8","0","42.0","11.0","1","","","NA","952.1","0.0"
"-104.667","50.433","REGINA RCS","4016699","SK","-18.2","0","NA","0.7","0","-33.6","0","","","NA","4.3","0","NA","2.0","3","","","NA","1012.4","0.0"
"-105.400","51.667","WATROUS EAST","4018642","SK","-17.7","0","NA","0.9","0","-32.0","0","","","NA","1.7","0","NA","4.0","1","","","NA","999.2","0.0"
"-104.183","49.817","YELLOW GRASS NORTH","4019041","SK","-17.1","0","NA","1.8","0","-34.3","0","","","NA","6.4","0","NA","1.0","2","","","NA","982.7","0.0"
"-102.464","51.265","YORKTON","4019073","SK","-17.7","0","NA","-0.1","0","-30.9","0","","","NA","5.5","0","NA","4.0","1","","","NA","998.5","0.0"
"-102.462","51.265","YORKTON","4019075","SK","-16.4","8","NA","0.1","8","-31.0","8","","","NA","2.5","8","NA","","1","","","NA","688.3","0.0"
"-104.200","51.767","WYNYARD (AUT)","40190LN","SK","-17.4","0","NA","0.8","0","-30.6","0","","","NA","5.3","0","NA","7.0","0","","","NA","991.0","0.0"
"-103.800","49.700","WEYBURN","401HP5R","SK","-17.9","0","NA","1.0","0","-36.5","0","","","NA","5.3","0","NA","12.0","2","","","NA","1004.3","0.0"
"-105.946","49.729","ASSINIBOIA AIRPORT","4020286","SK","-17.0","0","NA","1.4","0","-33.6","0","","","NA","5.1","0","NA","3.0","1","","","NA","979.5","0.0"
"-107.311","50.832","BEECHY","4020560","SK","-16.0","0","-6.8","3.5","0","-36.0","0","12.0","0","153.0","12.0","0","141.0","10.0","3","","","NA","951.5","0.0"
"-106.583","51.133","ELBOW CS","4022359","SK","-17.0","1","NA","1.1","1","-31.5","1","","","NA","4.4","1","NA","11.0","1","","","NA","945.8","0.0"
"-106.550","51.167","ELBOW 2 NE","4022363","SK","-15.5","0","-4.9","17.0","0","-32.0","0","6.2","0","89.0","6.4","0","83.0","3.0","2","","","NA","937.1","0.0"
"-107.150","50.950","LUCKY LAKE","4024714","SK","-17.1","1","NA","2.4","1","-32.7","1","","","NA","4.7","1","NA","3.0","2","","","NA","949.0","0.0"
"-109.466","49.903","MAPLE CREEK","4024919","SK","-15.5","0","NA","7.3","0","-39.5","0","","","NA","14.8","0","NA","2.0","5","","","NA","937.4","0.0"
"-107.263","51.154","ROCK POINT","4026847","SK","-15.8","0","-5.8","2.0","0","-30.5","0","13.4","0","148.0","13.4","0","143.0","7.0","3","","","NA","945.8","0.0"
"-107.800","50.600","STEWART VALLEY","4027775","SK","-15.9","10","-7.1","3.0","10","-33.0","10","5.0","10","NA","5.0","10","NA","0.0","2","","","NA","610.5","0.0"
"-107.691","50.292","SWIFT CURRENT","4028038","SK","-16.3","13","NA","1.7","13","-34.1","13","","","NA","1.2","13","NA","","1","","","NA","514.3","0.0"
"-107.733","50.267","SWIFT CURRENT CDA","4028060","SK","-16.7","0","-8.6","2.2","0","-32.5","0","","","NA","5.7","0","63.0","4.0","3","","","NA","972.7","0.0"
"-109.501","50.909","LEADER AIRPORT","402DAF0","SK","-17.8","1","NA","2.3","1","-36.5","1","","","NA","10.5","1","NA","10.0","4","","","NA","967.8","0.0"
"-105.517","49.117","CORONACH","4031844","SK","-18.3","3","-9.5","1.5","2","-38.5","1","12.0","1","NA","13.0","1","NA","16.0","3","","","NA","908.7","0.0"
"-105.483","49.050","CORONACH SPC","40318MN","SK","-17.3","1","-9.2","2.3","1","-37.5","1","","","NA","9.3","1","NA","6.0","4","","","NA","954.2","0.0"
"-109.514","49.641","CYPRESS HILLS PARK","4031999","SK","-15.2","2","NA","8.0","2","-28.9","1","","","NA","35.6","3","NA","24.0","8","","","NA","862.8","0.0"
"-108.989","49.438","EASTEND CYPRESS (AUT)","4032322","SK","-18.4","1","NA","-0.8","1","-34.5","1","","","NA","8.0","2","NA","67.0","2","","","NA","981.7","0.0"
"-107.024","49.099","MANKOTA","4034910","SK","-18.9","4","-9.6","1.8","4","-39.6","2","","","NA","11.0","4","NA","20.0","4","","","NA","885.8","0.0"
"-105.979","49.168","ROCKGLEN (AUT)","4036844","SK","-17.1","0","NA","1.7","0","-33.8","0","","","NA","9.9","0","NA","8.0","3","","","NA","984.0","0.0"
"-107.586","49.058","VAL MARIE SOUTHEAST","4038412","SK","-20.4","2","NA","2.0","2","-43.6","1","","","NA","13.5","2","NA","5.0","4","","","NA","998.8","0.0"
"-108.407","51.294","BICKLEIGH","4040587","SK","-18.3","8","-7.6","1.5","7","-34.5","6","11.2","7","NA","9.8","7","NA","","3","","","NA","725.9","0.0"
"-109.200","53.450","BUTTE ST PIERRE","4041000","SK","-18.2","0","-4.7","6.0","0","-37.0","0","3.8","0","41.0","3.8","0","40.0","18.0","2","","","NA","1014.8","0.0"
"-109.181","51.515","KINDERSLEY A","4043901","SK","-18.4","0","NA","1.2","0","-36.4","0","8.0","0","NA","6.4","0","NA","8.0","3","","","NA","1020.3","0.0"
"-108.256","52.772","NORTH BATTLEFORD RCS","4045607","SK","-18.1","0","NA","2.6","0","-33.3","0","","","NA","4.4","0","NA","10.0","1","","","NA","1011.6","0.0"
"-108.244","52.769","NORTH BATTLEFORD","4045695","SK","-17.3","7","NA","2.6","7","-32.7","7","","","NA","0.0","7","NA","","0","","","NA","740.7","0.0"
"-107.917","51.567","ROSETOWN EAST","4046884","SK","-18.1","1","NA","1.4","1","-32.3","1","","","NA","4.8","1","NA","5.0","2","","","NA","974.3","0.0"
"-108.835","52.360","SCOTT CDA","4047240","SK","-18.5","1","-5.6","3.5","1","-33.3","1","","","NA","4.3","1","NA","10.0","2","","","NA","984.6","0.0"
"-107.767","52.317","SONNINGDALE","4047644","SK","-10.1","21","NA","1.0","21","-22.5","21","0.4","21","NA","0.4","21","NA","0.0","0","","","NA","196.7","0.0"
"-109.405","53.131","WASECA RCS","4048521","SK","-17.0","0","NA","2.3","0","-31.0","0","","","NA","5.9","0","NA","36.0","2","","","NA","978.8","0.0"
"-104.600","52.817","MELFORT","4055079","SK","-18.9","1","NA","0.7","1","-33.4","1","","","NA","2.3","2","NA","13.0","0","","","NA","996.2","0.0"
"-107.050","51.483","OUTLOOK PFRA","4055736","SK","-16.6","1","-6.5","2.0","1","-30.2","0","","","NA","4.9","1","NA","5.0","2","","","NA","934.3","0.0"
"-105.150","52.417","PILGER","4056121","SK","-18.7","0","NA","0.2","0","-33.3","0","","","NA","1.2","0","NA","34.0","0","","","NA","1027.2","0.0"
"-105.673","53.214","PRINCE ALBERT A","4056241","SK","-18.9","0","NA","0.8","0","-37.2","0","2.8","0","NA","2.4","0","NA","18.0","0","","","NA","1033.0","0.0"
"-105.677","53.210","PRINCE ALBERT GLASS FIELD","4056243","SK","-18.9","0","NA","1.1","0","-38.2","0","","","NA","0.9","0","NA","23.0","0","","","NA","1033.8","0.0"
"-106.719","52.174","SASKATOON RCS","4057165","SK","-18.1","0","NA","2.3","0","-32.4","0","","","NA","6.1","0","NA","20.0","1","","","NA","1011.3","0.0"
"-108.421","55.841","BUFFALO NARROWS (AUT)","4060983","SK","-17.6","1","NA","2.9","1","-35.8","1","","","NA","9.8","2","NA","32.0","3","","","NA","961.8","0.0"
"-104.483","58.083","CIGAR LAKE","4061570","SK","-27.1","2","-6.7","-7.0","1","-48.0","1","5.0","1","NA","5.0","1","NA","64.0","4","","","NA","1171.8","0.0"
"-103.678","58.229","COLLINS BAY SK","4061620","SK","-24.6","0","NA","-4.6","0","-45.1","0","","","NA","8.7","0","NA","37.0","3","","","NA","1192.8","0.0"
"-103.712","58.190","COLLINS BAY","4061629","SK","-24.6","0","NA","-4.6","0","-45.1","0","","","NA","8.7","0","NA","37.0","3","","","NA","1192.8","0.0"
"-103.700","58.183","COLLINS BAY CAMECO","4061632","SK","-25.0","0","NA","-5.5","0","-41.0","0","18.4","0","NA","18.4","0","NA","0.0","8","","","NA","1204.3","0.0"
"-102.350","55.533","ISLAND FALLS (AUT)","4063605","SK","-20.4","0","NA","-0.9","0","-40.5","0","","","NA","8.1","0","NA","47.0","3","","","NA","1075.6","0.0"
"-109.962","54.908","JIMMY LAKE AWOS","4063623","SK","-16.6","4","NA","4.1","2","-33.0","2","","","NA","7.0","4","NA","","3","","","NA","831.2","0.0"
"-105.600","57.250","KEY LAKE","4063753","SK","-23.1","0","NA","-5.0","0","-47.6","0","","","NA","8.4","0","NA","54.0","3","","","NA","1152.0","0.0"
"-105.617","57.250","KEY LAKE","4063755","SK","-22.6","0","-3.9","-4.5","0","-44.5","0","12.6","0","74.0","12.6","0","73.0","75.0","7","","","NA","1137.5","0.0"
"-105.618","57.256","KEY LAKE","4063757","SK","-21.1","9","NA","-5.0","9","-44.0","9","","","NA","1.4","22","NA","","1","","","NA","742.3","0.0"
"-105.270","55.146","LA RONGE RCS","4064149","SK","-18.3","0","NA","-0.4","0","-35.2","0","","","NA","8.1","0","NA","57.0","3","","","NA","1015.0","0.0"
"-105.267","55.151","LA RONGE A","4064155","SK","-18.8","0","NA","-0.6","0","-37.4","0","7.8","0","NA","8.2","0","NA","64.0","4","","","NA","1029.5","0.0"
"-109.138","54.020","LOON LAKE RCS","4064620","SK","-16.9","0","NA","3.2","0","-36.6","0","","","NA","6.2","0","NA","20.0","1","","","NA","977.2","0.0"
"-108.050","54.125","MEADOW LAKE A","4065057","SK","","","NA","1.8","0","","","","","NA","","","NA","22.0","","","","NA","",""
"-103.283","56.333","SOUTHEND","4067655","SK","-21.8","1","NA","-1.9","1","-40.8","1","","","NA","14.7","1","NA","56.0","6","","","NA","1075.2","0.0"
"-107.550","53.367","SPIRITWOOD WEST","4067723","SK","-17.7","1","NA","2.2","1","-36.8","0","","","NA","3.9","1","NA","13.0","0","","","NA","963.0","0.0"
"-105.841","59.250","STONY RAPIDS","4067799","SK","-25.3","12","NA","-8.1","12","-44.7","12","","","NA","0.0","12","NA","","0","","","NA","693.0","0.0"
"-106.067","53.917","WASKESIU LAKE","4068559","SK","-17.7","0","NA","3.6","0","-32.3","0","","","NA","3.4","0","NA","36.0","0","","","NA","998.5","0.0"
"-108.517","54.133","MEADOW LAKE","406N0NM","SK","-18.4","0","NA","1.9","0","-39.6","0","","","NA","2.4","0","NA","22.0","0","","","NA","1018.4","0.0"
"-108.483","59.567","URANIUM CITY (AUT)","406QLD0","SK","-24.8","1","NA","-2.6","1","-42.5","1","","","NA","10.0","1","NA","54.0","2","","","NA","1156.4","0.0"
"-104.008","53.333","NIPAWIN","4075525","SK","-17.9","6","NA","0.6","6","-36.2","6","","","NA","0.0","6","NA","","0","","","NA","788.8","0.0"
"-104.000","53.333","NIPAWIN","407N51G","SK","-18.9","1","NA","0.4","1","-37.0","1","","","NA","4.3","1","NA","23.0","1","","","NA","995.5","0.0"
"-102.317","52.817","HUDSON BAY(AUT)","4083324","SK","-18.9","2","NA","0.2","2","-34.9","1","","","NA","5.3","2","NA","37.0","1","","","NA","959.8","0.0"
"-103.833","52.583","MCKAGUE 2","4085052","SK","-17.6","14","-3.6","-3.5","14","-32.0","14","4.0","4","NA","4.0","4","NA","","1","","","NA","499.0","0.0"
"-99.292","49.276","BALDUR","5010140","MB","-16.3","0","-4.1","3.5","0","-29.0","0","5.0","0","26.0","5.0","0","25.0","0.0","2","","","NA","961.4","0.0"
"-99.952","49.910","BRANDON A","5010481","MB","-17.8","0","NA","-0.7","0","-30.8","0","9.0","0","NA","7.2","0","NA","9.0","3","","","NA","1001.5","0.0"
"-99.950","49.900","BRANDON RCS","5010490","MB","-17.2","0","NA","-0.2","0","-30.1","0","","","NA","7.8","0","NA","10.0","3","","","NA","985.3","0.0"
"-99.357","49.906","CARBERRY CS","5010547","MB","-16.5","0","NA","1.0","0","-30.0","0","","","NA","3.8","0","NA","3.0","0","","","NA","966.2","0.0"
"-99.074","49.562","CYPRESS RIVER RCS","5010641","MB","-15.9","0","NA","1.4","0","-29.3","0","","","NA","4.0","0","NA","3.0","1","","","NA","948.6","0.0"
"-101.203","49.927","ELKHORN 2 EAST","5010QFQ","MB","-18.2","17","-6.2","2.5","17","-27.5","17","3.6","17","NA","3.6","17","NA","","2","","","NA","398.5","0.0"
"-98.300","49.983","PORTAGE ROMANCE","5012300","MB","","","NA","","","","","7.2","0","NA","7.2","0","NA","21.0","3","","","NA","",""
"-98.284","49.903","PORTAGE SOUTHPORT","5012324","MB","-15.1","0","NA","2.6","0","-27.6","0","","","NA","7.2","0","NA","0.0","3","","","NA","928.0","0.0"
"-101.363","51.183","ROBLIN","5012469","MB","-19.6","0","NA","-0.8","0","-34.2","0","","","NA","4.6","0","NA","4.0","1","","","NA","1053.0","0.0"
"-100.604","50.455","SHOAL LAKE CS","5012654","MB","-18.5","0","NA","-1.3","0","-31.8","0","","","NA","1.5","0","NA","28.0","0","","","NA","1021.3","0.0"
